06/13/2021,17:20:04.029,$GPGGA,172004,3241.8221,N,11709.3717,W,1,8,2.3,11,M,,M,,*58
06/13/2021,17:20:04.929,$GPGGA,172005,3241.8221,N,11709.3717,W,1,8,2.3,11,M,,M,,*59
06/13/2021,17:20:06.029,$GPGGA,172006,3241.8221,N,11709.3717,W,1,8,2.3,11,M,,M,,*5A
06/13/2021,17:20:06.930,$GPGGA,172007,3241.8221,N,11709.3717,W,1,8,2.3,11,M,,M,,*5B
06/13/2021,17:20:08.029,$GPGGA,172008,3241.8221,N,11709.3716,W,1,8,2.3,11,M,,M,,*55
06/13/2021,17:20:08.930,$GPGGA,172009,3241.8221,N,11709.3717,W,1,8,2.3,11,M,,M,,*55
06/13/2021,17:20:10.030,$GPGGA,172010,3241.8219,N,11709.3716,W,1,8,2.3,11,M,,M,,*57
06/13/2021,17:20:10.929,$GPGGA,172011,3241.8220,N,11709.3717,W,1,8,2.3,10,M,,M,,*5C
06/13/2021,17:20:12.029,$GPGGA,172012,3241.8219,N,11709.3715,W,1,8,2.3,10,M,,M,,*57
06/13/2021,17:20:12.930,$GPGGA,172013,3241.8220,N,11709.3715,W,1,8,2.3,10,M,,M,,*5C
06/13/2021,17:20:14.029,$GPGGA,172014,3241.8219,N,11709.3715,W,1,8,2.3,10,M,,M,,*51
06/13/2021,17:20:14.929,$GPGGA,172015,3241.8218,N,11709.3715,W,1,8,2.3,10,M,,M,,*51
06/13/2021,17:20:16.029,$GPGGA,172016,3241.8219,N,11709.3714,W,1,8,2.3,10,M,,M,,*52
06/13/2021,17:20:16.930,$GPGGA,172017,3241.8218,N,11709.3714,W,1,8,2.3,10,M,,M,,*52
06/13/2021,17:20:18.030,$GPGGA,172018,3241.8219,N,11709.3714,W,1,8,2.3,10,M,,M,,*5C
06/13/2021,17:20:18.929,$GPGGA,172019,3241.8218,N,11709.3713,W,1,8,2.3,10,M,,M,,*5B
06/13/2021,17:20:20.030,$GPGGA,172020,3241.8219,N,11709.3714,W,1,8,2.3,10,M,,M,,*57
06/13/2021,17:20:20.930,$GPGGA,172021,3241.8217,N,11709.3713,W,1,8,2.3,10,M,,M,,*5F
06/13/2021,17:20:22.030,$GPGGA,172022,3241.8217,N,11709.3712,W,1,8,2.3,10,M,,M,,*5D
06/13/2021,17:20:22.930,$GPGGA,172023,3241.8217,N,11709.3712,W,1,8,2.3,10,M,,M,,*5C
06/13/2021,17:20:24.030,$GPGGA,172024,3241.8217,N,11709.3712,W,1,8,2.3,10,M,,M,,*5B
06/13/2021,17:20:24.930,$GPGGA,172025,3241.8217,N,11709.3711,W,1,8,2.3,10,M,,M,,*59
06/13/2021,17:20:26.030,$GPGGA,172026,3241.8217,N,11709.3711,W,1,8,2.3,10,M,,M,,*5A
06/13/2021,17:20:26.931,$GPGGA,172027,3241.8217,N,11709.3711,W,1,8,2.3,10,M,,M,,*5B
06/13/2021,17:20:28.030,$GPGGA,172028,3241.8217,N,11709.3710,W,1,8,2.3,10,M,,M,,*55
06/13/2021,17:20:28.930,$GPGGA,172029,3241.8217,N,11709.3710,W,1,8,2.3,10,M,,M,,*54
06/13/2021,17:20:30.030,$GPGGA,172030,3241.8217,N,11709.3710,W,1,8,2.3,10,M,,M,,*5C
06/13/2021,17:20:30.930,$GPGGA,172031,3241.8217,N,11709.3710,W,1,8,2.3,10,M,,M,,*5D
06/13/2021,17:20:32.030,$GPGGA,172032,3241.8217,N,11709.3709,W,1,8,2.3,10,M,,M,,*56
06/13/2021,17:20:32.930,$GPGGA,172033,3241.8217,N,11709.3710,W,1,8,2.3,10,M,,M,,*5F
06/13/2021,17:20:34.031,$GPGGA,172034,3241.8217,N,11709.3709,W,1,8,2.3,10,M,,M,,*50
06/13/2021,17:20:34.931,$GPGGA,172035,3241.8217,N,11709.3710,W,1,8,2.3,10,M,,M,,*59
06/13/2021,17:20:36.031,$GPGGA,172036,3241.8217,N,11709.3708,W,1,8,2.3,10,M,,M,,*53
06/13/2021,17:20:36.931,$GPGGA,172037,3241.8217,N,11709.3708,W,1,8,2.3,10,M,,M,,*52
06/13/2021,17:20:38.031,$GPGGA,172038,3241.8217,N,11709.3708,W,1,8,2.3,10,M,,M,,*5D
06/13/2021,17:20:38.931,$GPGGA,172039,3241.8217,N,11709.3708,W,1,8,2.3,10,M,,M,,*5C
06/13/2021,17:20:40.031,$GPGGA,172040,3241.8217,N,11709.3707,W,1,8,2.3,10,M,,M,,*5D
06/13/2021,17:20:40.931,$GPGGA,172041,3241.8217,N,11709.3707,W,1,8,2.3,10,M,,M,,*5C
06/13/2021,17:20:42.031,$GPGGA,172042,3241.8217,N,11709.3707,W,1,8,2.3,10,M,,M,,*5F
06/13/2021,17:20:42.931,$GPGGA,172043,3241.8217,N,11709.3706,W,1,8,2.3,10,M,,M,,*5F
06/13/2021,17:20:44.032,$GPGGA,172044,3241.8217,N,11709.3707,W,1,8,2.3,10,M,,M,,*59
06/13/2021,17:20:44.932,$GPGGA,172045,3241.8217,N,11709.3706,W,1,8,2.3,10,M,,M,,*59
06/13/2021,17:20:46.031,$GPGGA,172046,3241.8217,N,11709.3707,W,1,8,2.3,10,M,,M,,*5B
06/13/2021,17:20:46.932,$GPGGA,172047,3241.8217,N,11709.3706,W,1,8,2.3,10,M,,M,,*5B
06/13/2021,17:20:48.032,$GPGGA,172048,3241.8217,N,11709.3707,W,1,8,2.3,10,M,,M,,*55
06/13/2021,17:20:48.931,$GPGGA,172049,3241.8217,N,11709.3706,W,1,8,2.3,10,M,,M,,*55
06/13/2021,17:20:50.032,$GPGGA,172050,3241.8217,N,11709.3707,W,1,8,2.3,10,M,,M,,*5C
06/13/2021,17:20:50.931,$GPGGA,172051,3241.8219,N,11709.3705,W,1,8,2.3,10,M,,M,,*51
06/13/2021,17:20:52.031,$GPGGA,172052,3241.8218,N,11709.3706,W,1,8,2.3,10,M,,M,,*50
06/13/2021,17:20:52.931,$GPGGA,172053,3241.8219,N,11709.3705,W,1,8,2.3,10,M,,M,,*53
06/13/2021,17:20:54.032,$GPGGA,172054,3241.8220,N,11709.3706,W,1,8,2.3,10,M,,M,,*5D
06/13/2021,17:20:54.932,$GPGGA,172055,3241.8219,N,11709.3704,W,1,8,2.3,10,M,,M,,*54
06/13/2021,17:20:56.031,$GPGGA,172056,3241.8220,N,11709.3704,W,1,8,2.3,10,M,,M,,*5D
06/13/2021,17:20:56.932,$GPGGA,172057,3241.8219,N,11709.3704,W,1,8,2.3,10,M,,M,,*56
06/13/2021,17:20:58.032,$GPGGA,172058,3241.8220,N,11709.3704,W,1,8,2.3,10,M,,M,,*53
06/13/2021,17:20:58.931,$GPGGA,172059,3241.8221,N,11709.3703,W,1,8,2.3,10,M,,M,,*54
06/13/2021,17:21:00.032,$GPGGA,172100,3241.8221,N,11709.3703,W,1,8,2.3,10,M,,M,,*59
06/13/2021,17:21:00.932,$GPGGA,172101,3241.8221,N,11709.3703,W,1,8,2.3,10,M,,M,,*58
06/13/2021,17:21:02.032,$GPGGA,172102,3241.8221,N,11709.3703,W,1,8,2.3,10,M,,M,,*5B
06/13/2021,17:21:02.932,$GPGGA,172103,3241.8221,N,11709.3703,W,1,8,2.3,10,M,,M,,*5A
06/13/2021,17:21:04.032,$GPGGA,172104,3241.8221,N,11709.3702,W,1,8,2.3,10,M,,M,,*5C
06/13/2021,17:21:04.932,$GPGGA,172105,3241.8221,N,11709.3703,W,1,8,2.3,10,M,,M,,*5C
06/13/2021,17:21:06.033,$GPGGA,172106,3241.8221,N,11709.3702,W,1,8,2.3,10,M,,M,,*5E
06/13/2021,17:21:06.933,$GPGGA,172107,3241.8221,N,11709.3703,W,1,8,2.3,10,M,,M,,*5E
06/13/2021,17:21:08.033,$GPGGA,172108,3241.8221,N,11709.3702,W,1,8,2.3,10,M,,M,,*50
06/13/2021,17:21:08.932,$GPGGA,172109,3241.8223,N,11709.3703,W,1,8,2.3,10,M,,M,,*52
06/13/2021,17:21:10.033,$GPGGA,172110,3241.8222,N,11709.3702,W,1,8,2.3,10,M,,M,,*5A
06/13/2021,17:21:10.933,$GPGGA,172111,3241.8223,N,11709.3703,W,1,8,2.3,10,M,,M,,*5B
06/13/2021,17:21:12.033,$GPGGA,172112,3241.8222,N,11709.3703,W,1,8,2.3,10,M,,M,,*59
06/13/2021,17:21:12.932,$GPGGA,172113,3241.8223,N,11709.3703,W,1,8,2.3,10,M,,M,,*59
06/13/2021,17:21:14.032,$GPGGA,172114,3241.8224,N,11709.3703,W,1,8,2.3,10,M,,M,,*59
06/13/2021,17:21:14.932,$GPGGA,172115,3241.8223,N,11709.3703,W,1,8,2.3,10,M,,M,,*5F
06/13/2021,17:21:16.033,$GPGGA,172116,3241.8222,N,11709.3703,W,1,8,2.3,10,M,,M,,*5D
06/13/2021,17:21:16.933,$GPGGA,172117,3241.8223,N,11709.3703,W,1,8,2.3,10,M,,M,,*5D
06/13/2021,17:21:18.033,$GPGGA,172118,3241.8224,N,11709.3703,W,1,8,2.3,10,M,,M,,*55
06/13/2021,17:21:18.933,$GPGGA,172119,3241.8223,N,11709.3703,W,1,8,2.3,10,M,,M,,*53
06/13/2021,17:21:20.033,$GPGGA,172120,3241.8224,N,11709.3703,W,1,8,2.3,10,M,,M,,*5E
06/13/2021,17:21:20.923,$GPGGA,172121,3241.8223,N,11709.3703,W,1,8,2.3,10,M,,M,,*58
06/13/2021,17:21:22.033,$GPGGA,172122,3241.8224,N,11709.3703,W,1,8,2.3,10,M,,M,,*5C
06/13/2021,17:21:22.934,$GPGGA,172123,3241.8222,N,11709.3703,W,1,8,2.3,10,M,,M,,*5B
06/13/2021,17:21:24.033,$GPGGA,172124,3241.8223,N,11709.3703,W,1,8,2.3,10,M,,M,,*5D
06/13/2021,17:21:24.924,$GPGGA,172125,3241.8222,N,11709.3702,W,1,8,2.3,10,M,,M,,*5C
06/13/2021,17:21:26.033,$GPGGA,172126,3241.8223,N,11709.3703,W,1,8,2.3,10,M,,M,,*5F
06/13/2021,17:21:26.924,$GPGGA,172127,3241.8222,N,11709.3702,W,1,8,2.3,10,M,,M,,*5E
06/13/2021,17:21:28.033,$GPGGA,172128,3241.8221,N,11709.3703,W,1,8,2.3,10,M,,M,,*53
06/13/2021,17:21:28.933,$GPGGA,172129,3241.8221,N,11709.3702,W,1,8,2.3,10,M,,M,,*53
06/13/2021,17:21:30.034,$GPGGA,172130,3241.8221,N,11709.3703,W,1,8,2.3,10,M,,M,,*5A
06/13/2021,17:21:30.924,$GPGGA,172131,3241.8221,N,11709.3702,W,1,8,2.3,10,M,,M,,*5A
06/13/2021,17:21:32.033,$GPGGA,172132,3241.8221,N,11709.3701,W,1,8,2.3,10,M,,M,,*5A
06/13/2021,17:21:32.934,$GPGGA,172133,3241.8221,N,11709.3701,W,1,8,2.3,10,M,,M,,*5B
06/13/2021,17:21:34.034,$GPGGA,172134,3241.8221,N,11709.3700,W,1,8,2.3,10,M,,M,,*5D
06/13/2021,17:21:34.924,$GPGGA,172135,3241.8221,N,11709.3700,W,1,8,2.3,10,M,,M,,*5C
06/13/2021,17:21:36.034,$GPGGA,172136,3241.8221,N,11709.3700,W,1,8,2.3,10,M,,M,,*5F
06/13/2021,17:21:36.934,$GPGGA,172137,3241.8221,N,11709.3700,W,1,8,2.3,10,M,,M,,*5E
06/13/2021,17:21:38.034,$GPGGA,172138,3241.8221,N,11709.3700,W,1,8,2.3,10,M,,M,,*51
06/13/2021,17:21:38.924,$GPGGA,172139,3241.8221,N,11709.3700,W,1,8,2.3,10,M,,M,,*50
06/13/2021,17:21:40.034,$GPGGA,172140,3241.8221,N,11709.3700,W,1,8,2.3,10,M,,M,,*5E
06/13/2021,17:21:40.924,$GPGGA,172141,3241.8221,N,11709.3700,W,1,8,2.3,10,M,,M,,*5F
06/13/2021,17:21:42.034,$GPGGA,172142,3241.8221,N,11709.3700,W,1,8,2.3,10,M,,M,,*5C
06/13/2021,17:21:42.934,$GPGGA,172143,3241.8221,N,11709.3700,W,1,8,2.3,10,M,,M,,*5D
06/13/2021,17:21:44.034,$GPGGA,172144,3241.8219,N,11709.3700,W,1,8,2.3,10,M,,M,,*51
06/13/2021,17:21:44.925,$GPGGA,172145,3241.8220,N,11709.3700,W,1,8,2.3,10,M,,M,,*5A
06/13/2021,17:21:46.034,$GPGGA,172146,3241.8221,N,11709.3700,W,1,8,2.3,10,M,,M,,*58
06/13/2021,17:21:46.934,$GPGGA,172147,3241.8221,N,11709.3700,W,1,8,2.3,10,M,,M,,*59
06/13/2021,17:21:48.034,$GPGGA,172148,3241.8221,N,11709.3700,W,1,8,2.3,10,M,,M,,*56
06/13/2021,17:21:48.925,$GPGGA,172149,3241.8221,N,11709.3700,W,1,8,2.3,10,M,,M,,*57
06/13/2021,17:21:50.034,$GPGGA,172150,3241.8221,N,11709.3700,W,1,8,2.3,10,M,,M,,*5F
06/13/2021,17:21:50.925,$GPGGA,172151,3241.8221,N,11709.3700,W,1,8,2.3,10,M,,M,,*5E
06/13/2021,17:21:52.035,$GPGGA,172152,3241.8221,N,11709.3700,W,1,8,2.3,10,M,,M,,*5D
06/13/2021,17:21:52.934,$GPGGA,172153,3241.8221,N,11709.3700,W,1,8,2.3,10,M,,M,,*5C
06/13/2021,17:21:54.034,$GPGGA,172154,3241.8221,N,11709.3699,W,1,8,2.3,10,M,,M,,*5A
06/13/2021,17:21:54.925,$GPGGA,172155,3241.8221,N,11709.3700,W,1,8,2.3,10,M,,M,,*5A
06/13/2021,17:21:56.025,$GPGGA,172156,3241.8221,N,11709.3700,W,1,8,2.3,10,M,,M,,*59
06/13/2021,17:21:56.934,$GPGGA,172157,3241.8221,N,11709.3700,W,1,8,2.3,10,M,,M,,*58
06/13/2021,17:21:58.035,$GPGGA,172158,3241.8221,N,11709.3700,W,1,8,2.3,10,M,,M,,*57
06/13/2021,17:21:58.935,$GPGGA,172159,3241.8221,N,11709.3700,W,1,8,2.3,10,M,,M,,*56
06/13/2021,17:22:00.025,$GPGGA,172200,3241.8221,N,11709.3700,W,1,8,2.3,10,M,,M,,*59
06/13/2021,17:22:00.925,$GPGGA,172201,3241.8221,N,11709.3700,W,1,8,2.3,10,M,,M,,*58
06/13/2021,17:22:02.026,$GPGGA,172202,3241.8223,N,11709.3700,W,1,8,2.3,10,M,,M,,*59
06/13/2021,17:22:02.925,$GPGGA,172203,3241.8222,N,11709.3700,W,1,8,2.3,10,M,,M,,*59
06/13/2021,17:22:04.026,$GPGGA,172204,3241.8223,N,11709.3700,W,1,8,2.3,10,M,,M,,*5F
06/13/2021,17:22:04.925,$GPGGA,172205,3241.8222,N,11709.3700,W,1,8,2.3,10,M,,M,,*5F
06/13/2021,17:22:06.025,$GPGGA,172206,3241.8223,N,11709.3700,W,1,8,2.3,10,M,,M,,*5D
06/13/2021,17:22:06.926,$GPGGA,172207,3241.8222,N,11709.3700,W,1,8,2.3,10,M,,M,,*5D
06/13/2021,17:22:08.035,$GPGGA,172208,3241.8223,N,11709.3700,W,1,8,2.3,10,M,,M,,*53
06/13/2021,17:22:08.925,$GPGGA,172209,3241.8222,N,11709.3700,W,1,8,2.3,10,M,,M,,*53
06/13/2021,17:22:10.035,$GPGGA,172210,3241.8223,N,11709.3700,W,1,8,2.3,10,M,,M,,*5A
06/13/2021,17:22:10.925,$GPGGA,172211,3241.8222,N,11709.3700,W,1,8,2.3,10,M,,M,,*5A
06/13/2021,17:22:12.031,$GPGGA,172212,3241.8223,N,11709.3701,W,1,8,2.3,10,M,,M,,*59
06/13/2021,17:22:12.925,$GPGGA,172213,3241.8222,N,11709.3701,W,1,8,2.3,10,M,,M,,*59
06/13/2021,17:22:14.035,$GPGGA,172214,3241.8223,N,11709.3701,W,1,8,2.3,10,M,,M,,*5F
06/13/2021,17:22:14.926,$GPGGA,172215,3241.8222,N,11709.3701,W,1,8,2.3,10,M,,M,,*5F
06/13/2021,17:22:16.026,$GPGGA,172216,3241.8223,N,11709.3703,W,1,8,2.3,10,M,,M,,*5F
06/13/2021,17:22:16.926,$GPGGA,172217,3241.8222,N,11709.3702,W,1,8,2.3,10,M,,M,,*5E
06/13/2021,17:22:18.026,$GPGGA,172218,3241.8224,N,11709.3703,W,1,8,2.3,10,M,,M,,*56
06/13/2021,17:22:18.926,$GPGGA,172219,3241.8223,N,11709.3702,W,1,8,2.3,10,M,,M,,*51
06/13/2021,17:22:20.026,$GPGGA,172220,3241.8224,N,11709.3703,W,1,8,2.3,10,M,,M,,*5D
06/13/2021,17:22:20.926,$GPGGA,172221,3241.8223,N,11709.3703,W,1,8,2.3,10,M,,M,,*5B
06/13/2021,17:22:22.036,$GPGGA,172222,3241.8222,N,11709.3703,W,1,8,2.3,10,M,,M,,*59
06/13/2021,17:22:22.926,$GPGGA,172223,3241.8223,N,11709.3703,W,1,8,2.3,10,M,,M,,*59
06/13/2021,17:22:24.027,$GPGGA,172224,3241.8222,N,11709.3703,W,1,8,2.3,10,M,,M,,*5F
06/13/2021,17:22:24.926,$GPGGA,172225,3241.8223,N,11709.3704,W,1,8,2.3,10,M,,M,,*58
06/13/2021,17:22:26.026,$GPGGA,172226,3241.8222,N,11709.3704,W,1,8,2.3,10,M,,M,,*5A
06/13/2021,17:22:26.927,$GPGGA,172227,3241.8223,N,11709.3704,W,1,8,2.3,10,M,,M,,*5A
06/13/2021,17:22:28.027,$GPGGA,172228,3241.8222,N,11709.3704,W,1,8,2.3,10,M,,M,,*54
06/13/2021,17:22:28.927,$GPGGA,172229,3241.8221,N,11709.3706,W,1,8,2.3,10,M,,M,,*54
06/13/2021,17:22:30.026,$GPGGA,172230,3241.8221,N,11709.3705,W,1,8,2.3,10,M,,M,,*5F
06/13/2021,17:22:30.927,$GPGGA,172231,3241.8221,N,11709.3707,W,1,8,2.3,10,M,,M,,*5C
06/13/2021,17:22:32.026,$GPGGA,172232,3241.8221,N,11709.3706,W,1,8,2.3,10,M,,M,,*5E
06/13/2021,17:22:32.926,$GPGGA,172233,3241.8221,N,11709.3707,W,1,8,2.3,10,M,,M,,*5E
06/13/2021,17:22:34.026,$GPGGA,172234,3241.8221,N,11709.3706,W,1,8,2.3,10,M,,M,,*58
06/13/2021,17:22:34.926,$GPGGA,172235,3241.8221,N,11709.3707,W,1,8,2.3,10,M,,M,,*58
06/13/2021,17:22:36.027,$GPGGA,172236,3241.8219,N,11709.3707,W,1,8,2.3,10,M,,M,,*50
06/13/2021,17:22:36.926,$GPGGA,172237,3241.8220,N,11709.3706,W,1,8,2.3,10,M,,M,,*5A
06/13/2021,17:22:38.027,$GPGGA,172238,3241.8219,N,11709.3707,W,1,8,2.3,10,M,,M,,*5E
06/13/2021,17:22:38.927,$GPGGA,172239,3241.8220,N,11709.3707,W,1,8,2.3,10,M,,M,,*55
06/13/2021,17:22:40.027,$GPGGA,172240,3241.8218,N,11709.3707,W,1,8,2.3,10,M,,M,,*50
06/13/2021,17:22:40.927,$GPGGA,172241,3241.8219,N,11709.3707,W,1,8,2.3,10,M,,M,,*50
06/13/2021,17:22:42.027,$GPGGA,172242,3241.8218,N,11709.3707,W,1,8,2.3,10,M,,M,,*52
06/13/2021,17:22:42.928,$GPGGA,172243,3241.8219,N,11709.3707,W,1,8,2.3,10,M,,M,,*52
06/13/2021,17:22:44.027,$GPGGA,172244,3241.8218,N,11709.3707,W,1,8,2.3,10,M,,M,,*54
06/13/2021,17:22:44.928,$GPGGA,172245,3241.8219,N,11709.3706,W,1,8,2.3,10,M,,M,,*55
06/13/2021,17:22:46.027,$GPGGA,172246,3241.8218,N,11709.3707,W,1,8,2.3,10,M,,M,,*56
06/13/2021,17:22:46.928,$GPGGA,172247,3241.8217,N,11709.3706,W,1,8,2.3,10,M,,M,,*59
06/13/2021,17:22:48.028,$GPGGA,172248,3241.8217,N,11709.3707,W,1,8,2.3,10,M,,M,,*57
06/13/2021,17:22:48.927,$GPGGA,172249,3241.8217,N,11709.3706,W,1,8,2.3,10,M,,M,,*57
06/13/2021,17:22:50.027,$GPGGA,172250,3241.8217,N,11709.3707,W,1,8,2.3,10,M,,M,,*5E
06/13/2021,17:22:50.928,$GPGGA,172251,3241.8217,N,11709.3706,W,1,8,2.3,9,M,,M,,*66
06/13/2021,17:22:52.028,$GPGGA,172252,3241.8217,N,11709.3707,W,1,8,2.3,9,M,,M,,*64
06/13/2021,17:22:52.928,$GPGGA,172253,3241.8217,N,11709.3706,W,1,8,2.3,9,M,,M,,*64
06/13/2021,17:22:54.028,$GPGGA,172254,3241.8217,N,11709.3705,W,1,8,2.3,9,M,,M,,*60
06/13/2021,17:22:54.928,$GPGGA,172255,3241.8217,N,11709.3706,W,1,8,2.3,9,M,,M,,*62
06/13/2021,17:22:56.028,$GPGGA,172256,3241.8217,N,11709.3705,W,1,8,2.3,9,M,,M,,*62
06/13/2021,17:22:56.928,$GPGGA,172257,3241.8217,N,11709.3706,W,1,8,2.3,9,M,,M,,*60
06/13/2021,17:22:58.028,$GPGGA,172258,3241.8217,N,11709.3705,W,1,8,2.3,9,M,,M,,*6C
06/13/2021,17:22:58.928,$GPGGA,172259,3241.8217,N,11709.3704,W,1,8,2.3,9,M,,M,,*6C
06/13/2021,17:23:00.028,$GPGGA,172300,3241.8217,N,11709.3704,W,1,8,2.3,9,M,,M,,*61
06/13/2021,17:23:00.928,$GPGGA,172301,3241.8217,N,11709.3704,W,1,8,2.3,9,M,,M,,*60
06/13/2021,17:23:02.028,$GPGGA,172302,3241.8217,N,11709.3704,W,1,8,2.3,9,M,,M,,*63
06/13/2021,17:23:02.928,$GPGGA,172303,3241.8217,N,11709.3703,W,1,8,2.3,9,M,,M,,*65
06/13/2021,17:23:04.028,$GPGGA,172304,3241.8217,N,11709.3703,W,1,8,2.3,9,M,,M,,*62
06/13/2021,17:23:04.929,$GPGGA,172305,3241.8217,N,11709.3703,W,1,8,2.3,9,M,,M,,*63
06/13/2021,17:23:06.029,$GPGGA,172306,3241.8217,N,11709.3702,W,1,8,2.3,9,M,,M,,*61
06/13/2021,17:23:06.928,$GPGGA,172307,3241.8217,N,11709.3703,W,1,8,2.3,9,M,,M,,*61
06/13/2021,17:23:08.028,$GPGGA,172308,3241.8217,N,11709.3702,W,1,8,2.3,9,M,,M,,*6F
06/13/2021,17:23:08.929,$GPGGA,172309,3241.8217,N,11709.3703,W,1,8,2.3,9,M,,M,,*6F
06/13/2021,17:23:10.029,$GPGGA,172310,3241.8217,N,11709.3701,W,1,8,2.3,9,M,,M,,*65
06/13/2021,17:23:10.929,$GPGGA,172311,3241.8217,N,11709.3701,W,1,8,2.3,9,M,,M,,*64
06/13/2021,17:23:12.028,$GPGGA,172312,3241.8217,N,11709.3701,W,1,8,2.3,9,M,,M,,*67
06/13/2021,17:23:12.929,$GPGGA,172313,3241.8217,N,11709.3701,W,1,8,2.3,9,M,,M,,*66
06/13/2021,17:23:14.029,$GPGGA,172314,3241.8217,N,11709.3700,W,1,8,2.3,9,M,,M,,*60
06/13/2021,17:23:14.929,$GPGGA,172315,3241.8217,N,11709.3700,W,1,8,2.3,9,M,,M,,*61
06/13/2021,17:23:16.029,$GPGGA,172316,3241.8217,N,11709.3700,W,1,8,2.3,9,M,,M,,*62
06/13/2021,17:23:16.929,$GPGGA,172317,3241.8217,N,11709.3700,W,1,8,2.3,8,M,,M,,*62
06/13/2021,17:23:18.030,$GPGGA,172318,3241.8217,N,11709.3700,W,1,8,2.3,8,M,,M,,*6D
06/13/2021,17:23:18.929,$GPGGA,172319,3241.8217,N,11709.3700,W,1,8,2.3,8,M,,M,,*6C
06/13/2021,17:23:20.029,$GPGGA,172320,3241.8217,N,11709.3700,W,1,8,2.3,8,M,,M,,*66
06/13/2021,17:23:20.929,$GPGGA,172321,3241.8217,N,11709.3701,W,1,8,2.3,8,M,,M,,*66
06/13/2021,17:23:22.029,$GPGGA,172322,3241.8217,N,11709.3701,W,1,8,2.3,8,M,,M,,*65
06/13/2021,17:23:22.929,$GPGGA,172323,3241.8217,N,11709.3701,W,1,8,2.3,8,M,,M,,*64
06/13/2021,17:23:24.029,$GPGGA,172324,3241.8217,N,11709.3701,W,1,8,2.3,8,M,,M,,*63
06/13/2021,17:23:24.929,$GPGGA,172325,3241.8217,N,11709.3701,W,1,8,2.3,8,M,,M,,*62
06/13/2021,17:23:26.029,$GPGGA,172326,3241.8217,N,11709.3701,W,1,8,2.3,8,M,,M,,*61
06/13/2021,17:23:26.930,$GPGGA,172327,3241.8217,N,11709.3701,W,1,8,2.3,8,M,,M,,*60
06/13/2021,17:23:28.029,$GPGGA,172328,3241.8217,N,11709.3701,W,1,8,2.3,8,M,,M,,*6F
06/13/2021,17:23:28.930,$GPGGA,172329,3241.8217,N,11709.3701,W,1,8,2.3,8,M,,M,,*6E
06/13/2021,17:23:30.030,$GPGGA,172330,3241.8217,N,11709.3701,W,1,8,2.3,8,M,,M,,*66
06/13/2021,17:23:30.929,$GPGGA,172331,3241.8217,N,11709.3703,W,1,8,2.3,8,M,,M,,*65
06/13/2021,17:23:32.029,$GPGGA,172332,3241.8217,N,11709.3702,W,1,8,2.3,8,M,,M,,*67
06/13/2021,17:23:32.930,$GPGGA,172333,3241.8217,N,11709.3703,W,1,8,2.3,8,M,,M,,*67
06/13/2021,17:23:34.030,$GPGGA,172334,3241.8215,N,11709.3702,W,1,8,2.3,8,M,,M,,*63
06/13/2021,17:23:34.929,$GPGGA,172335,3241.8216,N,11709.3703,W,1,8,2.3,7,M,,M,,*6F
06/13/2021,17:23:36.030,$GPGGA,172336,3241.8215,N,11709.3702,W,1,8,2.3,7,M,,M,,*6E
06/13/2021,17:23:36.930,$GPGGA,172337,3241.8216,N,11709.3703,W,1,8,2.3,7,M,,M,,*6D
06/13/2021,17:23:38.030,$GPGGA,172338,3241.8215,N,11709.3702,W,1,8,2.3,7,M,,M,,*60
06/13/2021,17:23:38.930,$GPGGA,172339,3241.8214,N,11709.3703,W,1,8,2.3,7,M,,M,,*61
06/13/2021,17:23:40.030,$GPGGA,172340,3241.8214,N,11709.3703,W,1,8,2.3,7,M,,M,,*6F
06/13/2021,17:23:40.931,$GPGGA,172341,3241.8214,N,11709.3703,W,1,8,2.3,7,M,,M,,*6E
06/13/2021,17:23:42.030,$GPGGA,172342,3241.8214,N,11709.3703,W,1,8,2.3,7,M,,M,,*6D
06/13/2021,17:23:42.930,$GPGGA,172343,3241.8214,N,11709.3703,W,1,8,2.3,7,M,,M,,*6C
06/13/2021,17:23:44.031,$GPGGA,172344,3241.8214,N,11709.3703,W,1,8,2.3,7,M,,M,,*6B
06/13/2021,17:23:44.931,$GPGGA,172345,3241.8214,N,11709.3704,W,1,8,2.3,7,M,,M,,*6D
06/13/2021,17:23:46.031,$GPGGA,172346,3241.8214,N,11709.3704,W,1,8,2.3,7,M,,M,,*6E
06/13/2021,17:23:46.930,$GPGGA,172347,3241.8214,N,11709.3704,W,1,8,2.3,7,M,,M,,*6F
06/13/2021,17:23:48.031,$GPGGA,172348,3241.8212,N,11709.3704,W,1,8,2.3,7,M,,M,,*66
06/13/2021,17:23:48.930,$GPGGA,172349,3241.8213,N,11709.3704,W,1,8,2.3,7,M,,M,,*66
06/13/2021,17:23:50.031,$GPGGA,172350,3241.8212,N,11709.3704,W,1,8,2.3,7,M,,M,,*6F
06/13/2021,17:23:50.930,$GPGGA,172351,3241.8213,N,11709.3704,W,1,8,2.3,7,M,,M,,*6F
06/13/2021,17:23:52.031,$GPGGA,172352,3241.8212,N,11709.3704,W,1,8,2.3,7,M,,M,,*6D
06/13/2021,17:23:52.930,$GPGGA,172353,3241.8213,N,11709.3706,W,1,8,2.3,7,M,,M,,*6F
06/13/2021,17:23:54.031,$GPGGA,172354,3241.8212,N,11709.3705,W,1,8,2.3,7,M,,M,,*6A
06/13/2021,17:23:54.930,$GPGGA,172355,3241.8213,N,11709.3706,W,1,8,2.3,7,M,,M,,*69
06/13/2021,17:23:56.031,$GPGGA,172356,3241.8212,N,11709.3705,W,1,8,2.3,7,M,,M,,*68
06/13/2021,17:23:56.931,$GPGGA,172357,3241.8213,N,11709.3706,W,1,8,2.3,7,M,,M,,*6B
06/13/2021,17:23:58.031,$GPGGA,172358,3241.8212,N,11709.3705,W,1,8,2.3,7,M,,M,,*66
06/13/2021,17:23:58.931,$GPGGA,172359,3241.8213,N,11709.3706,W,1,8,2.3,7,M,,M,,*65
06/13/2021,17:24:00.031,$GPGGA,172400,3241.8212,N,11709.3705,W,1,8,2.3,7,M,,M,,*6C
06/13/2021,17:24:00.931,$GPGGA,172401,3241.8214,N,11709.3706,W,1,8,2.3,7,M,,M,,*68
06/13/2021,17:24:02.032,$GPGGA,172402,3241.8214,N,11709.3704,W,1,8,2.3,7,M,,M,,*69
06/13/2021,17:24:02.932,$GPGGA,172403,3241.8214,N,11709.3704,W,1,8,2.3,7,M,,M,,*68
06/13/2021,17:24:04.032,$GPGGA,172404,3241.8214,N,11709.3704,W,1,8,2.3,7,M,,M,,*6F
06/13/2021,17:24:04.932,$GPGGA,172405,3241.8214,N,11709.3704,W,1,8,2.3,7,M,,M,,*6E
06/13/2021,17:24:06.031,$GPGGA,172406,3241.8214,N,11709.3704,W,1,8,2.3,7,M,,M,,*6D
06/13/2021,17:24:06.931,$GPGGA,172407,3241.8214,N,11709.3704,W,1,8,2.3,7,M,,M,,*6C
06/13/2021,17:24:08.031,$GPGGA,172408,3241.8214,N,11709.3703,W,1,8,2.3,7,M,,M,,*64
06/13/2021,17:24:08.931,$GPGGA,172409,3241.8214,N,11709.3703,W,1,8,2.3,8,M,,M,,*6A
06/13/2021,17:24:10.032,$GPGGA,172410,3241.8214,N,11709.3703,W,1,8,2.3,8,M,,M,,*62
06/13/2021,17:24:10.932,$GPGGA,172411,3241.8216,N,11709.3703,W,1,8,2.3,8,M,,M,,*61
06/13/2021,17:24:12.031,$GPGGA,172412,3241.8215,N,11709.3703,W,1,8,2.3,8,M,,M,,*61
06/13/2021,17:24:12.932,$GPGGA,172413,3241.8216,N,11709.3702,W,1,8,2.3,8,M,,M,,*62
06/13/2021,17:24:14.032,$GPGGA,172414,3241.8215,N,11709.3703,W,1,8,2.3,8,M,,M,,*67
06/13/2021,17:24:14.932,$GPGGA,172415,3241.8216,N,11709.3702,W,1,8,2.3,8,M,,M,,*64
06/13/2021,17:24:16.032,$GPGGA,172416,3241.8215,N,11709.3703,W,1,8,2.3,8,M,,M,,*65
06/13/2021,17:24:16.932,$GPGGA,172417,3241.8216,N,11709.3701,W,1,8,2.3,8,M,,M,,*65
06/13/2021,17:24:18.032,$GPGGA,172418,3241.8217,N,11709.3701,W,1,8,2.3,8,M,,M,,*6B
06/13/2021,17:24:18.932,$GPGGA,172419,3241.8217,N,11709.3701,W,1,8,2.3,8,M,,M,,*6A
06/13/2021,17:24:20.032,$GPGGA,172420,3241.8217,N,11709.3700,W,1,8,2.3,8,M,,M,,*61
06/13/2021,17:24:20.932,$GPGGA,172421,3241.8217,N,11709.3700,W,1,8,2.3,9,M,,M,,*61
06/13/2021,17:24:22.033,$GPGGA,172422,3241.8217,N,11709.3700,W,1,8,2.3,9,M,,M,,*62
06/13/2021,17:24:22.933,$GPGGA,172423,3241.8217,N,11709.3700,W,1,8,2.3,9,M,,M,,*63
06/13/2021,17:24:24.033,$GPGGA,172424,3241.8217,N,11709.3699,W,1,8,2.3,9,M,,M,,*65
06/13/2021,17:24:24.933,$GPGGA,172425,3241.8217,N,11709.3699,W,1,8,2.3,9,M,,M,,*64
06/13/2021,17:24:26.033,$GPGGA,172426,3241.8217,N,11709.3699,W,1,8,2.3,9,M,,M,,*67
06/13/2021,17:24:26.933,$GPGGA,172427,3241.8217,N,11709.3699,W,1,8,2.3,9,M,,M,,*66
06/13/2021,17:24:28.032,$GPGGA,172428,3241.8217,N,11709.3699,W,1,8,2.3,9,M,,M,,*69
06/13/2021,17:24:28.933,$GPGGA,172429,3241.8217,N,11709.3699,W,1,8,2.3,9,M,,M,,*68
06/13/2021,17:24:30.032,$GPGGA,172430,3241.8217,N,11709.3698,W,1,8,2.3,9,M,,M,,*61
06/13/2021,17:24:30.933,$GPGGA,172431,3241.8217,N,11709.3699,W,1,8,2.3,9,M,,M,,*61
06/13/2021,17:24:32.033,$GPGGA,172432,3241.8217,N,11709.3698,W,1,8,2.3,9,M,,M,,*63
06/13/2021,17:24:32.933,$GPGGA,172433,3241.8215,N,11709.3699,W,1,8,2.3,10,M,,M,,*59
06/13/2021,17:24:34.033,$GPGGA,172434,3241.8216,N,11709.3698,W,1,8,2.3,10,M,,M,,*5C
06/13/2021,17:24:34.933,$GPGGA,172435,3241.8215,N,11709.3697,W,1,8,2.3,10,M,,M,,*51
06/13/2021,17:24:36.033,$GPGGA,172436,3241.8216,N,11709.3697,W,1,8,2.3,10,M,,M,,*51
06/13/2021,17:24:36.933,$GPGGA,172437,3241.8215,N,11709.3697,W,1,8,2.3,10,M,,M,,*53
06/13/2021,17:24:38.033,$GPGGA,172438,3241.8214,N,11709.3697,W,1,8,2.3,10,M,,M,,*5D
06/13/2021,17:24:38.933,$GPGGA,172439,3241.8214,N,11709.3696,W,1,8,2.3,10,M,,M,,*5D
06/13/2021,17:24:40.033,$GPGGA,172440,3241.8214,N,11709.3696,W,1,8,2.3,10,M,,M,,*53
06/13/2021,17:24:40.934,$GPGGA,172441,3241.8214,N,11709.3696,W,1,8,2.3,10,M,,M,,*52
06/13/2021,17:24:42.033,$GPGGA,172442,3241.8212,N,11709.3696,W,1,8,2.3,10,M,,M,,*57
06/13/2021,17:24:42.934,$GPGGA,172443,3241.8213,N,11709.3696,W,1,8,2.3,10,M,,M,,*57
06/13/2021,17:24:44.033,$GPGGA,172444,3241.8211,N,11709.3696,W,1,8,2.3,10,M,,M,,*52
06/13/2021,17:24:44.934,$GPGGA,172445,3241.8212,N,11709.3696,W,1,8,2.3,11,M,,M,,*51
06/13/2021,17:24:46.033,$GPGGA,172446,3241.8210,N,11709.3695,W,1,8,2.3,11,M,,M,,*53
06/13/2021,17:24:46.933,$GPGGA,172447,3241.8210,N,11709.3696,W,1,8,2.3,11,M,,M,,*51
06/13/2021,17:24:48.034,$GPGGA,172448,3241.8210,N,11709.3695,W,1,8,2.3,11,M,,M,,*5D
06/13/2021,17:24:48.934,$GPGGA,172449,3241.8208,N,11709.3696,W,1,8,2.3,11,M,,M,,*56
06/13/2021,17:24:50.033,$GPGGA,172450,3241.8209,N,11709.3695,W,1,8,2.3,11,M,,M,,*5C
06/13/2021,17:24:50.933,$GPGGA,172451,3241.8207,N,11709.3696,W,1,8,2.3,11,M,,M,,*50
06/13/2021,17:24:52.034,$GPGGA,172452,3241.8206,N,11709.3695,W,1,8,2.3,11,M,,M,,*51
06/13/2021,17:24:52.933,$GPGGA,172453,3241.8206,N,11709.3696,W,1,8,2.3,11,M,,M,,*53
06/13/2021,17:24:54.034,$GPGGA,172454,3241.8205,N,11709.3695,W,1,8,2.3,11,M,,M,,*54
06/13/2021,17:24:54.934,$GPGGA,172455,3241.8206,N,11709.3696,W,1,8,2.3,11,M,,M,,*55
06/13/2021,17:24:56.034,$GPGGA,172456,3241.8204,N,11709.3695,W,1,8,2.3,11,M,,M,,*57
06/13/2021,17:24:56.934,$GPGGA,172457,3241.8205,N,11709.3696,W,1,8,2.3,12,M,,M,,*57
06/13/2021,17:24:58.034,$GPGGA,172458,3241.8203,N,11709.3695,W,1,8,2.3,12,M,,M,,*5D
06/13/2021,17:24:58.935,$GPGGA,172459,3241.8203,N,11709.3696,W,1,8,2.3,12,M,,M,,*5F
06/13/2021,17:25:00.034,$GPGGA,172500,3241.8203,N,11709.3695,W,1,8,2.3,12,M,,M,,*51
06/13/2021,17:25:00.935,$GPGGA,172501,3241.8203,N,11709.3696,W,1,8,2.3,12,M,,M,,*53
06/13/2021,17:25:02.034,$GPGGA,172502,3241.8203,N,11709.3695,W,1,8,2.3,12,M,,M,,*53
06/13/2021,17:25:02.934,$GPGGA,172503,3241.8201,N,11709.3696,W,1,8,2.3,12,M,,M,,*53
06/13/2021,17:25:04.034,$GPGGA,172504,3241.8202,N,11709.3696,W,1,8,2.3,12,M,,M,,*57
06/13/2021,17:25:04.934,$GPGGA,172505,3241.8200,N,11709.3696,W,1,8,2.3,12,M,,M,,*54
06/13/2021,17:25:06.035,$GPGGA,172506,3241.8201,N,11709.3696,W,1,8,2.3,12,M,,M,,*56
06/13/2021,17:25:06.935,$GPGGA,172507,3241.8200,N,11709.3696,W,1,8,2.3,12,M,,M,,*56
06/13/2021,17:25:08.034,$GPGGA,172508,3241.8201,N,11709.3696,W,1,8,2.3,12,M,,M,,*58
06/13/2021,17:25:08.935,$GPGGA,172509,3241.8200,N,11709.3696,W,1,8,2.3,12,M,,M,,*58
06/13/2021,17:25:10.035,$GPGGA,172510,3241.8201,N,11709.3696,W,1,8,2.3,12,M,,M,,*51
06/13/2021,17:25:10.935,$GPGGA,172511,3241.8199,N,11709.3696,W,1,8,2.3,13,M,,M,,*53
06/13/2021,17:25:12.035,$GPGGA,172512,3241.8199,N,11709.3696,W,1,8,2.3,13,M,,M,,*50
06/13/2021,17:25:12.935,$GPGGA,172513,3241.8199,N,11709.3696,W,1,8,2.3,13,M,,M,,*51
06/13/2021,17:25:14.034,$GPGGA,172514,3241.8199,N,11709.3697,W,1,8,2.3,13,M,,M,,*57
06/13/2021,17:25:14.935,$GPGGA,172515,3241.8199,N,11709.3697,W,1,8,2.3,13,M,,M,,*56
06/13/2021,17:25:16.035,$GPGGA,172516,3241.8199,N,11709.3697,W,1,8,2.3,13,M,,M,,*55
06/13/2021,17:25:16.935,$GPGGA,172517,3241.8199,N,11709.3697,W,1,8,2.3,13,M,,M,,*54
06/13/2021,17:25:18.035,$GPGGA,172518,3241.8199,N,11709.3697,W,1,8,2.3,13,M,,M,,*5B
06/13/2021,17:25:18.935,$GPGGA,172519,3241.8197,N,11709.3697,W,1,8,2.3,13,M,,M,,*54
06/13/2021,17:25:20.035,$GPGGA,172520,3241.8198,N,11709.3697,W,1,8,2.3,13,M,,M,,*51
06/13/2021,17:25:20.936,$GPGGA,172521,3241.8197,N,11709.3699,W,1,8,2.3,13,M,,M,,*51
06/13/2021,17:25:22.036,$GPGGA,172522,3241.8198,N,11709.3698,W,1,8,2.3,13,M,,M,,*5C
06/13/2021,17:25:22.935,$GPGGA,172523,3241.8197,N,11709.3699,W,1,8,2.3,13,M,,M,,*53
06/13/2021,17:25:24.036,$GPGGA,172524,3241.8198,N,11709.3698,W,1,8,2.3,13,M,,M,,*5A
06/13/2021,17:25:24.935,$GPGGA,172525,3241.8197,N,11709.3699,W,1,8,2.3,13,M,,M,,*55
06/13/2021,17:25:26.035,$GPGGA,172526,3241.8196,N,11709.3698,W,1,8,2.3,13,M,,M,,*56
06/13/2021,17:25:26.935,$GPGGA,172527,3241.8196,N,11709.3699,W,1,8,2.3,14,M,,M,,*51
06/13/2021,17:25:28.035,$GPGGA,172528,3241.8196,N,11709.3698,W,1,8,2.3,14,M,,M,,*5F
06/13/2021,17:25:28.936,$GPGGA,172529,3241.8195,N,11709.3699,W,1,8,2.3,14,M,,M,,*5C
06/13/2021,17:25:30.035,$GPGGA,172530,3241.8195,N,11709.3699,W,1,8,2.3,14,M,,M,,*54
06/13/2021,17:25:30.936,$GPGGA,172531,3241.8194,N,11709.3699,W,1,8,2.3,14,M,,M,,*54
06/13/2021,17:25:32.036,$GPGGA,172532,3241.8195,N,11709.3699,W,1,8,2.3,14,M,,M,,*56
06/13/2021,17:25:32.936,$GPGGA,172533,3241.8194,N,11709.3699,W,1,8,2.3,14,M,,M,,*56
06/13/2021,17:25:34.036,$GPGGA,172534,3241.8193,N,11709.3699,W,1,8,2.3,14,M,,M,,*56
06/13/2021,17:25:34.936,$GPGGA,172535,3241.8194,N,11709.3700,W,1,8,2.3,14,M,,M,,*51
06/13/2021,17:25:36.036,$GPGGA,172536,3241.8192,N,11709.3700,W,1,8,2.3,14,M,,M,,*54
06/13/2021,17:25:36.936,$GPGGA,172537,3241.8192,N,11709.3700,W,1,8,2.3,14,M,,M,,*55
06/13/2021,17:25:38.036,$GPGGA,172538,3241.8192,N,11709.3701,W,1,8,2.3,14,M,,M,,*5B
06/13/2021,17:25:38.937,$GPGGA,172539,3241.8192,N,11709.3703,W,1,8,2.3,14,M,,M,,*58
06/13/2021,17:25:40.037,$GPGGA,172540,3241.8192,N,11709.3702,W,1,8,2.3,14,M,,M,,*57
06/13/2021,17:25:40.937,$GPGGA,172541,3241.8190,N,11709.3703,W,1,8,2.3,14,M,,M,,*55
06/13/2021,17:25:42.036,$GPGGA,172542,3241.8191,N,11709.3702,W,1,8,2.3,14,M,,M,,*56
06/13/2021,17:25:42.937,$GPGGA,172543,3241.8189,N,11709.3703,W,1,8,2.3,14,M,,M,,*5F
06/13/2021,17:25:44.036,$GPGGA,172544,3241.8190,N,11709.3703,W,1,8,2.3,14,M,,M,,*50
06/13/2021,17:25:44.937,$GPGGA,172545,3241.8189,N,11709.3703,W,1,8,2.3,13,M,,M,,*5E
06/13/2021,17:25:46.037,$GPGGA,172546,3241.8188,N,11709.3704,W,1,8,2.3,13,M,,M,,*5B
06/13/2021,17:25:46.937,$GPGGA,172547,3241.8188,N,11709.3704,W,1,8,2.3,13,M,,M,,*5A
06/13/2021,17:25:48.036,$GPGGA,172548,3241.8188,N,11709.3704,W,1,8,2.3,13,M,,M,,*55
06/13/2021,17:25:48.936,$GPGGA,172549,3241.8188,N,11709.3706,W,1,8,2.3,13,M,,M,,*56
06/13/2021,17:25:50.036,$GPGGA,172550,3241.8187,N,11709.3705,W,1,8,2.3,13,M,,M,,*52
06/13/2021,17:25:50.937,$GPGGA,172551,3241.8188,N,11709.3706,W,1,8,2.3,13,M,,M,,*5F
06/13/2021,17:25:52.037,$GPGGA,172552,3241.8187,N,11709.3707,W,1,8,2.3,13,M,,M,,*52
06/13/2021,17:25:52.937,$GPGGA,172553,3241.8188,N,11709.3706,W,1,8,2.3,13,M,,M,,*5D
06/13/2021,17:25:54.037,$GPGGA,172554,3241.8186,N,11709.3707,W,1,8,2.3,13,M,,M,,*55
06/13/2021,17:25:54.937,$GPGGA,172555,3241.8187,N,11709.3706,W,1,8,2.3,13,M,,M,,*54
06/13/2021,17:25:56.038,$GPGGA,172556,3241.8186,N,11709.3707,W,1,8,2.3,13,M,,M,,*57
06/13/2021,17:25:56.937,$GPGGA,172557,3241.8187,N,11709.3707,W,1,8,2.3,13,M,,M,,*57
06/13/2021,17:25:58.037,$GPGGA,172558,3241.8186,N,11709.3707,W,1,8,2.3,13,M,,M,,*59
06/13/2021,17:25:58.938,$GPGGA,172559,3241.8187,N,11709.3707,W,1,8,2.3,13,M,,M,,*59
06/13/2021,17:26:00.037,$GPGGA,172600,3241.8185,N,11709.3707,W,1,8,2.3,13,M,,M,,*54
06/13/2021,17:26:00.937,$GPGGA,172601,3241.8185,N,11709.3708,W,1,8,2.3,13,M,,M,,*5A
06/13/2021,17:26:02.038,$GPGGA,172602,3241.8185,N,11709.3707,W,1,8,2.3,13,M,,M,,*56
06/13/2021,17:26:02.937,$GPGGA,172603,3241.8185,N,11709.3708,W,1,8,2.3,13,M,,M,,*58
06/13/2021,17:26:04.038,$GPGGA,172604,3241.8187,N,11709.3707,W,1,7,2.3,13,M,,M,,*5D
06/13/2021,17:26:04.937,$GPGGA,172605,3241.8186,N,11709.3707,W,1,7,2.3,13,M,,M,,*5D
06/13/2021,17:26:06.038,$GPGGA,172606,3241.8188,N,11709.3707,W,1,7,2.3,13,M,,M,,*50
06/13/2021,17:26:06.938,$GPGGA,172607,3241.8188,N,11709.3706,W,1,7,2.3,13,M,,M,,*50
06/13/2021,17:26:08.038,$GPGGA,172608,3241.8190,N,11709.3705,W,1,8,2.3,13,M,,M,,*5A
06/13/2021,17:26:08.938,$GPGGA,172609,3241.8189,N,11709.3706,W,1,8,2.4,13,M,,M,,*57
06/13/2021,17:26:10.038,$GPGGA,172610,3241.8191,N,11709.3705,W,1,7,2.4,13,M,,M,,*5A
06/13/2021,17:26:10.938,$GPGGA,172611,3241.8190,N,11709.3706,W,1,7,2.4,13,M,,M,,*59
06/13/2021,17:26:12.038,$GPGGA,172612,3241.8191,N,11709.3705,W,1,7,2.4,13,M,,M,,*58
06/13/2021,17:26:12.938,$GPGGA,172613,3241.8190,N,11709.3704,W,1,7,2.4,13,M,,M,,*59
06/13/2021,17:26:14.038,$GPGGA,172614,3241.8192,N,11709.3704,W,1,7,2.4,13,M,,M,,*5C
06/13/2021,17:26:14.938,$GPGGA,172615,3241.8192,N,11709.3704,W,1,7,2.4,13,M,,M,,*5D
06/13/2021,17:26:16.038,$GPGGA,172616,3241.8192,N,11709.3704,W,1,7,2.4,13,M,,M,,*5E
06/13/2021,17:26:16.938,$GPGGA,172617,3241.8192,N,11709.3703,W,1,7,2.4,12,M,,M,,*59
06/13/2021,17:26:18.039,$GPGGA,172618,3241.8192,N,11709.3703,W,1,7,2.4,12,M,,M,,*56
06/13/2021,17:26:18.939,$GPGGA,172619,3241.8194,N,11709.3703,W,1,7,2.4,12,M,,M,,*51
06/13/2021,17:26:20.038,$GPGGA,172620,3241.8193,N,11709.3703,W,1,7,2.4,12,M,,M,,*5C
06/13/2021,17:26:20.939,$GPGGA,172621,3241.8194,N,11709.3703,W,1,7,2.4,12,M,,M,,*5A
06/13/2021,17:26:22.039,$GPGGA,172622,3241.8195,N,11709.3702,W,1,7,2.4,12,M,,M,,*59
06/13/2021,17:26:22.939,$GPGGA,172623,3241.8194,N,11709.3703,W,1,7,2.4,12,M,,M,,*58
06/13/2021,17:26:24.039,$GPGGA,172624,3241.8195,N,11709.3702,W,1,7,2.4,12,M,,M,,*5F
06/13/2021,17:26:24.939,$GPGGA,172625,3241.8195,N,11709.3703,W,1,7,2.4,12,M,,M,,*5F
06/13/2021,17:26:26.032,$GPGGA,172626,3241.8195,N,11709.3701,W,1,7,2.4,12,M,,M,,*5E
06/13/2021,17:26:26.925,$GPGGA,172627,3241.8195,N,11709.3701,W,1,7,2.4,12,M,,M,,*5F
06/13/2021,17:26:28.024,$GPGGA,172628,3241.8196,N,11709.3700,W,1,7,2.4,12,M,,M,,*52
06/13/2021,17:26:28.925,$GPGGA,172629,3241.8196,N,11709.3700,W,1,7,2.4,13,M,,M,,*52
06/13/2021,17:26:30.025,$GPGGA,172630,3241.8196,N,11709.3700,W,1,7,2.4,13,M,,M,,*5A
06/13/2021,17:26:30.925,$GPGGA,172631,3241.8198,N,11709.3700,W,1,7,2.4,13,M,,M,,*55
06/13/2021,17:26:32.025,$GPGGA,172632,3241.8197,N,11709.3700,W,1,7,2.4,13,M,,M,,*59
06/13/2021,17:26:32.925,$GPGGA,172633,3241.8198,N,11709.3700,W,1,7,2.4,13,M,,M,,*57
06/13/2021,17:26:34.025,$GPGGA,172634,3241.8199,N,11709.3699,W,1,7,2.4,13,M,,M,,*50
06/13/2021,17:26:34.925,$GPGGA,172635,3241.8199,N,11709.3699,W,1,7,2.4,13,M,,M,,*51
06/13/2021,17:26:36.024,$GPGGA,172636,3241.8199,N,11709.3699,W,1,7,2.4,13,M,,M,,*52
06/13/2021,17:26:36.925,$GPGGA,172637,3241.8199,N,11709.3699,W,1,7,2.4,13,M,,M,,*53
06/13/2021,17:26:38.029,$GPGGA,172638,3241.8199,N,11709.3699,W,1,7,2.4,13,M,,M,,*5C
06/13/2021,17:26:38.924,$GPGGA,172639,3241.8201,N,11709.3699,W,1,7,2.4,13,M,,M,,*5F
06/13/2021,17:26:40.024,$GPGGA,172640,3241.8200,N,11709.3698,W,1,7,2.4,13,M,,M,,*51
06/13/2021,17:26:40.925,$GPGGA,172641,3241.8201,N,11709.3699,W,1,7,2.4,13,M,,M,,*50
06/13/2021,17:26:42.025,$GPGGA,172642,3241.8195,N,11709.3701,W,1,8,2.4,13,M,,M,,*52
06/13/2021,17:26:42.925,$GPGGA,172643,3241.8194,N,11709.3703,W,1,8,2.3,14,M,,M,,*50
06/13/2021,17:26:44.025,$GPGGA,172644,3241.8193,N,11709.3702,W,1,8,2.3,14,M,,M,,*51
06/13/2021,17:26:44.925,$GPGGA,172645,3241.8192,N,11709.3703,W,1,8,2.3,14,M,,M,,*50
06/13/2021,17:26:46.025,$GPGGA,172646,3241.8192,N,11709.3702,W,1,8,2.3,14,M,,M,,*52
06/13/2021,17:26:46.925,$GPGGA,172647,3241.8192,N,11709.3703,W,1,8,2.3,14,M,,M,,*52
06/13/2021,17:26:48.026,$GPGGA,172648,3241.8192,N,11709.3701,W,1,8,2.3,14,M,,M,,*5F
06/13/2021,17:26:48.925,$GPGGA,172649,3241.8192,N,11709.3701,W,1,8,2.3,14,M,,M,,*5E
06/13/2021,17:26:50.025,$GPGGA,172650,3241.8192,N,11709.3701,W,1,8,2.3,14,M,,M,,*56
06/13/2021,17:26:50.925,$GPGGA,172651,3241.8192,N,11709.3701,W,1,8,2.3,15,M,,M,,*56
06/13/2021,17:26:52.025,$GPGGA,172652,3241.8192,N,11709.3700,W,1,8,2.3,15,M,,M,,*54
06/13/2021,17:26:52.926,$GPGGA,172653,3241.8192,N,11709.3700,W,1,8,2.3,15,M,,M,,*55
06/13/2021,17:26:54.025,$GPGGA,172654,3241.8192,N,11709.3700,W,1,8,2.3,15,M,,M,,*52
06/13/2021,17:26:54.926,$GPGGA,172655,3241.8192,N,11709.3700,W,1,8,2.3,15,M,,M,,*53
06/13/2021,17:26:56.025,$GPGGA,172656,3241.8192,N,11709.3700,W,1,8,2.3,15,M,,M,,*50
06/13/2021,17:26:56.926,$GPGGA,172657,3241.8192,N,11709.3700,W,1,8,2.3,16,M,,M,,*52
06/13/2021,17:26:58.026,$GPGGA,172658,3241.8192,N,11709.3700,W,1,8,2.3,16,M,,M,,*5D
06/13/2021,17:26:58.925,$GPGGA,172659,3241.8192,N,11709.3700,W,1,8,2.3,16,M,,M,,*5C
06/13/2021,17:27:00.025,$GPGGA,172700,3241.8192,N,11709.3700,W,1,8,2.3,16,M,,M,,*51
06/13/2021,17:27:00.926,$GPGGA,172701,3241.8192,N,11709.3700,W,1,8,2.3,16,M,,M,,*50
06/13/2021,17:27:02.026,$GPGGA,172702,3241.8192,N,11709.3700,W,1,8,2.3,16,M,,M,,*53
06/13/2021,17:27:02.926,$GPGGA,172703,3241.8192,N,11709.3700,W,1,8,2.3,16,M,,M,,*52
06/13/2021,17:27:04.026,$GPGGA,172704,3241.8192,N,11709.3700,W,1,8,2.3,16,M,,M,,*55
06/13/2021,17:27:04.926,$GPGGA,172705,3241.8192,N,11709.3700,W,1,8,2.3,17,M,,M,,*55
06/13/2021,17:27:06.026,$GPGGA,172706,3241.8192,N,11709.3700,W,1,8,2.3,17,M,,M,,*56
06/13/2021,17:27:06.926,$GPGGA,172707,3241.8192,N,11709.3700,W,1,8,2.3,17,M,,M,,*57
06/13/2021,17:27:08.026,$GPGGA,172708,3241.8192,N,11709.3700,W,1,8,2.3,17,M,,M,,*58
06/13/2021,17:27:08.927,$GPGGA,172709,3241.8192,N,11709.3700,W,1,8,2.3,17,M,,M,,*59
06/13/2021,17:27:10.026,$GPGGA,172710,3241.8192,N,11709.3700,W,1,8,2.3,17,M,,M,,*51
06/13/2021,17:27:10.927,$GPGGA,172711,3241.8192,N,11709.3700,W,1,8,2.3,17,M,,M,,*50
06/13/2021,17:27:12.027,$GPGGA,172712,3241.8192,N,11709.3700,W,1,8,2.3,17,M,,M,,*53
06/13/2021,17:27:12.927,$GPGGA,172713,3241.8192,N,11709.3700,W,1,8,2.3,18,M,,M,,*5D
06/13/2021,17:27:14.027,$GPGGA,172714,3241.8192,N,11709.3700,W,1,8,2.3,18,M,,M,,*5A
06/13/2021,17:27:14.926,$GPGGA,172715,3241.8192,N,11709.3700,W,1,8,2.3,18,M,,M,,*5B
06/13/2021,17:27:16.027,$GPGGA,172716,3241.8192,N,11709.3700,W,1,8,2.3,18,M,,M,,*58
06/13/2021,17:27:16.926,$GPGGA,172717,3241.8192,N,11709.3700,W,1,8,2.3,18,M,,M,,*59
06/13/2021,17:27:18.026,$GPGGA,172718,3241.8192,N,11709.3700,W,1,8,2.3,18,M,,M,,*56
06/13/2021,17:27:18.927,$GPGGA,172719,3241.8192,N,11709.3700,W,1,8,2.3,18,M,,M,,*57
06/13/2021,17:27:20.027,$GPGGA,172720,3241.8194,N,11709.3701,W,1,8,2.3,18,M,,M,,*5A
06/13/2021,17:27:20.927,$GPGGA,172721,3241.8193,N,11709.3700,W,1,8,2.3,18,M,,M,,*5D
06/13/2021,17:27:22.027,$GPGGA,172722,3241.8194,N,11709.3701,W,1,8,2.3,18,M,,M,,*58
06/13/2021,17:27:22.927,$GPGGA,172723,3241.8193,N,11709.3700,W,1,8,2.3,18,M,,M,,*5F
06/13/2021,17:27:24.027,$GPGGA,172724,3241.8194,N,11709.3700,W,1,8,2.3,18,M,,M,,*5F
06/13/2021,17:27:24.927,$GPGGA,172725,3241.8193,N,11709.3700,W,1,8,2.3,18,M,,M,,*59
06/13/2021,17:27:26.027,$GPGGA,172726,3241.8194,N,11709.3700,W,1,8,2.3,18,M,,M,,*5D
06/13/2021,17:27:26.927,$GPGGA,172727,3241.8195,N,11709.3700,W,1,8,2.3,18,M,,M,,*5D
06/13/2021,17:27:28.027,$GPGGA,172728,3241.8194,N,11709.3700,W,1,8,2.3,18,M,,M,,*53
06/13/2021,17:27:28.927,$GPGGA,172729,3241.8195,N,11709.3700,W,1,8,2.3,18,M,,M,,*53
06/13/2021,17:27:30.028,$GPGGA,172730,3241.8194,N,11709.3700,W,1,8,2.3,18,M,,M,,*5A
06/13/2021,17:27:30.927,$GPGGA,172731,3241.8195,N,11709.3700,W,1,8,2.3,18,M,,M,,*5A
06/13/2021,17:27:32.027,$GPGGA,172732,3241.8194,N,11709.3700,W,1,8,2.3,18,M,,M,,*58
06/13/2021,17:27:32.928,$GPGGA,172733,3241.8195,N,11709.3700,W,1,8,2.3,18,M,,M,,*58
06/13/2021,17:27:34.028,$GPGGA,172734,3241.8194,N,11709.3700,W,1,8,2.3,18,M,,M,,*5E
06/13/2021,17:27:34.927,$GPGGA,172735,3241.8195,N,11709.3699,W,1,8,2.3,18,M,,M,,*5F
06/13/2021,17:27:36.028,$GPGGA,172736,3241.8195,N,11709.3699,W,1,8,2.3,18,M,,M,,*5C
06/13/2021,17:27:36.928,$GPGGA,172737,3241.8195,N,11709.3699,W,1,8,2.3,18,M,,M,,*5D
06/13/2021,17:27:38.028,$GPGGA,172738,3241.8195,N,11709.3699,W,1,8,2.3,18,M,,M,,*52
06/13/2021,17:27:38.928,$GPGGA,172739,3241.8194,N,11709.3699,W,1,8,2.3,18,M,,M,,*52
06/13/2021,17:27:40.028,$GPGGA,172740,3241.8195,N,11709.3699,W,1,8,2.3,18,M,,M,,*5D
06/13/2021,17:27:40.928,$GPGGA,172741,3241.8194,N,11709.3699,W,1,8,2.3,18,M,,M,,*5D
06/13/2021,17:27:42.028,$GPGGA,172742,3241.8195,N,11709.3699,W,1,8,2.3,18,M,,M,,*5F
06/13/2021,17:27:42.928,$GPGGA,172743,3241.8194,N,11709.3699,W,1,8,2.3,18,M,,M,,*5F
06/13/2021,17:27:44.028,$GPGGA,172744,3241.8195,N,11709.3699,W,1,8,2.3,18,M,,M,,*59
06/13/2021,17:27:44.929,$GPGGA,172745,3241.8194,N,11709.3699,W,1,8,2.3,18,M,,M,,*59
06/13/2021,17:27:46.028,$GPGGA,172746,3241.8195,N,11709.3699,W,1,8,2.3,18,M,,M,,*5B
06/13/2021,17:27:46.928,$GPGGA,172747,3241.8193,N,11709.3699,W,1,8,2.3,18,M,,M,,*5C
06/13/2021,17:27:48.028,$GPGGA,172748,3241.8194,N,11709.3699,W,1,8,2.3,18,M,,M,,*54
06/13/2021,17:27:48.929,$GPGGA,172749,3241.8192,N,11709.3699,W,1,8,2.3,18,M,,M,,*53
06/13/2021,17:27:50.029,$GPGGA,172750,3241.8192,N,11709.3700,W,1,8,2.3,18,M,,M,,*5A
06/13/2021,17:27:50.929,$GPGGA,172751,3241.8192,N,11709.3700,W,1,8,2.3,18,M,,M,,*5B
06/13/2021,17:27:52.029,$GPGGA,172752,3241.8192,N,11709.3700,W,1,8,2.3,18,M,,M,,*58
06/13/2021,17:27:52.928,$GPGGA,172753,3241.8192,N,11709.3700,W,1,8,2.3,18,M,,M,,*59
06/13/2021,17:27:54.028,$GPGGA,172754,3241.8192,N,11709.3700,W,1,8,2.3,18,M,,M,,*5E
06/13/2021,17:27:54.928,$GPGGA,172755,3241.8192,N,11709.3700,W,1,8,2.3,18,M,,M,,*5F
06/13/2021,17:27:56.028,$GPGGA,172756,3241.8190,N,11709.3700,W,1,8,2.3,18,M,,M,,*5E
06/13/2021,17:27:56.928,$GPGGA,172757,3241.8191,N,11709.3700,W,1,8,2.3,18,M,,M,,*5E
06/13/2021,17:27:58.029,$GPGGA,172758,3241.8190,N,11709.3700,W,1,8,2.3,18,M,,M,,*50
06/13/2021,17:27:58.929,$GPGGA,172759,3241.8191,N,11709.3700,W,1,8,2.3,18,M,,M,,*50
06/13/2021,17:28:00.029,$GPGGA,172800,3241.8190,N,11709.3700,W,1,8,2.3,18,M,,M,,*52
06/13/2021,17:28:00.929,$GPGGA,172801,3241.8191,N,11709.3701,W,1,8,2.3,17,M,,M,,*5C
06/13/2021,17:28:02.029,$GPGGA,172802,3241.8190,N,11709.3700,W,1,8,2.3,17,M,,M,,*5F
06/13/2021,17:28:02.929,$GPGGA,172803,3241.8191,N,11709.3700,W,1,8,2.3,17,M,,M,,*5F
06/13/2021,17:28:04.029,$GPGGA,172804,3241.8190,N,11709.3700,W,1,8,2.3,17,M,,M,,*59
06/13/2021,17:28:04.929,$GPGGA,172805,3241.8191,N,11709.3701,W,1,8,2.3,17,M,,M,,*58
06/13/2021,17:28:06.030,$GPGGA,172806,3241.8190,N,11709.3701,W,1,8,2.3,17,M,,M,,*5A
06/13/2021,17:28:06.929,$GPGGA,172807,3241.8189,N,11709.3701,W,1,8,2.3,17,M,,M,,*53
06/13/2021,17:28:08.030,$GPGGA,172808,3241.8190,N,11709.3700,W,1,8,2.3,17,M,,M,,*55
06/13/2021,17:28:08.930,$GPGGA,172809,3241.8189,N,11709.3700,W,1,8,2.3,17,M,,M,,*5C
06/13/2021,17:28:10.029,$GPGGA,172810,3241.8191,N,11709.3700,W,1,8,2.3,17,M,,M,,*5D
06/13/2021,17:28:10.929,$GPGGA,172811,3241.8190,N,11709.3700,W,1,8,2.3,17,M,,M,,*5D
06/13/2021,17:28:12.030,$GPGGA,172812,3241.8191,N,11709.3699,W,1,8,2.3,17,M,,M,,*5E
06/13/2021,17:28:12.929,$GPGGA,172813,3241.8190,N,11709.3699,W,1,8,2.3,17,M,,M,,*5E
06/13/2021,17:28:14.029,$GPGGA,172814,3241.8191,N,11709.3699,W,1,8,2.3,17,M,,M,,*58
06/13/2021,17:28:14.930,$GPGGA,172815,3241.8190,N,11709.3699,W,1,8,2.3,17,M,,M,,*58
06/13/2021,17:28:16.030,$GPGGA,172816,3241.8191,N,11709.3699,W,1,8,2.3,17,M,,M,,*5A
06/13/2021,17:28:16.930,$GPGGA,172817,3241.8192,N,11709.3699,W,1,8,2.3,17,M,,M,,*58
06/13/2021,17:28:18.029,$GPGGA,172818,3241.8192,N,11709.3699,W,1,8,2.3,17,M,,M,,*57
06/13/2021,17:28:18.929,$GPGGA,172819,3241.8192,N,11709.3699,W,1,8,2.3,17,M,,M,,*56
06/13/2021,17:28:20.029,$GPGGA,172820,3241.8192,N,11709.3699,W,1,8,2.3,17,M,,M,,*5C
06/13/2021,17:28:20.930,$GPGGA,172821,3241.8192,N,11709.3698,W,1,8,2.3,17,M,,M,,*5C
06/13/2021,17:28:22.030,$GPGGA,172822,3241.8192,N,11709.3699,W,1,8,2.3,17,M,,M,,*5E
06/13/2021,17:28:22.930,$GPGGA,172823,3241.8192,N,11709.3698,W,1,8,2.3,17,M,,M,,*5E
06/13/2021,17:28:24.030,$GPGGA,172824,3241.8192,N,11709.3699,W,1,8,2.3,17,M,,M,,*58
06/13/2021,17:28:24.930,$GPGGA,172825,3241.8192,N,11709.3698,W,1,8,2.3,17,M,,M,,*58
06/13/2021,17:28:26.030,$GPGGA,172826,3241.8194,N,11709.3699,W,1,8,2.3,17,M,,M,,*5C
06/13/2021,17:28:26.930,$GPGGA,172827,3241.8193,N,11709.3698,W,1,8,2.3,16,M,,M,,*5A
06/13/2021,17:28:28.030,$GPGGA,172828,3241.8194,N,11709.3697,W,1,8,2.3,16,M,,M,,*5D
06/13/2021,17:28:28.931,$GPGGA,172829,3241.8195,N,11709.3697,W,1,8,2.3,16,M,,M,,*5D
06/13/2021,17:28:30.030,$GPGGA,172830,3241.8194,N,11709.3697,W,1,8,2.3,16,M,,M,,*54
06/13/2021,17:28:30.930,$GPGGA,172831,3241.8195,N,11709.3697,W,1,8,2.3,16,M,,M,,*54
06/13/2021,17:28:32.030,$GPGGA,172832,3241.8194,N,11709.3696,W,1,8,2.3,16,M,,M,,*57
06/13/2021,17:28:32.930,$GPGGA,172833,3241.8195,N,11709.3696,W,1,8,2.3,16,M,,M,,*57
06/13/2021,17:28:34.031,$GPGGA,172834,3241.8195,N,11709.3696,W,1,8,2.3,16,M,,M,,*50
06/13/2021,17:28:34.930,$GPGGA,172835,3241.8195,N,11709.3696,W,1,8,2.3,16,M,,M,,*51
06/13/2021,17:28:36.030,$GPGGA,172836,3241.8196,N,11709.3696,W,1,8,2.3,16,M,,M,,*51
06/13/2021,17:28:36.931,$GPGGA,172837,3241.8196,N,11709.3696,W,1,8,2.3,16,M,,M,,*50
06/13/2021,17:28:38.031,$GPGGA,172838,3241.8196,N,11709.3695,W,1,8,2.3,16,M,,M,,*5C
06/13/2021,17:28:38.931,$GPGGA,172839,3241.8198,N,11709.3696,W,1,8,2.3,16,M,,M,,*50
06/13/2021,17:28:40.031,$GPGGA,172840,3241.8199,N,11709.3695,W,1,8,2.3,16,M,,M,,*5C
06/13/2021,17:28:40.930,$GPGGA,172841,3241.8199,N,11709.3696,W,1,8,2.3,16,M,,M,,*5E
06/13/2021,17:28:42.031,$GPGGA,172842,3241.8199,N,11709.3695,W,1,8,2.3,16,M,,M,,*5E
06/13/2021,17:28:42.931,$GPGGA,172843,3241.8199,N,11709.3696,W,1,8,2.3,16,M,,M,,*5C
06/13/2021,17:28:44.031,$GPGGA,172844,3241.8199,N,11709.3695,W,1,8,2.3,16,M,,M,,*58
06/13/2021,17:28:44.931,$GPGGA,172845,3241.8201,N,11709.3696,W,1,8,2.3,16,M,,M,,*58
06/13/2021,17:28:46.031,$GPGGA,172846,3241.8200,N,11709.3695,W,1,8,2.3,16,M,,M,,*59
06/13/2021,17:28:46.935,$GPGGA,172847,3241.8201,N,11709.3696,W,1,8,2.3,17,M,,M,,*5B
06/13/2021,17:28:48.031,$GPGGA,172848,3241.8202,N,11709.3694,W,1,8,2.3,17,M,,M,,*55
06/13/2021,17:28:48.932,$GPGGA,172849,3241.8201,N,11709.3694,W,1,8,2.3,17,M,,M,,*57
06/13/2021,17:28:50.032,$GPGGA,172850,3241.8203,N,11709.3694,W,1,8,2.3,17,M,,M,,*5D
06/13/2021,17:28:50.931,$GPGGA,172851,3241.8203,N,11709.3694,W,1,8,2.3,17,M,,M,,*5C
06/13/2021,17:28:52.032,$GPGGA,172852,3241.8203,N,11709.3694,W,1,8,2.3,17,M,,M,,*5F
06/13/2021,17:28:52.932,$GPGGA,172853,3241.8203,N,11709.3694,W,1,8,2.3,17,M,,M,,*5E
06/13/2021,17:28:54.031,$GPGGA,172854,3241.8203,N,11709.3694,W,1,8,2.3,17,M,,M,,*59
06/13/2021,17:28:54.932,$GPGGA,172855,3241.8203,N,11709.3694,W,1,8,2.3,17,M,,M,,*58
06/13/2021,17:28:56.032,$GPGGA,172856,3241.8203,N,11709.3694,W,1,8,2.3,17,M,,M,,*5B
06/13/2021,17:28:56.931,$GPGGA,172857,3241.8203,N,11709.3694,W,1,8,2.3,17,M,,M,,*5A
06/13/2021,17:28:58.031,$GPGGA,172858,3241.8205,N,11709.3694,W,1,8,2.3,17,M,,M,,*53
06/13/2021,17:28:58.931,$GPGGA,172859,3241.8204,N,11709.3694,W,1,8,2.3,17,M,,M,,*53
06/13/2021,17:29:00.032,$GPGGA,172900,3241.8203,N,11709.3694,W,1,8,2.3,17,M,,M,,*59
06/13/2021,17:29:00.932,$GPGGA,172901,3241.8205,N,11709.3694,W,1,8,2.3,17,M,,M,,*5E
06/13/2021,17:29:02.032,$GPGGA,172902,3241.8204,N,11709.3694,W,1,8,2.3,17,M,,M,,*5C
06/13/2021,17:29:02.932,$GPGGA,172903,3241.8205,N,11709.3694,W,1,8,2.3,17,M,,M,,*5C
06/13/2021,17:29:04.032,$GPGGA,172904,3241.8204,N,11709.3694,W,1,8,2.3,17,M,,M,,*5A
06/13/2021,17:29:04.933,$GPGGA,172905,3241.8205,N,11709.3696,W,1,8,2.3,17,M,,M,,*58
06/13/2021,17:29:06.032,$GPGGA,172906,3241.8204,N,11709.3695,W,1,8,2.3,17,M,,M,,*59
06/13/2021,17:29:06.933,$GPGGA,172907,3241.8206,N,11709.3696,W,1,8,2.3,17,M,,M,,*59
06/13/2021,17:29:08.033,$GPGGA,172908,3241.8205,N,11709.3695,W,1,8,2.3,17,M,,M,,*56
06/13/2021,17:29:08.933,$GPGGA,172909,3241.8206,N,11709.3696,W,1,8,2.3,17,M,,M,,*57
06/13/2021,17:29:10.032,$GPGGA,172910,3241.8205,N,11709.3695,W,1,8,2.3,17,M,,M,,*5F
06/13/2021,17:29:10.932,$GPGGA,172911,3241.8206,N,11709.3696,W,1,8,2.3,17,M,,M,,*5E
06/13/2021,17:29:12.033,$GPGGA,172912,3241.8205,N,11709.3695,W,1,8,2.3,17,M,,M,,*5D
06/13/2021,17:29:12.923,$GPGGA,172913,3241.8206,N,11709.3696,W,1,8,2.3,17,M,,M,,*5C
06/13/2021,17:29:14.033,$GPGGA,172914,3241.8205,N,11709.3696,W,1,8,2.3,17,M,,M,,*58
06/13/2021,17:29:14.933,$GPGGA,172915,3241.8206,N,11709.3696,W,1,8,2.3,17,M,,M,,*5A
06/13/2021,17:29:16.033,$GPGGA,172916,3241.8206,N,11709.3696,W,1,8,2.3,17,M,,M,,*59
06/13/2021,17:29:16.933,$GPGGA,172917,3241.8206,N,11709.3696,W,1,8,2.3,17,M,,M,,*58
06/13/2021,17:29:18.033,$GPGGA,172918,3241.8206,N,11709.3696,W,1,8,2.3,17,M,,M,,*57
06/13/2021,17:29:18.933,$GPGGA,172919,3241.8206,N,11709.3696,W,1,8,2.3,17,M,,M,,*56
06/13/2021,17:29:20.033,$GPGGA,172920,3241.8205,N,11709.3696,W,1,8,2.3,17,M,,M,,*5F
06/13/2021,17:29:20.933,$GPGGA,172921,3241.8206,N,11709.3697,W,1,8,2.3,17,M,,M,,*5C
06/13/2021,17:29:22.033,$GPGGA,172922,3241.8205,N,11709.3697,W,1,8,2.3,17,M,,M,,*5C
06/13/2021,17:29:22.933,$GPGGA,172923,3241.8206,N,11709.3696,W,1,8,2.3,17,M,,M,,*5F
06/13/2021,17:29:24.033,$GPGGA,172924,3241.8205,N,11709.3696,W,1,8,2.3,17,M,,M,,*5B
06/13/2021,17:29:24.933,$GPGGA,172925,3241.8206,N,11709.3696,W,1,8,2.3,17,M,,M,,*59
06/13/2021,17:29:26.033,$GPGGA,172926,3241.8205,N,11709.3696,W,1,8,2.3,17,M,,M,,*59
06/13/2021,17:29:26.924,$GPGGA,172927,3241.8206,N,11709.3696,W,1,8,2.3,17,M,,M,,*5B
06/13/2021,17:29:28.033,$GPGGA,172928,3241.8206,N,11709.3696,W,1,8,2.3,17,M,,M,,*54
06/13/2021,17:29:28.933,$GPGGA,172929,3241.8206,N,11709.3696,W,1,8,2.3,17,M,,M,,*55
06/13/2021,17:29:30.034,$GPGGA,172930,3241.8206,N,11709.3695,W,1,8,2.3,17,M,,M,,*5E
06/13/2021,17:29:30.933,$GPGGA,172931,3241.8206,N,11709.3696,W,1,8,2.3,17,M,,M,,*5C
06/13/2021,17:29:32.034,$GPGGA,172932,3241.8206,N,11709.3695,W,1,8,2.3,17,M,,M,,*5C
06/13/2021,17:29:32.933,$GPGGA,172933,3241.8206,N,11709.3696,W,1,8,2.3,17,M,,M,,*5E
06/13/2021,17:29:34.034,$GPGGA,172934,3241.8206,N,11709.3695,W,1,8,2.3,17,M,,M,,*5A
06/13/2021,17:29:34.924,$GPGGA,172935,3241.8206,N,11709.3696,W,1,8,2.3,17,M,,M,,*58
06/13/2021,17:29:36.033,$GPGGA,172936,3241.8206,N,11709.3695,W,1,8,2.3,17,M,,M,,*58
06/13/2021,17:29:36.924,$GPGGA,172937,3241.8206,N,11709.3694,W,1,8,2.3,17,M,,M,,*58
06/13/2021,17:29:38.034,$GPGGA,172938,3241.8208,N,11709.3694,W,1,8,2.3,17,M,,M,,*59
06/13/2021,17:29:38.924,$GPGGA,172939,3241.8206,N,11709.3694,W,1,8,2.3,17,M,,M,,*56
06/13/2021,17:29:40.024,$GPGGA,172940,3241.8206,N,11709.3694,W,1,8,2.3,17,M,,M,,*58
06/13/2021,17:29:40.925,$GPGGA,172941,3241.8206,N,11709.3693,W,1,8,2.3,17,M,,M,,*5E
06/13/2021,17:29:42.034,$GPGGA,172942,3241.8206,N,11709.3693,W,1,8,2.3,17,M,,M,,*5D
06/13/2021,17:29:42.924,$GPGGA,172943,3241.8208,N,11709.3693,W,1,8,2.3,18,M,,M,,*5D
06/13/2021,17:29:44.034,$GPGGA,172944,3241.8206,N,11709.3693,W,1,8,2.3,18,M,,M,,*54
06/13/2021,17:29:44.925,$GPGGA,172945,3241.8208,N,11709.3693,W,1,8,2.3,18,M,,M,,*5B
06/13/2021,17:29:46.034,$GPGGA,172946,3241.8207,N,11709.3693,W,1,8,2.3,18,M,,M,,*57
06/13/2021,17:29:46.924,$GPGGA,172947,3241.8208,N,11709.3693,W,1,8,2.3,18,M,,M,,*59
06/13/2021,17:29:48.025,$GPGGA,172948,3241.8206,N,11709.3693,W,1,8,2.3,18,M,,M,,*58
06/13/2021,17:29:48.925,$GPGGA,172949,3241.8206,N,11709.3693,W,1,8,2.3,18,M,,M,,*59
06/13/2021,17:29:50.025,$GPGGA,172950,3241.8206,N,11709.3693,W,1,8,2.3,18,M,,M,,*51
06/13/2021,17:29:50.925,$GPGGA,172951,3241.8206,N,11709.3693,W,1,8,2.3,18,M,,M,,*50
06/13/2021,17:29:52.025,$GPGGA,172952,3241.8206,N,11709.3693,W,1,8,2.3,18,M,,M,,*53
06/13/2021,17:29:52.924,$GPGGA,172953,3241.8206,N,11709.3692,W,1,8,2.3,18,M,,M,,*53
06/13/2021,17:29:54.025,$GPGGA,172954,3241.8206,N,11709.3692,W,1,8,2.3,18,M,,M,,*54
06/13/2021,17:29:54.925,$GPGGA,172955,3241.8205,N,11709.3692,W,1,8,2.3,18,M,,M,,*56
06/13/2021,17:29:56.025,$GPGGA,172956,3241.8206,N,11709.3692,W,1,8,2.3,18,M,,M,,*56
06/13/2021,17:29:56.924,$GPGGA,172957,3241.8205,N,11709.3692,W,1,8,2.3,18,M,,M,,*54
06/13/2021,17:29:58.025,$GPGGA,172958,3241.8206,N,11709.3692,W,1,8,2.3,18,M,,M,,*58
06/13/2021,17:29:58.925,$GPGGA,172959,3241.8204,N,11709.3692,W,1,8,2.3,18,M,,M,,*5B
06/13/2021,17:30:00.025,$GPGGA,173000,3241.8205,N,11709.3692,W,1,8,2.3,18,M,,M,,*5E
06/13/2021,17:30:00.926,$GPGGA,173001,3241.8204,N,11709.3692,W,1,8,2.3,18,M,,M,,*5E
06/13/2021,17:30:02.035,$GPGGA,173002,3241.8205,N,11709.3692,W,1,8,2.3,18,M,,M,,*5C
06/13/2021,17:30:02.925,$GPGGA,173003,3241.8204,N,11709.3692,W,1,8,2.3,18,M,,M,,*5C
06/13/2021,17:30:04.026,$GPGGA,173004,3241.8203,N,11709.3692,W,1,8,2.3,18,M,,M,,*5C
06/13/2021,17:30:04.925,$GPGGA,173005,3241.8203,N,11709.3691,W,1,8,2.3,19,M,,M,,*5F
06/13/2021,17:30:06.035,$GPGGA,173006,3241.8203,N,11709.3692,W,1,8,2.3,19,M,,M,,*5F
06/13/2021,17:30:06.926,$GPGGA,173007,3241.8203,N,11709.3691,W,1,8,2.3,19,M,,M,,*5D
06/13/2021,17:30:08.035,$GPGGA,173008,3241.8203,N,11709.3692,W,1,8,2.3,19,M,,M,,*51
06/13/2021,17:30:08.925,$GPGGA,173009,3241.8203,N,11709.3691,W,1,8,2.3,19,M,,M,,*53
06/13/2021,17:30:10.026,$GPGGA,173010,3241.8203,N,11709.3692,W,1,8,2.3,19,M,,M,,*58
06/13/2021,17:30:10.925,$GPGGA,173011,3241.8203,N,11709.3691,W,1,8,2.3,19,M,,M,,*5A
06/13/2021,17:30:12.026,$GPGGA,173012,3241.8203,N,11709.3692,W,1,8,2.3,19,M,,M,,*5A
06/13/2021,17:30:12.925,$GPGGA,173013,3241.8205,N,11709.3690,W,1,8,2.3,19,M,,M,,*5F
06/13/2021,17:30:14.026,$GPGGA,173014,3241.8204,N,11709.3690,W,1,8,2.3,19,M,,M,,*59
06/13/2021,17:30:14.926,$GPGGA,173015,3241.8203,N,11709.3690,W,1,8,2.3,19,M,,M,,*5F
06/13/2021,17:30:16.026,$GPGGA,173016,3241.8203,N,11709.3690,W,1,8,2.3,19,M,,M,,*5C
06/13/2021,17:30:16.925,$GPGGA,173017,3241.8203,N,11709.3690,W,1,8,2.3,19,M,,M,,*5D
06/13/2021,17:30:18.025,$GPGGA,173018,3241.8203,N,11709.3692,W,1,8,2.3,19,M,,M,,*50
06/13/2021,17:30:18.926,$GPGGA,173019,3241.8203,N,11709.3691,W,1,8,2.3,19,M,,M,,*52
06/13/2021,17:30:20.026,$GPGGA,173020,3241.8201,N,11709.3692,W,1,8,2.3,19,M,,M,,*59
06/13/2021,17:30:20.927,$GPGGA,173021,3241.8202,N,11709.3691,W,1,8,2.3,19,M,,M,,*58
06/13/2021,17:30:22.026,$GPGGA,173022,3241.8201,N,11709.3692,W,1,8,2.3,19,M,,M,,*5B
06/13/2021,17:30:22.927,$GPGGA,173023,3241.8200,N,11709.3691,W,1,8,2.3,19,M,,M,,*58
06/13/2021,17:30:24.026,$GPGGA,173024,3241.8201,N,11709.3692,W,1,8,2.3,19,M,,M,,*5D
06/13/2021,17:30:24.927,$GPGGA,173025,3241.8199,N,11709.3691,W,1,8,2.3,19,M,,M,,*5D
06/13/2021,17:30:26.026,$GPGGA,173026,3241.8199,N,11709.3692,W,1,8,2.3,19,M,,M,,*5D
06/13/2021,17:30:26.926,$GPGGA,173027,3241.8199,N,11709.3692,W,1,8,2.3,19,M,,M,,*5C
06/13/2021,17:30:28.026,$GPGGA,173028,3241.8199,N,11709.3692,W,1,8,2.3,19,M,,M,,*53
06/13/2021,17:30:28.927,$GPGGA,173029,3241.8199,N,11709.3692,W,1,8,2.3,20,M,,M,,*58
06/13/2021,17:30:30.026,$GPGGA,173030,3241.8199,N,11709.3692,W,1,8,2.3,20,M,,M,,*50
06/13/2021,17:30:30.927,$GPGGA,173031,3241.8199,N,11709.3692,W,1,8,2.3,20,M,,M,,*51
06/13/2021,17:30:32.027,$GPGGA,173032,3241.8199,N,11709.3692,W,1,8,2.3,20,M,,M,,*52
06/13/2021,17:30:32.926,$GPGGA,173033,3241.8201,N,11709.3691,W,1,8,2.4,20,M,,M,,*55
06/13/2021,17:30:34.027,$GPGGA,173034,3241.8199,N,11709.3692,W,1,8,2.4,20,M,,M,,*53
06/13/2021,17:30:34.926,$GPGGA,173035,3241.8197,N,11709.3693,W,1,8,2.3,20,M,,M,,*5A
06/13/2021,17:30:36.027,$GPGGA,173036,3241.8198,N,11709.3693,W,1,8,2.3,20,M,,M,,*56
06/13/2021,17:30:36.927,$GPGGA,173037,3241.8197,N,11709.3693,W,1,8,2.3,20,M,,M,,*58
06/13/2021,17:30:38.027,$GPGGA,173038,3241.8198,N,11709.3693,W,1,8,2.3,20,M,,M,,*58
06/13/2021,17:30:38.927,$GPGGA,173039,3241.8199,N,11709.3693,W,1,8,2.4,20,M,,M,,*5F
06/13/2021,17:30:40.027,$GPGGA,173040,3241.8202,N,11709.3692,W,1,7,2.4,20,M,,M,,*5E
06/13/2021,17:30:40.927,$GPGGA,173041,3241.8203,N,11709.3691,W,1,7,2.4,20,M,,M,,*5D
06/13/2021,17:30:42.028,$GPGGA,173042,3241.8205,N,11709.3690,W,1,7,2.4,20,M,,M,,*59
06/13/2021,17:30:42.927,$GPGGA,173043,3241.8206,N,11709.3690,W,1,7,2.4,20,M,,M,,*5B
06/13/2021,17:30:44.028,$GPGGA,173044,3241.8206,N,11709.3690,W,1,7,2.4,20,M,,M,,*5C
06/13/2021,17:30:44.927,$GPGGA,173045,3241.8208,N,11709.3690,W,1,7,2.4,20,M,,M,,*53
06/13/2021,17:30:46.028,$GPGGA,173046,3241.8210,N,11709.3689,W,1,7,2.4,20,M,,M,,*51
06/13/2021,17:30:46.927,$GPGGA,173047,3241.8210,N,11709.3689,W,1,7,2.4,20,M,,M,,*50
06/13/2021,17:30:48.027,$GPGGA,173048,3241.8212,N,11709.3689,W,1,7,2.4,20,M,,M,,*5D
06/13/2021,17:30:48.928,$GPGGA,173049,3241.8211,N,11709.3689,W,1,7,2.4,20,M,,M,,*5F
06/13/2021,17:30:50.027,$GPGGA,173050,3241.8213,N,11709.3690,W,1,7,2.4,20,M,,M,,*5D
06/13/2021,17:30:50.927,$GPGGA,173051,3241.8214,N,11709.3689,W,1,7,2.4,19,M,,M,,*59
06/13/2021,17:30:52.028,$GPGGA,173052,3241.8214,N,11709.3690,W,1,7,2.4,19,M,,M,,*52
06/13/2021,17:30:52.927,$GPGGA,173053,3241.8214,N,11709.3690,W,1,7,2.4,19,M,,M,,*53
06/13/2021,17:30:54.028,$GPGGA,173054,3241.8214,N,11709.3690,W,1,7,2.4,19,M,,M,,*54
06/13/2021,17:30:54.927,$GPGGA,173055,3241.8216,N,11709.3690,W,1,7,2.4,19,M,,M,,*57
06/13/2021,17:30:56.028,$GPGGA,173056,3241.8215,N,11709.3690,W,1,7,2.4,19,M,,M,,*57
06/13/2021,17:30:56.928,$GPGGA,173057,3241.8216,N,11709.3690,W,1,7,2.4,19,M,,M,,*55
06/13/2021,17:30:58.028,$GPGGA,173058,3241.8217,N,11709.3692,W,1,7,2.4,19,M,,M,,*59
06/13/2021,17:30:58.928,$GPGGA,173059,3241.8217,N,11709.3691,W,1,7,2.4,19,M,,M,,*5B
06/13/2021,17:31:00.028,$GPGGA,173100,3241.8217,N,11709.3692,W,1,7,2.4,19,M,,M,,*55
06/13/2021,17:31:00.928,$GPGGA,173101,3241.8217,N,11709.3691,W,1,7,2.4,19,M,,M,,*57
06/13/2021,17:31:02.028,$GPGGA,173102,3241.8217,N,11709.3692,W,1,7,2.4,19,M,,M,,*57
06/13/2021,17:31:02.928,$GPGGA,173103,3241.8217,N,11709.3691,W,1,7,2.4,19,M,,M,,*55
06/13/2021,17:31:04.029,$GPGGA,173104,3241.8217,N,11709.3692,W,1,7,2.4,19,M,,M,,*51
06/13/2021,17:31:04.928,$GPGGA,173105,3241.8217,N,11709.3692,W,1,7,2.4,19,M,,M,,*50
06/13/2021,17:31:06.029,$GPGGA,173106,3241.8219,N,11709.3692,W,1,7,2.4,19,M,,M,,*5D
06/13/2021,17:31:06.929,$GPGGA,173107,3241.8218,N,11709.3692,W,1,7,2.4,18,M,,M,,*5C
06/13/2021,17:31:08.029,$GPGGA,173108,3241.8219,N,11709.3692,W,1,7,2.4,18,M,,M,,*52
06/13/2021,17:31:08.928,$GPGGA,173109,3241.8218,N,11709.3692,W,1,7,2.4,18,M,,M,,*52
06/13/2021,17:31:10.029,$GPGGA,173110,3241.8219,N,11709.3692,W,1,7,2.4,18,M,,M,,*5B
06/13/2021,17:31:10.929,$GPGGA,173111,3241.8218,N,11709.3692,W,1,7,2.4,18,M,,M,,*5B
06/13/2021,17:31:12.029,$GPGGA,173112,3241.8219,N,11709.3692,W,1,7,2.4,18,M,,M,,*59
06/13/2021,17:31:12.928,$GPGGA,173113,3241.8218,N,11709.3692,W,1,7,2.4,18,M,,M,,*59
06/13/2021,17:31:14.029,$GPGGA,173114,3241.8220,N,11709.3692,W,1,7,2.4,18,M,,M,,*55
06/13/2021,17:31:14.929,$GPGGA,173115,3241.8219,N,11709.3693,W,1,7,2.4,18,M,,M,,*5F
06/13/2021,17:31:16.029,$GPGGA,173116,3241.8220,N,11709.3693,W,1,7,2.4,18,M,,M,,*56
06/13/2021,17:31:16.929,$GPGGA,173117,3241.8219,N,11709.3693,W,1,7,2.4,18,M,,M,,*5D
06/13/2021,17:31:18.029,$GPGGA,173118,3241.8220,N,11709.3693,W,1,7,2.4,18,M,,M,,*58
06/13/2021,17:31:18.929,$GPGGA,173119,3241.8219,N,11709.3693,W,1,7,2.4,18,M,,M,,*53
06/13/2021,17:31:20.029,$GPGGA,173120,3241.8220,N,11709.3693,W,1,7,2.4,18,M,,M,,*53
06/13/2021,17:31:20.930,$GPGGA,173121,3241.8221,N,11709.3693,W,1,7,2.4,17,M,,M,,*5C
06/13/2021,17:31:22.029,$GPGGA,173122,3241.8221,N,11709.3693,W,1,7,2.4,17,M,,M,,*5F
06/13/2021,17:31:22.930,$GPGGA,173123,3241.8221,N,11709.3693,W,1,7,2.4,17,M,,M,,*5E
06/13/2021,17:31:24.030,$GPGGA,173124,3241.8221,N,11709.3693,W,1,7,2.4,17,M,,M,,*59
06/13/2021,17:31:24.929,$GPGGA,173125,3241.8221,N,11709.3694,W,1,7,2.4,17,M,,M,,*5F
06/13/2021,17:31:26.029,$GPGGA,173126,3241.8221,N,11709.3694,W,1,7,2.4,17,M,,M,,*5C
06/13/2021,17:31:26.930,$GPGGA,173127,3241.8221,N,11709.3694,W,1,7,2.4,17,M,,M,,*5D
06/13/2021,17:31:28.030,$GPGGA,173128,3241.8221,N,11709.3694,W,1,7,2.4,17,M,,M,,*52
06/13/2021,17:31:28.930,$GPGGA,173129,3241.8221,N,11709.3694,W,1,7,2.4,17,M,,M,,*53
06/13/2021,17:31:30.030,$GPGGA,173130,3241.8221,N,11709.3694,W,1,7,2.4,17,M,,M,,*5B
06/13/2021,17:31:30.929,$GPGGA,173131,3241.8221,N,11709.3696,W,1,7,2.4,17,M,,M,,*58
06/13/2021,17:31:32.030,$GPGGA,173132,3241.8221,N,11709.3695,W,1,7,2.4,17,M,,M,,*58
06/13/2021,17:31:32.930,$GPGGA,173133,3241.8221,N,11709.3696,W,1,7,2.4,16,M,,M,,*5B
06/13/2021,17:31:34.030,$GPGGA,173134,3241.8221,N,11709.3695,W,1,7,2.4,16,M,,M,,*5F
06/13/2021,17:31:34.930,$GPGGA,173135,3241.8221,N,11709.3696,W,1,7,2.4,16,M,,M,,*5D
06/13/2021,17:31:36.029,$GPGGA,173136,3241.8221,N,11709.3695,W,1,7,2.4,16,M,,M,,*5D
06/13/2021,17:31:36.930,$GPGGA,173137,3241.8221,N,11709.3696,W,1,7,2.4,16,M,,M,,*5F
06/13/2021,17:31:38.031,$GPGGA,173138,3241.8221,N,11709.3695,W,1,7,2.4,16,M,,M,,*53
06/13/2021,17:31:38.930,$GPGGA,173139,3241.8221,N,11709.3696,W,1,7,2.4,16,M,,M,,*51
06/13/2021,17:31:40.030,$GPGGA,173140,3241.8221,N,11709.3696,W,1,7,2.4,16,M,,M,,*5F
06/13/2021,17:31:40.930,$GPGGA,173141,3241.8221,N,11709.3696,W,1,7,2.4,16,M,,M,,*5E
06/13/2021,17:31:42.030,$GPGGA,173142,3241.8221,N,11709.3696,W,1,7,2.4,16,M,,M,,*5D
06/13/2021,17:31:42.930,$GPGGA,173143,3241.8221,N,11709.3696,W,1,7,2.4,16,M,,M,,*5C
06/13/2021,17:31:44.031,$GPGGA,173144,3241.8221,N,11709.3696,W,1,7,2.4,16,M,,M,,*5B
06/13/2021,17:31:44.931,$GPGGA,173145,3241.8221,N,11709.3696,W,1,7,2.4,15,M,,M,,*59
06/13/2021,17:31:46.031,$GPGGA,173146,3241.8221,N,11709.3696,W,1,7,2.4,15,M,,M,,*5A
06/13/2021,17:31:46.930,$GPGGA,173147,3241.8221,N,11709.3697,W,1,7,2.4,15,M,,M,,*5A
06/13/2021,17:31:48.031,$GPGGA,173148,3241.8221,N,11709.3697,W,1,7,2.4,15,M,,M,,*55
06/13/2021,17:31:48.930,$GPGGA,173149,3241.8221,N,11709.3697,W,1,7,2.4,15,M,,M,,*54
06/13/2021,17:31:50.030,$GPGGA,173150,3241.8221,N,11709.3697,W,1,7,2.4,15,M,,M,,*5C
06/13/2021,17:31:50.931,$GPGGA,173151,3241.8221,N,11709.3697,W,1,7,2.4,15,M,,M,,*5D
06/13/2021,17:31:52.031,$GPGGA,173152,3241.8223,N,11709.3697,W,1,7,2.4,15,M,,M,,*5C
06/13/2021,17:31:52.931,$GPGGA,173153,3241.8222,N,11709.3697,W,1,7,2.4,15,M,,M,,*5C
06/13/2021,17:31:54.031,$GPGGA,173154,3241.8223,N,11709.3697,W,1,7,2.4,15,M,,M,,*5A
06/13/2021,17:31:54.931,$GPGGA,173155,3241.8222,N,11709.3697,W,1,7,2.4,15,M,,M,,*5A
06/13/2021,17:31:56.031,$GPGGA,173156,3241.8223,N,11709.3697,W,1,7,2.4,15,M,,M,,*58
06/13/2021,17:31:56.931,$GPGGA,173157,3241.8222,N,11709.3697,W,1,7,2.4,14,M,,M,,*59
06/13/2021,17:31:58.031,$GPGGA,173158,3241.8224,N,11709.3697,W,1,7,2.4,14,M,,M,,*50
