07/03/2021,00:00:02.119,$GPGGA,000002,4640.7874,N,12437.7591,W,1,10,1.4,14,M,,M,,*60
07/03/2021,00:00:03.020,$GPGGA,000003,4640.7838,N,12437.7586,W,1,10,1.4,14,M,,M,,*6F
07/03/2021,00:00:04.120,$GPGGA,000004,4640.7802,N,12437.7580,W,1,10,1.4,14,M,,M,,*67
07/03/2021,00:00:05.020,$GPGGA,000005,4640.7767,N,12437.7573,W,1,10,1.4,15,M,,M,,*67
07/03/2021,00:00:06.120,$GPGGA,000006,4640.7731,N,12437.7567,W,1,10,1.4,15,M,,M,,*62
07/03/2021,00:00:07.020,$GPGGA,000007,4640.7695,N,12437.7562,W,1,10,1.4,15,M,,M,,*69
07/03/2021,00:00:08.120,$GPGGA,000008,4640.7661,N,12437.7556,W,1,10,1.4,15,M,,M,,*6A
07/03/2021,00:00:09.020,$GPGGA,000009,4640.7625,N,12437.7550,W,1,10,1.4,15,M,,M,,*6D
07/03/2021,00:00:10.120,$GPGGA,000010,4640.7592,N,12437.7542,W,1,10,1.4,15,M,,M,,*69
07/03/2021,00:00:11.020,$GPGGA,000011,4640.7557,N,12437.7535,W,1,10,1.4,15,M,,M,,*61
07/03/2021,00:00:12.120,$GPGGA,000012,4640.7523,N,12437.7528,W,1,10,1.4,15,M,,M,,*6D
07/03/2021,00:00:13.020,$GPGGA,000013,4640.7488,N,12437.7521,W,1,10,1.4,15,M,,M,,*65
07/03/2021,00:00:14.120,$GPGGA,000014,4640.7453,N,12437.7514,W,1,10,1.4,15,M,,M,,*62
07/03/2021,00:00:15.020,$GPGGA,000015,4640.7417,N,12437.7508,W,1,10,1.4,15,M,,M,,*6E
07/03/2021,00:00:16.121,$GPGGA,000016,4640.7381,N,12437.7502,W,1,10,1.4,15,M,,M,,*6F
07/03/2021,00:00:17.020,$GPGGA,000017,4640.7345,N,12437.7496,W,1,10,1.4,15,M,,M,,*6A
07/03/2021,00:00:18.121,$GPGGA,000018,4640.7309,N,12437.7489,W,1,10,1.4,15,M,,M,,*63
07/03/2021,00:00:19.804,$GPGGA,000019,4640.7274,N,12437.7482,W,1,10,1.4,15,M,,M,,*62
07/03/2021,00:00:20.120,$GPGGA,000020,4640.7239,N,12437.7475,W,1,10,1.4,15,M,,M,,*69
07/03/2021,00:00:21.020,$GPGGA,000021,4640.7203,N,12437.7468,W,1,10,1.4,15,M,,M,,*6D
07/03/2021,00:00:22.121,$GPGGA,000022,4640.7168,N,12437.7462,W,1,10,1.4,15,M,,M,,*6A
07/03/2021,00:00:23.449,$GPGGA,000023,4640.7134,N,12437.7455,W,1,10,1.4,15,M,,M,,*66
07/03/2021,00:00:24.121,$GPGGA,000024,4640.7101,N,12437.7449,W,1,10,1.4,15,M,,M,,*6A
07/03/2021,00:00:25.021,$GPGGA,000025,4640.7066,N,12437.7442,W,1,10,1.4,15,M,,M,,*60
07/03/2021,00:00:26.121,$GPGGA,000026,4640.7031,N,12437.7436,W,1,10,1.4,15,M,,M,,*62
07/03/2021,00:00:27.388,$GPGGA,000027,4640.6997,N,12437.7430,W,1,10,1.4,15,M,,M,,*61
07/03/2021,00:00:28.120,$GPGGA,000028,4640.6961,N,12437.7423,W,1,10,1.4,15,M,,M,,*65
07/03/2021,00:00:30.863,$GPGGA,000029,4640.6925,N,12437.7415,W,1,10,1.4,15,M,,M,,*61
07/03/2021,00:00:30.881,$GPGGA,000030,4640.6889,N,12437.7409,W,1,10,1.4,15,M,,M,,*63
07/03/2021,00:00:31.021,$GPGGA,000031,4640.6852,N,12437.7403,W,1,10,1.4,15,M,,M,,*6E
07/03/2021,00:00:32.120,$GPGGA,000032,4640.6816,N,12437.7399,W,1,10,1.4,15,M,,M,,*69
07/03/2021,00:00:33.021,$GPGGA,000033,4640.6780,N,12437.7394,W,1,10,1.4,15,M,,M,,*65
07/03/2021,00:00:34.121,$GPGGA,000034,4640.6744,N,12437.7388,W,1,10,1.4,15,M,,M,,*67
07/03/2021,00:00:35.021,$GPGGA,000035,4640.6709,N,12437.7382,W,1,10,1.4,15,M,,M,,*65
07/03/2021,00:00:36.121,$GPGGA,000036,4640.6674,N,12437.7376,W,1,10,1.4,15,M,,M,,*66
07/03/2021,00:00:37.021,$GPGGA,000037,4640.6640,N,12437.7370,W,1,10,1.4,15,M,,M,,*66
07/03/2021,00:00:38.121,$GPGGA,000038,4640.6606,N,12437.7362,W,1,10,1.4,15,M,,M,,*68
07/03/2021,00:00:39.021,$GPGGA,000039,4640.6572,N,12437.7355,W,1,10,1.4,15,M,,M,,*6D
07/03/2021,00:00:40.121,$GPGGA,000040,4640.6537,N,12437.7349,W,1,10,1.4,15,M,,M,,*6F
07/03/2021,00:00:41.022,$GPGGA,000041,4640.6502,N,12437.7344,W,1,10,1.4,15,M,,M,,*65
07/03/2021,00:00:42.122,$GPGGA,000042,4640.6466,N,12437.7339,W,1,10,1.4,15,M,,M,,*6F
07/03/2021,00:00:43.021,$GPGGA,000043,4640.6430,N,12437.7333,W,1,10,1.4,15,M,,M,,*67
07/03/2021,00:00:44.153,$GPGGA,000044,4640.6394,N,12437.7329,W,1,10,1.4,15,M,,M,,*62
07/03/2021,00:00:45.022,$GPGGA,000045,4640.6358,N,12437.7324,W,1,10,1.4,15,M,,M,,*6E
07/03/2021,00:00:46.122,$GPGGA,000046,4640.6322,N,12437.7319,W,1,10,1.4,15,M,,M,,*6E
07/03/2021,00:00:47.022,$GPGGA,000047,4640.6288,N,12437.7312,W,1,10,1.5,15,M,,M,,*64
07/03/2021,00:00:48.122,$GPGGA,000048,4640.6252,N,12437.7305,W,1,9,1.5,15,M,,M,,*52
07/03/2021,00:00:49.022,$GPGGA,000049,4640.6217,N,12437.7300,W,1,9,1.4,15,M,,M,,*56
07/03/2021,00:00:50.121,$GPGGA,000050,4640.6182,N,12437.7295,W,1,10,1.4,15,M,,M,,*64
07/03/2021,00:00:51.021,$GPGGA,000051,4640.6148,N,12437.7291,W,1,10,1.4,14,M,,M,,*66
07/03/2021,00:00:52.122,$GPGGA,000052,4640.6115,N,12437.7285,W,1,10,1.4,14,M,,M,,*68
07/03/2021,00:00:53.022,$GPGGA,000053,4640.6080,N,12437.7278,W,1,10,1.4,15,M,,M,,*67
07/03/2021,00:00:54.122,$GPGGA,000054,4640.6046,N,12437.7269,W,1,10,1.4,15,M,,M,,*6A
07/03/2021,00:00:55.022,$GPGGA,000055,4640.6011,N,12437.7263,W,1,10,1.4,15,M,,M,,*63
07/03/2021,00:00:56.123,$GPGGA,000056,4640.5976,N,12437.7259,W,1,10,1.4,15,M,,M,,*62
07/03/2021,00:00:57.022,$GPGGA,000057,4640.5941,N,12437.7256,W,1,10,1.4,15,M,,M,,*68
07/03/2021,00:00:58.122,$GPGGA,000058,4640.5903,N,12437.7253,W,1,10,1.4,15,M,,M,,*64
07/03/2021,00:00:59.023,$GPGGA,000059,4640.5867,N,12437.7251,W,1,10,1.4,15,M,,M,,*64
07/03/2021,00:01:00.122,$GPGGA,000100,4640.5831,N,12437.7246,W,1,10,1.4,15,M,,M,,*6C
07/03/2021,00:01:01.022,$GPGGA,000101,4640.5797,N,12437.7240,W,1,10,1.4,15,M,,M,,*68
07/03/2021,00:01:02.123,$GPGGA,000102,4640.5762,N,12437.7231,W,1,9,1.4,15,M,,M,,*5F
07/03/2021,00:01:03.105,$GPGGA,000103,4640.5728,N,12437.7220,W,1,9,1.4,15,M,,M,,*50
07/03/2021,00:01:04.123,$GPGGA,000104,4640.5693,N,12437.7212,W,1,10,1.4,15,M,,M,,*6F
07/03/2021,00:01:05.023,$GPGGA,000105,4640.5658,N,12437.7205,W,1,10,1.4,15,M,,M,,*6F
07/03/2021,00:01:06.123,$GPGGA,000106,4640.5623,N,12437.7199,W,1,10,1.4,15,M,,M,,*66
07/03/2021,00:01:07.023,$GPGGA,000107,4640.5588,N,12437.7192,W,1,10,1.5,15,M,,M,,*6F
07/03/2021,00:01:08.123,$GPGGA,000108,4640.5553,N,12437.7187,W,1,10,1.5,15,M,,M,,*62
07/03/2021,00:01:10.719,$GPGGA,000109,4640.5518,N,12437.7182,W,1,10,1.4,15,M,,M,,*68
07/03/2021,00:01:10.719,$GPGGA,000110,4640.5483,N,12437.7177,W,1,10,1.4,15,M,,M,,*69
07/03/2021,00:01:11.023,$GPGGA,000111,4640.5448,N,12437.7170,W,1,10,1.4,15,M,,M,,*68
07/03/2021,00:01:12.123,$GPGGA,000112,4640.5412,N,12437.7163,W,1,10,1.4,15,M,,M,,*66
07/03/2021,00:01:13.023,$GPGGA,000113,4640.5378,N,12437.7156,W,1,10,1.4,15,M,,M,,*6A
07/03/2021,00:01:14.123,$GPGGA,000114,4640.5343,N,12437.7149,W,1,10,1.4,15,M,,M,,*6B
07/03/2021,00:01:15.027,$GPGGA,000115,4640.5309,N,12437.7142,W,1,10,1.4,15,M,,M,,*6F
07/03/2021,00:01:16.128,$GPGGA,000116,4640.5273,N,12437.7134,W,1,10,1.4,15,M,,M,,*61
07/03/2021,00:01:17.027,$GPGGA,000117,4640.5238,N,12437.7126,W,1,10,1.4,15,M,,M,,*6C
07/03/2021,00:01:18.127,$GPGGA,000118,4640.5204,N,12437.7119,W,1,10,1.4,15,M,,M,,*60
07/03/2021,00:01:19.027,$GPGGA,000119,4640.5169,N,12437.7112,W,1,10,1.4,15,M,,M,,*62
07/03/2021,00:01:20.127,$GPGGA,000120,4640.5134,N,12437.7104,W,1,10,1.4,15,M,,M,,*67
07/03/2021,00:01:21.027,$GPGGA,000121,4640.5099,N,12437.7097,W,1,10,1.4,15,M,,M,,*6B
07/03/2021,00:01:22.127,$GPGGA,000122,4640.5064,N,12437.7089,W,1,10,1.4,15,M,,M,,*65
07/03/2021,00:01:23.027,$GPGGA,000123,4640.5029,N,12437.7081,W,1,10,1.4,16,M,,M,,*66
07/03/2021,00:01:24.127,$GPGGA,000124,4640.4995,N,12437.7074,W,1,10,1.4,16,M,,M,,*64
07/03/2021,00:01:25.018,$GPGGA,000125,4640.4959,N,12437.7068,W,1,10,1.4,16,M,,M,,*68
07/03/2021,00:01:26.118,$GPGGA,000126,4640.4924,N,12437.7062,W,1,9,1.4,16,M,,M,,*53
07/03/2021,00:01:27.018,$GPGGA,000127,4640.4888,N,12437.7056,W,1,9,1.4,16,M,,M,,*52
07/03/2021,00:01:28.128,$GPGGA,000128,4640.4854,N,12437.7050,W,1,10,1.4,16,M,,M,,*62
07/03/2021,00:01:29.028,$GPGGA,000129,4640.4818,N,12437.7044,W,1,10,1.4,15,M,,M,,*6D
07/03/2021,00:01:30.128,$GPGGA,000130,4640.4783,N,12437.7037,W,1,10,1.4,15,M,,M,,*6C
07/03/2021,00:01:31.018,$GPGGA,000131,4640.4749,N,12437.7028,W,1,10,1.4,15,M,,M,,*65
07/03/2021,00:01:32.128,$GPGGA,000132,4640.4713,N,12437.7019,W,1,10,1.4,15,M,,M,,*6B
07/03/2021,00:01:33.028,$GPGGA,000133,4640.4678,N,12437.7011,W,1,10,1.4,15,M,,M,,*6E
07/03/2021,00:01:34.128,$GPGGA,000134,4640.4642,N,12437.7004,W,1,10,1.4,15,M,,M,,*64
07/03/2021,00:01:35.028,$GPGGA,000135,4640.4608,N,12437.6998,W,1,10,1.4,15,M,,M,,*66
07/03/2021,00:01:36.128,$GPGGA,000136,4640.4570,N,12437.6995,W,1,10,1.4,15,M,,M,,*64
07/03/2021,00:01:37.018,$GPGGA,000137,4640.4534,N,12437.6992,W,1,10,1.4,15,M,,M,,*62
07/03/2021,00:01:38.118,$GPGGA,000138,4640.4500,N,12437.6987,W,1,9,1.4,15,M,,M,,*56
07/03/2021,00:01:39.018,$GPGGA,000139,4640.4465,N,12437.6983,W,1,9,1.5,15,M,,M,,*50
07/03/2021,00:01:40.119,$GPGGA,000140,4640.4431,N,12437.6978,W,1,9,1.5,15,M,,M,,*5B
07/03/2021,00:01:41.019,$GPGGA,000141,4640.4397,N,12437.6972,W,1,9,1.5,15,M,,M,,*5B
07/03/2021,00:01:42.119,$GPGGA,000142,4640.4363,N,12437.6966,W,1,9,1.5,15,M,,M,,*56
07/03/2021,00:01:43.018,$GPGGA,000143,4640.4330,N,12437.6959,W,1,9,1.5,15,M,,M,,*5D
07/03/2021,00:01:44.118,$GPGGA,000144,4640.4294,N,12437.6952,W,1,9,1.5,15,M,,M,,*5E
07/03/2021,00:01:45.019,$GPGGA,000145,4640.4258,N,12437.6945,W,1,9,1.5,15,M,,M,,*59
07/03/2021,00:01:46.119,$GPGGA,000146,4640.4222,N,12437.6938,W,1,9,1.5,15,M,,M,,*5D
07/03/2021,00:01:47.018,$GPGGA,000147,4640.4185,N,12437.6931,W,1,9,1.5,15,M,,M,,*5B
07/03/2021,00:01:48.119,$GPGGA,000148,4640.4149,N,12437.6925,W,1,9,1.5,15,M,,M,,*51
07/03/2021,00:01:49.019,$GPGGA,000149,4640.4114,N,12437.6919,W,1,9,1.5,14,M,,M,,*56
07/03/2021,00:01:50.119,$GPGGA,000150,4640.4078,N,12437.6913,W,1,9,1.5,14,M,,M,,*5F
07/03/2021,00:01:51.019,$GPGGA,000151,4640.4043,N,12437.6908,W,1,9,1.5,14,M,,M,,*5C
07/03/2021,00:01:52.119,$GPGGA,000152,4640.4008,N,12437.6904,W,1,9,1.5,14,M,,M,,*5C
07/03/2021,00:01:53.019,$GPGGA,000153,4640.3974,N,12437.6899,W,1,9,1.5,14,M,,M,,*5D
07/03/2021,00:01:54.120,$GPGGA,000154,4640.3940,N,12437.6893,W,1,9,1.5,14,M,,M,,*57
07/03/2021,00:01:55.019,$GPGGA,000155,4640.3907,N,12437.6886,W,1,9,1.5,14,M,,M,,*51
07/03/2021,00:01:56.070,$GPGGA,000156,4640.3873,N,12437.6879,W,1,9,1.5,14,M,,M,,*50
07/03/2021,00:01:56.970,$GPGGA,000157,4640.3839,N,12437.6872,W,1,9,1.5,14,M,,M,,*54
07/03/2021,00:01:58.069,$GPGGA,000158,4640.3806,N,12437.6864,W,1,9,1.5,14,M,,M,,*50
07/03/2021,00:01:58.969,$GPGGA,000159,4640.3770,N,12437.6857,W,1,9,1.5,14,M,,M,,*5F
07/03/2021,00:02:00.191,$GPGGA,000200,4640.3732,N,12437.6850,W,1,9,1.5,14,M,,M,,*51
07/03/2021,00:02:00.969,$GPGGA,000201,4640.3696,N,12437.6844,W,1,9,1.5,14,M,,M,,*5A
07/03/2021,00:02:02.069,$GPGGA,000202,4640.3659,N,12437.6838,W,1,9,1.5,14,M,,M,,*51
07/03/2021,00:02:02.969,$GPGGA,000203,4640.3622,N,12437.6832,W,1,9,1.5,14,M,,M,,*56
07/03/2021,00:02:04.069,$GPGGA,000204,4640.3586,N,12437.6827,W,1,9,1.5,14,M,,M,,*58
07/03/2021,00:02:04.969,$GPGGA,000205,4640.3550,N,12437.6822,W,1,9,1.5,14,M,,M,,*57
07/03/2021,00:02:06.069,$GPGGA,000206,4640.3517,N,12437.6817,W,1,9,1.5,14,M,,M,,*51
07/03/2021,00:02:06.970,$GPGGA,000207,4640.3483,N,12437.6812,W,1,9,1.5,14,M,,M,,*59
07/03/2021,00:02:08.070,$GPGGA,000208,4640.3450,N,12437.6808,W,1,9,1.5,14,M,,M,,*53
07/03/2021,00:02:08.970,$GPGGA,000209,4640.3417,N,12437.6804,W,1,9,1.5,14,M,,M,,*5D
07/03/2021,00:02:10.070,$GPGGA,000210,4640.3384,N,12437.6798,W,1,9,1.5,14,M,,M,,*52
07/03/2021,00:02:10.969,$GPGGA,000211,4640.3349,N,12437.6793,W,1,9,1.5,14,M,,M,,*59
07/03/2021,00:02:12.070,$GPGGA,000212,4640.3315,N,12437.6786,W,1,9,1.5,14,M,,M,,*57
07/03/2021,00:02:12.972,$GPGGA,000213,4640.3279,N,12437.6777,W,1,9,1.5,14,M,,M,,*53
07/03/2021,00:02:14.070,$GPGGA,000214,4640.3243,N,12437.6769,W,1,9,1.5,14,M,,M,,*52
07/03/2021,00:02:14.971,$GPGGA,000215,4640.3205,N,12437.6763,W,1,9,1.5,14,M,,M,,*5B
07/03/2021,00:02:16.070,$GPGGA,000216,4640.3168,N,12437.6758,W,1,8,1.5,14,M,,M,,*59
07/03/2021,00:02:16.970,$GPGGA,000217,4640.3131,N,12437.6759,W,1,8,1.5,14,M,,M,,*55
07/03/2021,00:02:18.070,$GPGGA,000218,4640.3095,N,12437.6756,W,1,8,1.5,14,M,,M,,*5A
07/03/2021,00:02:18.971,$GPGGA,000219,4640.3060,N,12437.6755,W,1,8,1.5,14,M,,M,,*52
07/03/2021,00:02:20.070,$GPGGA,000220,4640.3026,N,12437.6752,W,1,9,1.5,14,M,,M,,*5C
07/03/2021,00:02:20.970,$GPGGA,000221,4640.2992,N,12437.6747,W,1,9,1.5,14,M,,M,,*5E
07/03/2021,00:02:22.071,$GPGGA,000222,4640.2959,N,12437.6742,W,1,9,1.5,14,M,,M,,*5F
07/03/2021,00:02:22.970,$GPGGA,000223,4640.2925,N,12437.6736,W,1,9,1.5,14,M,,M,,*56
07/03/2021,00:02:24.070,$GPGGA,000224,4640.2892,N,12437.6731,W,1,9,1.5,14,M,,M,,*5B
07/03/2021,00:02:24.971,$GPGGA,000225,4640.2857,N,12437.6726,W,1,9,1.5,14,M,,M,,*55
07/03/2021,00:02:26.071,$GPGGA,000226,4640.2822,N,12437.6721,W,1,9,1.5,14,M,,M,,*53
07/03/2021,00:02:26.969,$GPGGA,000227,4640.2786,N,12437.6716,W,1,9,1.5,15,M,,M,,*56
07/03/2021,00:02:28.070,$GPGGA,000228,4640.2749,N,12437.6711,W,1,9,1.5,15,M,,M,,*5D
07/03/2021,00:02:28.980,$GPGGA,000229,4640.2712,N,12437.6706,W,1,9,1.5,15,M,,M,,*54
07/03/2021,00:02:30.071,$GPGGA,000230,4640.2676,N,12437.6700,W,1,9,1.5,15,M,,M,,*59
07/03/2021,00:02:30.971,$GPGGA,000231,4640.2641,N,12437.6693,W,1,9,1.5,15,M,,M,,*57
07/03/2021,00:02:32.071,$GPGGA,000232,4640.2607,N,12437.6685,W,1,9,1.5,15,M,,M,,*51
07/03/2021,00:02:32.973,$GPGGA,000233,4640.2572,N,12437.6678,W,1,9,1.5,15,M,,M,,*53
07/03/2021,00:02:34.072,$GPGGA,000234,4640.2538,N,12437.6671,W,1,9,1.5,15,M,,M,,*53
07/03/2021,00:02:34.971,$GPGGA,000235,4640.2503,N,12437.6666,W,1,9,1.5,15,M,,M,,*5C
07/03/2021,00:02:36.071,$GPGGA,000236,4640.2469,N,12437.6662,W,1,9,1.5,15,M,,M,,*56
07/03/2021,00:02:36.971,$GPGGA,000237,4640.2437,N,12437.6656,W,1,9,1.5,15,M,,M,,*5B
07/03/2021,00:02:38.071,$GPGGA,000238,4640.2401,N,12437.6650,W,1,9,1.5,15,M,,M,,*57
07/03/2021,00:02:38.972,$GPGGA,000239,4640.2367,N,12437.6642,W,1,9,1.5,15,M,,M,,*52
07/03/2021,00:02:40.072,$GPGGA,000240,4640.2332,N,12437.6632,W,1,9,1.5,15,M,,M,,*5B
07/03/2021,00:02:40.971,$GPGGA,000241,4640.2297,N,12437.6622,W,1,9,1.5,15,M,,M,,*55
07/03/2021,00:02:42.072,$GPGGA,000242,4640.2262,N,12437.6614,W,1,9,1.5,15,M,,M,,*59
07/03/2021,00:02:42.972,$GPGGA,000243,4640.2226,N,12437.6608,W,1,9,1.5,15,M,,M,,*55
07/03/2021,00:02:44.072,$GPGGA,000244,4640.2189,N,12437.6603,W,1,9,1.5,15,M,,M,,*5F
07/03/2021,00:02:44.971,$GPGGA,000245,4640.2153,N,12437.6597,W,1,9,1.5,15,M,,M,,*57
07/03/2021,00:02:46.072,$GPGGA,000246,4640.2117,N,12437.6591,W,1,9,1.5,15,M,,M,,*52
07/03/2021,00:02:46.971,$GPGGA,000247,4640.2083,N,12437.6585,W,1,9,1.5,15,M,,M,,*5A
07/03/2021,00:02:48.072,$GPGGA,000248,4640.2048,N,12437.6580,W,1,9,1.5,15,M,,M,,*57
07/03/2021,00:02:48.972,$GPGGA,000249,4640.2014,N,12437.6575,W,1,9,1.5,14,M,,M,,*54
07/03/2021,00:02:50.072,$GPGGA,000250,4640.1982,N,12437.6569,W,1,9,1.5,14,M,,M,,*54
07/03/2021,00:02:50.972,$GPGGA,000251,4640.1947,N,12437.6563,W,1,9,1.5,14,M,,M,,*56
07/03/2021,00:02:52.074,$GPGGA,000252,4640.1913,N,12437.6556,W,1,9,1.5,14,M,,M,,*52
07/03/2021,00:02:52.972,$GPGGA,000253,4640.1878,N,12437.6551,W,1,9,1.5,14,M,,M,,*58
07/03/2021,00:02:54.072,$GPGGA,000254,4640.1843,N,12437.6546,W,1,9,1.5,14,M,,M,,*51
07/03/2021,00:02:54.972,$GPGGA,000255,4640.1808,N,12437.6541,W,1,9,1.5,14,M,,M,,*58
07/03/2021,00:02:56.072,$GPGGA,000256,4640.1772,N,12437.6536,W,1,8,1.5,14,M,,M,,*58
07/03/2021,00:02:56.973,$GPGGA,000257,4640.1736,N,12437.6529,W,1,8,1.5,14,M,,M,,*57
07/03/2021,00:02:58.072,$GPGGA,000258,4640.1700,N,12437.6524,W,1,9,1.5,14,M,,M,,*51
07/03/2021,00:02:58.972,$GPGGA,000259,4640.1664,N,12437.6519,W,1,9,1.5,14,M,,M,,*5D
07/03/2021,00:03:00.073,$GPGGA,000300,4640.1628,N,12437.6515,W,1,9,1.5,14,M,,M,,*54
07/03/2021,00:03:00.973,$GPGGA,000301,4640.1592,N,12437.6511,W,1,9,1.8,14,M,,M,,*5E
07/03/2021,00:03:02.073,$GPGGA,000302,4640.1557,N,12437.6506,W,1,8,1.8,14,M,,M,,*53
07/03/2021,00:03:02.973,$GPGGA,000303,4640.1523,N,12437.6499,W,1,8,1.5,14,M,,M,,*5B
07/03/2021,00:03:04.072,$GPGGA,000304,4640.1489,N,12437.6492,W,1,9,1.5,14,M,,M,,*57
07/03/2021,00:03:04.973,$GPGGA,000305,4640.1455,N,12437.6485,W,1,9,1.5,14,M,,M,,*51
07/03/2021,00:03:06.074,$GPGGA,000306,4640.1420,N,12437.6481,W,1,9,1.5,14,M,,M,,*54
07/03/2021,00:03:06.972,$GPGGA,000307,4640.1385,N,12437.6476,W,1,9,1.5,14,M,,M,,*55
07/03/2021,00:03:08.073,$GPGGA,000308,4640.1350,N,12437.6471,W,1,9,1.5,14,M,,M,,*55
07/03/2021,00:03:08.973,$GPGGA,000309,4640.1314,N,12437.6463,W,1,9,1.5,14,M,,M,,*57
07/03/2021,00:03:10.073,$GPGGA,000310,4640.1278,N,12437.6454,W,1,9,1.5,14,M,,M,,*50
07/03/2021,00:03:10.973,$GPGGA,000311,4640.1242,N,12437.6445,W,1,9,1.5,14,M,,M,,*58
07/03/2021,00:03:12.073,$GPGGA,000312,4640.1206,N,12437.6439,W,1,9,1.5,14,M,,M,,*50
07/03/2021,00:03:12.973,$GPGGA,000313,4640.1169,N,12437.6434,W,1,9,1.5,14,M,,M,,*56
07/03/2021,00:03:14.073,$GPGGA,000314,4640.1133,N,12437.6429,W,1,9,1.5,14,M,,M,,*52
07/03/2021,00:03:14.973,$GPGGA,000315,4640.1096,N,12437.6425,W,1,9,1.7,14,M,,M,,*53
07/03/2021,00:03:16.073,$GPGGA,000316,4640.1061,N,12437.6420,W,1,8,1.7,14,M,,M,,*5C
07/03/2021,00:03:16.974,$GPGGA,000317,4640.1028,N,12437.6413,W,1,8,1.5,14,M,,M,,*52
07/03/2021,00:03:18.073,$GPGGA,000318,4640.0992,N,12437.6406,W,1,9,1.5,14,M,,M,,*51
07/03/2021,00:03:18.973,$GPGGA,000319,4640.0957,N,12437.6399,W,1,9,1.7,15,M,,M,,*5B
07/03/2021,00:03:20.073,$GPGGA,000320,4640.0923,N,12437.6392,W,1,8,1.7,15,M,,M,,*58
07/03/2021,00:03:20.974,$GPGGA,000321,4640.0885,N,12437.6389,W,1,8,1.5,15,M,,M,,*5C
07/03/2021,00:03:22.073,$GPGGA,000322,4640.0848,N,12437.6383,W,1,9,1.5,15,M,,M,,*55
07/03/2021,00:03:22.974,$GPGGA,000323,4640.0812,N,12437.6378,W,1,9,1.5,15,M,,M,,*5F
07/03/2021,00:03:24.074,$GPGGA,000324,4640.0775,N,12437.6371,W,1,9,1.5,15,M,,M,,*5F
07/03/2021,00:03:24.974,$GPGGA,000325,4640.0739,N,12437.6364,W,1,9,1.5,15,M,,M,,*52
07/03/2021,00:03:26.074,$GPGGA,000326,4640.0703,N,12437.6356,W,1,9,1.5,15,M,,M,,*59
07/03/2021,00:03:26.970,$GPGGA,000327,4640.0667,N,12437.6348,W,1,9,1.5,15,M,,M,,*54
07/03/2021,00:03:28.074,$GPGGA,000328,4640.0632,N,12437.6339,W,1,9,1.5,15,M,,M,,*5D
07/03/2021,00:03:28.974,$GPGGA,000329,4640.0598,N,12437.6330,W,1,9,1.5,16,M,,M,,*55
07/03/2021,00:03:30.074,$GPGGA,000330,4640.0563,N,12437.6322,W,1,9,1.5,16,M,,M,,*5A
07/03/2021,00:03:30.974,$GPGGA,000331,4640.0528,N,12437.6316,W,1,9,1.5,16,M,,M,,*53
07/03/2021,00:03:32.074,$GPGGA,000332,4640.0494,N,12437.6310,W,1,9,1.5,16,M,,M,,*50
07/03/2021,00:03:32.974,$GPGGA,000333,4640.0459,N,12437.6305,W,1,9,1.5,16,M,,M,,*54
07/03/2021,00:03:34.074,$GPGGA,000334,4640.0425,N,12437.6299,W,1,9,1.5,16,M,,M,,*5C
07/03/2021,00:03:34.974,$GPGGA,000335,4640.0390,N,12437.6292,W,1,9,1.5,16,M,,M,,*5F
07/03/2021,00:03:36.075,$GPGGA,000336,4640.0356,N,12437.6284,W,1,9,1.5,16,M,,M,,*51
07/03/2021,00:03:36.974,$GPGGA,000337,4640.0320,N,12437.6275,W,1,9,1.5,17,M,,M,,*5E
07/03/2021,00:03:38.074,$GPGGA,000338,4640.0285,N,12437.6266,W,1,9,1.5,17,M,,M,,*5D
07/03/2021,00:03:38.974,$GPGGA,000339,4640.0249,N,12437.6259,W,1,9,1.8,17,M,,M,,*5D
07/03/2021,00:03:40.074,$GPGGA,000340,4640.0213,N,12437.6256,W,1,9,1.8,17,M,,M,,*53
07/03/2021,00:03:40.975,$GPGGA,000341,4640.0177,N,12437.6250,W,1,9,1.5,17,M,,M,,*58
07/03/2021,00:03:42.075,$GPGGA,000342,4640.0141,N,12437.6245,W,1,9,1.5,17,M,,M,,*5A
07/03/2021,00:03:42.975,$GPGGA,000343,4640.0107,N,12437.6239,W,1,9,1.5,17,M,,M,,*52
07/03/2021,00:03:44.075,$GPGGA,000344,4640.0071,N,12437.6233,W,1,9,1.5,17,M,,M,,*5F
07/03/2021,00:03:44.975,$GPGGA,000345,4640.0038,N,12437.6226,W,1,9,1.5,17,M,,M,,*57
07/03/2021,00:03:46.075,$GPGGA,000346,4640.0003,N,12437.6218,W,1,9,1.5,17,M,,M,,*51
07/03/2021,00:03:46.975,$GPGGA,000347,4639.9968,N,12437.6210,W,1,9,1.5,17,M,,M,,*5B
07/03/2021,00:03:48.074,$GPGGA,000348,4639.9933,N,12437.6201,W,1,9,1.5,17,M,,M,,*5A
07/03/2021,00:03:48.975,$GPGGA,000349,4639.9899,N,12437.6194,W,1,9,1.5,17,M,,M,,*55
07/03/2021,00:03:50.075,$GPGGA,000350,4639.9863,N,12437.6187,W,1,9,1.5,17,M,,M,,*5A
07/03/2021,00:03:50.975,$GPGGA,000351,4639.9828,N,12437.6181,W,1,9,1.5,18,M,,M,,*5D
07/03/2021,00:03:52.075,$GPGGA,000352,4639.9792,N,12437.6174,W,1,9,1.5,18,M,,M,,*5A
07/03/2021,00:03:52.975,$GPGGA,000353,4639.9756,N,12437.6168,W,1,9,1.5,18,M,,M,,*5E
07/03/2021,00:03:54.075,$GPGGA,000354,4639.9720,N,12437.6162,W,1,9,1.5,18,M,,M,,*52
07/03/2021,00:03:54.975,$GPGGA,000355,4639.9684,N,12437.6156,W,1,9,1.5,18,M,,M,,*5B
07/03/2021,00:03:56.075,$GPGGA,000356,4639.9649,N,12437.6149,W,1,8,1.5,18,M,,M,,*56
07/03/2021,00:03:56.977,$GPGGA,000357,4639.9614,N,12437.6143,W,1,8,1.5,18,M,,M,,*55
07/03/2021,00:03:58.075,$GPGGA,000358,4639.9579,N,12437.6136,W,1,9,1.5,18,M,,M,,*51
07/03/2021,00:03:58.975,$GPGGA,000359,4639.9545,N,12437.6128,W,1,9,1.5,18,M,,M,,*50
07/03/2021,00:04:00.076,$GPGGA,000400,4639.9511,N,12437.6120,W,1,9,1.5,18,M,,M,,*52
07/03/2021,00:04:00.976,$GPGGA,000401,4639.9478,N,12437.6113,W,1,9,1.5,18,M,,M,,*5D
07/03/2021,00:04:02.076,$GPGGA,000402,4639.9442,N,12437.6106,W,1,9,1.5,18,M,,M,,*53
07/03/2021,00:04:02.975,$GPGGA,000403,4639.9407,N,12437.6099,W,1,9,1.5,18,M,,M,,*54
07/03/2021,00:04:04.076,$GPGGA,000404,4639.9372,N,12437.6093,W,1,9,1.5,18,M,,M,,*5C
07/03/2021,00:04:04.976,$GPGGA,000405,4639.9337,N,12437.6088,W,1,9,1.5,18,M,,M,,*56
07/03/2021,00:04:06.076,$GPGGA,000406,4639.9301,N,12437.6082,W,1,9,1.5,18,M,,M,,*5A
07/03/2021,00:04:06.976,$GPGGA,000407,4639.9265,N,12437.6076,W,1,9,1.5,18,M,,M,,*53
07/03/2021,00:04:08.076,$GPGGA,000408,4639.9229,N,12437.6070,W,1,9,1.5,18,M,,M,,*52
07/03/2021,00:04:08.976,$GPGGA,000409,4639.9193,N,12437.6064,W,1,9,1.5,18,M,,M,,*54
07/03/2021,00:04:10.076,$GPGGA,000410,4639.9158,N,12437.6058,W,1,9,1.5,18,M,,M,,*54
07/03/2021,00:04:10.977,$GPGGA,000411,4639.9124,N,12437.6051,W,1,9,1.5,17,M,,M,,*58
07/03/2021,00:04:12.076,$GPGGA,000412,4639.9088,N,12437.6043,W,1,9,1.5,17,M,,M,,*5F
07/03/2021,00:04:12.976,$GPGGA,000413,4639.9053,N,12437.6034,W,1,9,1.5,17,M,,M,,*58
07/03/2021,00:04:14.076,$GPGGA,000414,4639.9019,N,12437.6025,W,1,9,1.5,17,M,,M,,*51
07/03/2021,00:04:14.977,$GPGGA,000415,4639.8984,N,12437.6017,W,1,9,1.5,17,M,,M,,*5D
07/03/2021,00:04:16.077,$GPGGA,000416,4639.8949,N,12437.6011,W,1,9,1.5,17,M,,M,,*59
07/03/2021,00:04:16.977,$GPGGA,000417,4639.8913,N,12437.6007,W,1,9,1.5,17,M,,M,,*50
07/03/2021,00:04:18.077,$GPGGA,000418,4639.8876,N,12437.6003,W,1,9,1.5,17,M,,M,,*59
07/03/2021,00:04:18.976,$GPGGA,000419,4639.8842,N,12437.5999,W,1,9,1.5,17,M,,M,,*56
07/03/2021,00:04:20.076,$GPGGA,000420,4639.8806,N,12437.5994,W,1,9,1.5,17,M,,M,,*51
07/03/2021,00:04:20.977,$GPGGA,000421,4639.8770,N,12437.5988,W,1,9,1.5,17,M,,M,,*53
07/03/2021,00:04:22.076,$GPGGA,000422,4639.8734,N,12437.5981,W,1,9,1.5,17,M,,M,,*59
07/03/2021,00:04:22.977,$GPGGA,000423,4639.8699,N,12437.5974,W,1,9,1.5,17,M,,M,,*54
07/03/2021,00:04:24.077,$GPGGA,000424,4639.8665,N,12437.5966,W,1,9,1.5,17,M,,M,,*53
07/03/2021,00:04:24.977,$GPGGA,000425,4639.8629,N,12437.5959,W,1,9,1.5,16,M,,M,,*57
07/03/2021,00:04:26.746,$GPGGA,000426,4639.8594,N,12437.5951,W,1,9,1.5,16,M,,M,,*59
07/03/2021,00:04:26.977,$GPGGA,000427,4639.8559,N,12437.5943,W,1,9,1.5,16,M,,M,,*5A
07/03/2021,00:04:28.077,$GPGGA,000428,4639.8524,N,12437.5935,W,1,9,1.5,16,M,,M,,*5E
07/03/2021,00:04:28.977,$GPGGA,000429,4639.8489,N,12437.5928,W,1,9,1.5,16,M,,M,,*55
07/03/2021,00:04:30.077,$GPGGA,000430,4639.8453,N,12437.5922,W,1,9,1.5,16,M,,M,,*50
07/03/2021,00:04:30.977,$GPGGA,000431,4639.8417,N,12437.5917,W,1,9,1.5,16,M,,M,,*57
07/03/2021,00:04:32.077,$GPGGA,000432,4639.8382,N,12437.5912,W,1,9,1.5,16,M,,M,,*5A
07/03/2021,00:04:32.977,$GPGGA,000433,4639.8346,N,12437.5908,W,1,9,1.5,16,M,,M,,*58
07/03/2021,00:04:34.077,$GPGGA,000434,4639.8311,N,12437.5903,W,1,9,1.5,16,M,,M,,*56
07/03/2021,00:04:34.978,$GPGGA,000435,4639.8276,N,12437.5896,W,1,9,1.5,16,M,,M,,*5A
07/03/2021,00:04:36.077,$GPGGA,000436,4639.8242,N,12437.5887,W,1,9,1.5,16,M,,M,,*5E
07/03/2021,00:04:36.977,$GPGGA,000437,4639.8207,N,12437.5877,W,1,9,1.5,16,M,,M,,*51
07/03/2021,00:04:38.077,$GPGGA,000438,4639.8174,N,12437.5868,W,1,9,1.5,16,M,,M,,*57
07/03/2021,00:04:38.978,$GPGGA,000439,4639.8138,N,12437.5859,W,1,9,1.5,16,M,,M,,*5C
07/03/2021,00:04:40.078,$GPGGA,000440,4639.8103,N,12437.5851,W,1,9,1.5,16,M,,M,,*52
07/03/2021,00:04:40.978,$GPGGA,000441,4639.8067,N,12437.5845,W,1,9,1.5,15,M,,M,,*56
07/03/2021,00:04:42.073,$GPGGA,000442,4639.8030,N,12437.5841,W,1,9,1.5,15,M,,M,,*53
07/03/2021,00:04:42.978,$GPGGA,000443,4639.7993,N,12437.5839,W,1,9,1.5,15,M,,M,,*52
07/03/2021,00:04:44.078,$GPGGA,000444,4639.7957,N,12437.5836,W,1,9,1.5,15,M,,M,,*52
07/03/2021,00:04:44.978,$GPGGA,000445,4639.7922,N,12437.5830,W,1,9,1.5,15,M,,M,,*57
07/03/2021,00:04:46.078,$GPGGA,000446,4639.7888,N,12437.5822,W,1,9,1.5,15,M,,M,,*56
07/03/2021,00:04:46.978,$GPGGA,000447,4639.7853,N,12437.5815,W,1,9,1.5,15,M,,M,,*55
07/03/2021,00:04:48.078,$GPGGA,000448,4639.7820,N,12437.5809,W,1,9,1.5,15,M,,M,,*53
07/03/2021,00:04:48.978,$GPGGA,000449,4639.7784,N,12437.5803,W,1,9,1.5,15,M,,M,,*59
07/03/2021,00:04:50.078,$GPGGA,000450,4639.7749,N,12437.5797,W,1,9,1.5,15,M,,M,,*52
07/03/2021,00:04:50.978,$GPGGA,000451,4639.7713,N,12437.5790,W,1,9,1.5,15,M,,M,,*5B
07/03/2021,00:04:52.078,$GPGGA,000452,4639.7679,N,12437.5782,W,1,9,1.5,15,M,,M,,*56
07/03/2021,00:04:52.978,$GPGGA,000453,4639.7643,N,12437.5775,W,1,9,1.5,15,M,,M,,*56
07/03/2021,00:04:54.078,$GPGGA,000454,4639.7607,N,12437.5769,W,1,9,1.5,15,M,,M,,*5C
07/03/2021,00:04:54.978,$GPGGA,000455,4639.7570,N,12437.5766,W,1,9,1.5,15,M,,M,,*51
07/03/2021,00:04:56.079,$GPGGA,000456,4639.7533,N,12437.5764,W,1,9,1.5,15,M,,M,,*57
07/03/2021,00:04:56.978,$GPGGA,000457,4639.7497,N,12437.5761,W,1,9,1.5,15,M,,M,,*5C
07/03/2021,00:04:58.079,$GPGGA,000458,4639.7462,N,12437.5758,W,1,9,1.5,15,M,,M,,*53
07/03/2021,00:04:58.978,$GPGGA,000459,4639.7427,N,12437.5753,W,1,9,1.5,15,M,,M,,*58
07/03/2021,00:05:00.078,$GPGGA,000500,4639.7392,N,12437.5746,W,1,9,1.5,15,M,,M,,*58
07/03/2021,00:05:00.979,$GPGGA,000501,4639.7357,N,12437.5739,W,1,9,1.5,14,M,,M,,*59
07/03/2021,00:05:02.078,$GPGGA,000502,4639.7323,N,12437.5731,W,1,9,1.5,14,M,,M,,*51
07/03/2021,00:05:02.979,$GPGGA,000503,4639.7289,N,12437.5724,W,1,9,1.5,14,M,,M,,*55
07/03/2021,00:05:04.078,$GPGGA,000504,4639.7253,N,12437.5718,W,1,9,1.5,14,M,,M,,*5A
07/03/2021,00:05:04.979,$GPGGA,000505,4639.7216,N,12437.5713,W,1,9,1.5,14,M,,M,,*51
07/03/2021,00:05:06.079,$GPGGA,000506,4639.7179,N,12437.5707,W,1,9,1.5,14,M,,M,,*5D
07/03/2021,00:05:06.979,$GPGGA,000507,4639.7143,N,12437.5703,W,1,9,1.5,14,M,,M,,*51
07/03/2021,00:05:08.090,$GPGGA,000508,4639.7108,N,12437.5700,W,1,9,1.5,14,M,,M,,*52
07/03/2021,00:05:08.979,$GPGGA,000509,4639.7072,N,12437.5697,W,1,9,1.8,14,M,,M,,*5D
07/03/2021,00:05:10.079,$GPGGA,000510,4639.7036,N,12437.5691,W,1,9,1.8,14,M,,M,,*53
07/03/2021,00:05:10.979,$GPGGA,000511,4639.7001,N,12437.5685,W,1,9,1.5,14,M,,M,,*5E
07/03/2021,00:05:12.079,$GPGGA,000512,4639.6967,N,12437.5677,W,1,9,1.5,14,M,,M,,*58
07/03/2021,00:05:12.979,$GPGGA,000513,4639.6933,N,12437.5668,W,1,9,1.5,14,M,,M,,*56
07/03/2021,00:05:14.080,$GPGGA,000514,4639.6898,N,12437.5659,W,1,9,1.5,14,M,,M,,*53
07/03/2021,00:05:14.979,$GPGGA,000515,4639.6864,N,12437.5652,W,1,9,1.5,14,M,,M,,*5A
07/03/2021,00:05:16.074,$GPGGA,000516,4639.6828,N,12437.5645,W,1,9,1.5,14,M,,M,,*57
07/03/2021,00:05:16.979,$GPGGA,000517,4639.6792,N,12437.5639,W,1,9,1.5,13,M,,M,,*54
07/03/2021,00:05:18.079,$GPGGA,000518,4639.6756,N,12437.5633,W,1,9,1.5,13,M,,M,,*59
07/03/2021,00:05:18.979,$GPGGA,000519,4639.6720,N,12437.5625,W,1,9,1.5,13,M,,M,,*5E
07/03/2021,00:05:20.079,$GPGGA,000520,4639.6684,N,12437.5618,W,1,9,1.5,13,M,,M,,*55
07/03/2021,00:05:20.979,$GPGGA,000521,4639.6648,N,12437.5612,W,1,9,1.5,13,M,,M,,*5E
07/03/2021,00:05:22.080,$GPGGA,000522,4639.6613,N,12437.5607,W,1,9,1.5,13,M,,M,,*57
07/03/2021,00:05:22.980,$GPGGA,000523,4639.6577,N,12437.5601,W,1,9,1.5,13,M,,M,,*51
07/03/2021,00:05:24.080,$GPGGA,000524,4639.6542,N,12437.5594,W,1,9,1.5,13,M,,M,,*5F
07/03/2021,00:05:24.980,$GPGGA,000525,4639.6508,N,12437.5587,W,1,9,1.5,13,M,,M,,*52
07/03/2021,00:05:26.080,$GPGGA,000526,4639.6474,N,12437.5578,W,1,9,1.5,13,M,,M,,*5B
07/03/2021,00:05:26.980,$GPGGA,000527,4639.6440,N,12437.5570,W,1,9,1.5,13,M,,M,,*55
07/03/2021,00:05:28.080,$GPGGA,000528,4639.6406,N,12437.5561,W,1,9,1.5,13,M,,M,,*58
07/03/2021,00:05:28.980,$GPGGA,000529,4639.6371,N,12437.5555,W,1,9,1.5,13,M,,M,,*59
07/03/2021,00:05:30.080,$GPGGA,000530,4639.6336,N,12437.5550,W,1,9,1.5,13,M,,M,,*57
07/03/2021,00:05:30.980,$GPGGA,000531,4639.6300,N,12437.5546,W,1,9,1.5,13,M,,M,,*54
07/03/2021,00:05:32.081,$GPGGA,000532,4639.6264,N,12437.5541,W,1,9,1.5,13,M,,M,,*53
07/03/2021,00:05:32.980,$GPGGA,000533,4639.6228,N,12437.5535,W,1,9,1.5,13,M,,M,,*59
07/03/2021,00:05:34.080,$GPGGA,000534,4639.6192,N,12437.5529,W,1,9,1.5,13,M,,M,,*51
07/03/2021,00:05:34.980,$GPGGA,000535,4639.6156,N,12437.5522,W,1,9,1.5,13,M,,M,,*53
07/03/2021,00:05:36.081,$GPGGA,000536,4639.6120,N,12437.5514,W,1,9,1.5,13,M,,M,,*54
07/03/2021,00:05:36.981,$GPGGA,000537,4639.6086,N,12437.5507,W,1,9,1.5,13,M,,M,,*5A
07/03/2021,00:05:38.081,$GPGGA,000538,4639.6051,N,12437.5500,W,1,9,1.5,13,M,,M,,*58
07/03/2021,00:05:38.981,$GPGGA,000539,4639.6017,N,12437.5494,W,1,9,1.5,13,M,,M,,*57
07/03/2021,00:05:40.081,$GPGGA,000540,4639.5981,N,12437.5488,W,1,9,1.5,13,M,,M,,*51
07/03/2021,00:05:40.981,$GPGGA,000541,4639.5946,N,12437.5482,W,1,9,1.5,13,M,,M,,*51
07/03/2021,00:05:42.081,$GPGGA,000542,4639.5912,N,12437.5477,W,1,9,1.5,13,M,,M,,*59
07/03/2021,00:05:42.980,$GPGGA,000543,4639.5877,N,12437.5471,W,1,9,1.7,13,M,,M,,*5E
07/03/2021,00:05:44.081,$GPGGA,000544,4639.5844,N,12437.5462,W,1,9,1.7,13,M,,M,,*5B
07/03/2021,00:05:44.981,$GPGGA,000545,4639.5809,N,12437.5453,W,1,9,1.5,13,M,,M,,*53
07/03/2021,00:05:46.081,$GPGGA,000546,4639.5773,N,12437.5443,W,1,9,1.5,13,M,,M,,*53
07/03/2021,00:05:46.981,$GPGGA,000547,4639.5737,N,12437.5434,W,1,9,1.5,14,M,,M,,*55
07/03/2021,00:05:48.081,$GPGGA,000548,4639.5701,N,12437.5425,W,1,9,1.5,14,M,,M,,*5F
07/03/2021,00:05:48.982,$GPGGA,000549,4639.5665,N,12437.5416,W,1,9,1.5,14,M,,M,,*5D
07/03/2021,00:05:50.082,$GPGGA,000550,4639.5630,N,12437.5408,W,1,9,1.5,14,M,,M,,*5A
07/03/2021,00:05:50.982,$GPGGA,000551,4639.5595,N,12437.5402,W,1,9,1.5,14,M,,M,,*5D
07/03/2021,00:05:52.081,$GPGGA,000552,4639.5560,N,12437.5396,W,1,8,1.5,14,M,,M,,*5F
07/03/2021,00:05:52.981,$GPGGA,000553,4639.5526,N,12437.5390,W,1,8,1.7,14,M,,M,,*58
07/03/2021,00:05:54.082,$GPGGA,000554,4639.5490,N,12437.5384,W,1,8,1.7,14,M,,M,,*56
07/03/2021,00:05:54.981,$GPGGA,000555,4639.5455,N,12437.5373,W,1,8,1.8,14,M,,M,,*59
07/03/2021,00:05:56.081,$GPGGA,000556,4639.5421,N,12437.5363,W,1,9,1.8,14,M,,M,,*59
07/03/2021,00:05:56.981,$GPGGA,000557,4639.5385,N,12437.5352,W,1,9,1.5,15,M,,M,,*5F
07/03/2021,00:05:58.082,$GPGGA,000558,4639.5349,N,12437.5344,W,1,9,1.5,15,M,,M,,*57
07/03/2021,00:05:58.981,$GPGGA,000559,4639.5313,N,12437.5339,W,1,9,1.5,15,M,,M,,*53
07/03/2021,00:06:00.082,$GPGGA,000600,4639.5276,N,12437.5334,W,1,9,1.5,15,M,,M,,*53
07/03/2021,00:06:00.982,$GPGGA,000601,4639.5241,N,12437.5330,W,1,9,1.5,15,M,,M,,*52
07/03/2021,00:06:02.102,$GPGGA,000602,4639.5205,N,12437.5325,W,1,9,1.5,15,M,,M,,*55
07/03/2021,00:06:02.982,$GPGGA,000603,4639.5170,N,12437.5319,W,1,9,1.5,16,M,,M,,*59
07/03/2021,00:06:04.082,$GPGGA,000604,4639.5135,N,12437.5310,W,1,9,1.5,16,M,,M,,*56
07/03/2021,00:06:04.982,$GPGGA,000605,4639.5101,N,12437.5302,W,1,9,1.5,16,M,,M,,*53
07/03/2021,00:06:06.082,$GPGGA,000606,4639.5067,N,12437.5294,W,1,9,1.5,16,M,,M,,*5F
07/03/2021,00:06:06.982,$GPGGA,000607,4639.5032,N,12437.5286,W,1,9,1.7,16,M,,M,,*5F
07/03/2021,00:06:08.082,$GPGGA,000608,4639.4997,N,12437.5283,W,1,9,1.7,16,M,,M,,*52
07/03/2021,00:06:08.982,$GPGGA,000609,4639.4962,N,12437.5280,W,1,9,1.5,17,M,,M,,*59
07/03/2021,00:06:10.082,$GPGGA,000610,4639.4926,N,12437.5275,W,1,9,1.5,17,M,,M,,*5B
07/03/2021,00:06:10.982,$GPGGA,000611,4639.4890,N,12437.5272,W,1,9,1.5,17,M,,M,,*51
07/03/2021,00:06:12.082,$GPGGA,000612,4639.4854,N,12437.5269,W,1,9,1.5,17,M,,M,,*50
07/03/2021,00:06:12.982,$GPGGA,000613,4639.4818,N,12437.5267,W,1,9,1.5,17,M,,M,,*57
07/03/2021,00:06:14.082,$GPGGA,000614,4639.4782,N,12437.5264,W,1,9,1.5,17,M,,M,,*5F
07/03/2021,00:06:14.982,$GPGGA,000615,4639.4747,N,12437.5260,W,1,9,1.5,18,M,,M,,*5C
07/03/2021,00:06:16.082,$GPGGA,000616,4639.4713,N,12437.5252,W,1,8,1.5,18,M,,M,,*5E
07/03/2021,00:06:16.982,$GPGGA,000617,4639.4678,N,12437.5243,W,1,8,1.5,18,M,,M,,*53
07/03/2021,00:06:18.082,$GPGGA,000618,4639.4644,N,12437.5235,W,1,8,1.5,18,M,,M,,*52
07/03/2021,00:06:18.982,$GPGGA,000619,4639.4610,N,12437.5230,W,1,8,1.7,18,M,,M,,*55
07/03/2021,00:06:20.082,$GPGGA,000620,4639.4576,N,12437.5226,W,1,8,1.7,18,M,,M,,*5B
07/03/2021,00:06:20.982,$GPGGA,000621,4639.4538,N,12437.5223,W,1,8,1.5,18,M,,M,,*57
07/03/2021,00:06:22.083,$GPGGA,000622,4639.4502,N,12437.5218,W,1,9,1.5,18,M,,M,,*54
07/03/2021,00:06:22.983,$GPGGA,000623,4639.4467,N,12437.5213,W,1,9,1.5,18,M,,M,,*5C
07/03/2021,00:06:24.083,$GPGGA,000624,4639.4431,N,12437.5208,W,1,9,1.5,18,M,,M,,*52
07/03/2021,00:06:24.983,$GPGGA,000625,4639.4395,N,12437.5201,W,1,9,1.5,18,M,,M,,*53
07/03/2021,00:06:26.083,$GPGGA,000626,4639.4359,N,12437.5195,W,1,9,1.5,18,M,,M,,*5E
07/03/2021,00:06:26.983,$GPGGA,000627,4639.4323,N,12437.5190,W,1,9,1.5,18,M,,M,,*57
07/03/2021,00:06:28.083,$GPGGA,000628,4639.4288,N,12437.5185,W,1,9,1.5,18,M,,M,,*5C
07/03/2021,00:06:28.983,$GPGGA,000629,4639.4254,N,12437.5179,W,1,9,1.5,17,M,,M,,*50
07/03/2021,00:06:30.084,$GPGGA,000630,4639.4219,N,12437.5173,W,1,9,1.5,17,M,,M,,*5B
07/03/2021,00:06:30.983,$GPGGA,000631,4639.4185,N,12437.5168,W,1,9,1.5,17,M,,M,,*56
07/03/2021,00:06:32.084,$GPGGA,000632,4639.4150,N,12437.5163,W,1,9,1.5,17,M,,M,,*56
07/03/2021,00:06:32.983,$GPGGA,000633,4639.4117,N,12437.5158,W,1,9,1.5,17,M,,M,,*5C
07/03/2021,00:06:34.084,$GPGGA,000634,4639.4082,N,12437.5151,W,1,9,1.5,17,M,,M,,*5F
07/03/2021,00:06:34.983,$GPGGA,000635,4639.4046,N,12437.5143,W,1,9,1.5,17,M,,M,,*55
07/03/2021,00:06:36.083,$GPGGA,000636,4639.4012,N,12437.5136,W,1,9,1.5,17,M,,M,,*55
07/03/2021,00:06:36.983,$GPGGA,000637,4639.3974,N,12437.5129,W,1,9,1.5,17,M,,M,,*54
07/03/2021,00:06:38.084,$GPGGA,000638,4639.3938,N,12437.5122,W,1,9,1.5,17,M,,M,,*58
07/03/2021,00:06:38.984,$GPGGA,000639,4639.3902,N,12437.5115,W,1,9,1.5,17,M,,M,,*54
07/03/2021,00:06:40.084,$GPGGA,000640,4639.3866,N,12437.5108,W,1,9,1.5,17,M,,M,,*55
07/03/2021,00:06:40.983,$GPGGA,000641,4639.3831,N,12437.5102,W,1,9,1.5,17,M,,M,,*5C
07/03/2021,00:06:42.084,$GPGGA,000642,4639.3796,N,12437.5096,W,1,9,1.5,17,M,,M,,*51
07/03/2021,00:06:42.984,$GPGGA,000643,4639.3763,N,12437.5089,W,1,9,1.5,17,M,,M,,*54
07/03/2021,00:06:44.083,$GPGGA,000644,4639.3728,N,12437.5082,W,1,9,1.5,17,M,,M,,*57
07/03/2021,00:06:44.984,$GPGGA,000645,4639.3694,N,12437.5074,W,1,9,1.5,16,M,,M,,*58
07/03/2021,00:06:46.084,$GPGGA,000646,4639.3660,N,12437.5068,W,1,9,1.5,16,M,,M,,*5D
07/03/2021,00:06:46.984,$GPGGA,000647,4639.3626,N,12437.5062,W,1,9,1.5,16,M,,M,,*54
07/03/2021,00:06:48.081,$GPGGA,000648,4639.3591,N,12437.5057,W,1,9,1.5,16,M,,M,,*52
07/03/2021,00:06:48.974,$GPGGA,000649,4639.3555,N,12437.5053,W,1,9,1.5,16,M,,M,,*5F
07/03/2021,00:06:50.069,$GPGGA,000650,4639.3518,N,12437.5048,W,1,9,1.5,16,M,,M,,*54
07/03/2021,00:06:50.969,$GPGGA,000651,4639.3481,N,12437.5042,W,1,9,1.5,16,M,,M,,*5E
07/03/2021,00:06:52.069,$GPGGA,000652,4639.3445,N,12437.5037,W,1,8,1.5,16,M,,M,,*56
07/03/2021,00:06:52.969,$GPGGA,000653,4639.3410,N,12437.5032,W,1,8,1.7,16,M,,M,,*50
07/03/2021,00:06:54.069,$GPGGA,000654,4639.3374,N,12437.5031,W,1,9,1.7,16,M,,M,,*50
07/03/2021,00:06:54.969,$GPGGA,000655,4639.3340,N,12437.5028,W,1,9,1.5,16,M,,M,,*5C
07/03/2021,00:06:56.069,$GPGGA,000656,4639.3304,N,12437.5024,W,1,9,1.5,16,M,,M,,*53
07/03/2021,00:06:56.970,$GPGGA,000657,4639.3269,N,12437.5018,W,1,9,1.7,16,M,,M,,*55
07/03/2021,00:06:58.069,$GPGGA,000658,4639.3236,N,12437.5014,W,1,9,1.7,16,M,,M,,*5C
07/03/2021,00:06:58.969,$GPGGA,000659,4639.3203,N,12437.5013,W,1,9,1.5,16,M,,M,,*5E
07/03/2021,00:07:00.070,$GPGGA,000700,4639.3167,N,12437.5012,W,1,9,1.5,16,M,,M,,*53
07/03/2021,00:07:00.970,$GPGGA,000701,4639.3132,N,12437.5009,W,1,9,1.5,16,M,,M,,*58
07/03/2021,00:07:02.070,$GPGGA,000702,4639.3098,N,12437.5006,W,1,9,1.5,16,M,,M,,*55
07/03/2021,00:07:02.969,$GPGGA,000703,4639.3063,N,12437.5003,W,1,9,1.5,17,M,,M,,*54
07/03/2021,00:07:04.070,$GPGGA,000704,4639.3027,N,12437.5000,W,1,9,1.5,17,M,,M,,*50
07/03/2021,00:07:04.964,$GPGGA,000705,4639.2990,N,12437.4996,W,1,9,1.5,17,M,,M,,*52
07/03/2021,00:07:06.069,$GPGGA,000706,4639.2953,N,12437.4991,W,1,9,1.5,17,M,,M,,*59
07/03/2021,00:07:06.969,$GPGGA,000707,4639.2917,N,12437.4983,W,1,9,1.5,17,M,,M,,*5B
07/03/2021,00:07:08.070,$GPGGA,000708,4639.2881,N,12437.4973,W,1,8,1.5,17,M,,M,,*54
07/03/2021,00:07:08.970,$GPGGA,000709,4639.2845,N,12437.4963,W,1,8,1.5,17,M,,M,,*5C
07/03/2021,00:07:10.069,$GPGGA,000710,4639.2810,N,12437.4954,W,1,9,1.5,17,M,,M,,*51
07/03/2021,00:07:10.970,$GPGGA,000711,4639.2774,N,12437.4947,W,1,9,1.5,17,M,,M,,*5F
07/03/2021,00:07:12.070,$GPGGA,000712,4639.2740,N,12437.4941,W,1,9,1.5,17,M,,M,,*5D
07/03/2021,00:07:12.970,$GPGGA,000713,4639.2706,N,12437.4935,W,1,9,1.5,17,M,,M,,*5D
07/03/2021,00:07:14.070,$GPGGA,000714,4639.2672,N,12437.4928,W,1,9,1.5,17,M,,M,,*54
07/03/2021,00:07:14.970,$GPGGA,000715,4639.2639,N,12437.4921,W,1,9,1.5,16,M,,M,,*52
07/03/2021,00:07:16.070,$GPGGA,000716,4639.2605,N,12437.4915,W,1,9,1.5,16,M,,M,,*59
07/03/2021,00:07:16.970,$GPGGA,000717,4639.2570,N,12437.4908,W,1,9,1.5,16,M,,M,,*55
07/03/2021,00:07:18.071,$GPGGA,000718,4639.2536,N,12437.4902,W,1,9,1.5,16,M,,M,,*52
07/03/2021,00:07:18.971,$GPGGA,000719,4639.2500,N,12437.4896,W,1,9,1.5,16,M,,M,,*5A
07/03/2021,00:07:20.070,$GPGGA,000720,4639.2464,N,12437.4889,W,1,9,1.5,16,M,,M,,*5D
07/03/2021,00:07:20.970,$GPGGA,000721,4639.2428,N,12437.4881,W,1,9,1.5,16,M,,M,,*5C
07/03/2021,00:07:22.084,$GPGGA,000722,4639.2392,N,12437.4873,W,1,9,1.5,16,M,,M,,*54
07/03/2021,00:07:22.971,$GPGGA,000723,4639.2356,N,12437.4865,W,1,9,1.5,16,M,,M,,*5A
07/03/2021,00:07:24.071,$GPGGA,000724,4639.2320,N,12437.4857,W,1,9,1.5,16,M,,M,,*5D
07/03/2021,00:07:24.971,$GPGGA,000725,4639.2285,N,12437.4850,W,1,9,1.5,15,M,,M,,*56
07/03/2021,00:07:26.071,$GPGGA,000726,4639.2250,N,12437.4844,W,1,9,1.5,15,M,,M,,*58
07/03/2021,00:07:26.971,$GPGGA,000727,4639.2215,N,12437.4838,W,1,9,1.5,15,M,,M,,*53
07/03/2021,00:07:28.071,$GPGGA,000728,4639.2180,N,12437.4834,W,1,9,1.5,15,M,,M,,*5F
07/03/2021,00:07:28.971,$GPGGA,000729,4639.2146,N,12437.4830,W,1,9,1.5,15,M,,M,,*50
07/03/2021,00:07:30.411,$GPGGA,000730,4639.2112,N,12437.4827,W,1,9,1.5,15,M,,M,,*5F
07/03/2021,00:07:30.971,$GPGGA,000731,4639.2079,N,12437.4825,W,1,9,1.5,15,M,,M,,*50
07/03/2021,00:07:32.071,$GPGGA,000732,4639.2043,N,12437.4821,W,1,9,1.5,15,M,,M,,*5E
07/03/2021,00:07:32.971,$GPGGA,000733,4639.2009,N,12437.4816,W,1,9,1.5,15,M,,M,,*55
07/03/2021,00:07:34.072,$GPGGA,000734,4639.1974,N,12437.4810,W,1,9,1.5,15,M,,M,,*54
07/03/2021,00:07:34.971,$GPGGA,000735,4639.1938,N,12437.4803,W,1,9,1.5,15,M,,M,,*5F
07/03/2021,00:07:36.071,$GPGGA,000736,4639.1902,N,12437.4793,W,1,8,1.5,15,M,,M,,*52
07/03/2021,00:07:36.971,$GPGGA,000737,4639.1866,N,12437.4785,W,1,8,1.5,15,M,,M,,*57
07/03/2021,00:07:38.071,$GPGGA,000738,4639.1827,N,12437.4779,W,1,9,1.5,15,M,,M,,*5F
07/03/2021,00:07:38.962,$GPGGA,000739,4639.1790,N,12437.4774,W,1,9,1.5,15,M,,M,,*50
07/03/2021,00:07:40.071,$GPGGA,000740,4639.1754,N,12437.4769,W,1,9,1.5,15,M,,M,,*5A
07/03/2021,00:07:40.972,$GPGGA,000741,4639.1718,N,12437.4764,W,1,9,1.5,15,M,,M,,*5E
07/03/2021,00:07:42.072,$GPGGA,000742,4639.1684,N,12437.4760,W,1,9,1.5,15,M,,M,,*5D
07/03/2021,00:07:42.972,$GPGGA,000743,4639.1649,N,12437.4755,W,1,9,1.5,14,M,,M,,*5A
07/03/2021,00:07:44.071,$GPGGA,000744,4639.1615,N,12437.4750,W,1,8,1.5,14,M,,M,,*50
07/03/2021,00:07:44.962,$GPGGA,000745,4639.1581,N,12437.4744,W,1,8,1.5,14,M,,M,,*5A
07/03/2021,00:07:46.072,$GPGGA,000746,4639.1548,N,12437.4737,W,1,9,1.5,14,M,,M,,*59
07/03/2021,00:07:46.971,$GPGGA,000747,4639.1513,N,12437.4730,W,1,9,1.5,14,M,,M,,*51
07/03/2021,00:07:48.072,$GPGGA,000748,4639.1479,N,12437.4722,W,1,9,1.5,14,M,,M,,*50
07/03/2021,00:07:48.972,$GPGGA,000749,4639.1444,N,12437.4714,W,1,9,1.5,14,M,,M,,*5A
07/03/2021,00:07:50.072,$GPGGA,000750,4639.1408,N,12437.4706,W,1,9,1.5,14,M,,M,,*59
07/03/2021,00:07:50.962,$GPGGA,000751,4639.1371,N,12437.4698,W,1,9,1.5,14,M,,M,,*57
07/03/2021,00:07:52.072,$GPGGA,000752,4639.1335,N,12437.4690,W,1,9,1.5,14,M,,M,,*5C
07/03/2021,00:07:52.962,$GPGGA,000753,4639.1297,N,12437.4682,W,1,9,1.5,14,M,,M,,*57
07/03/2021,00:07:54.072,$GPGGA,000754,4639.1261,N,12437.4674,W,1,9,1.5,14,M,,M,,*50
07/03/2021,00:07:54.972,$GPGGA,000755,4639.1225,N,12437.4667,W,1,9,1.5,14,M,,M,,*53
07/03/2021,00:07:56.073,$GPGGA,000756,4639.1190,N,12437.4659,W,1,9,1.5,14,M,,M,,*50
07/03/2021,00:07:56.963,$GPGGA,000757,4639.1154,N,12437.4652,W,1,9,1.5,14,M,,M,,*52
07/03/2021,00:07:58.072,$GPGGA,000758,4639.1119,N,12437.4646,W,1,9,1.5,14,M,,M,,*51
07/03/2021,00:07:58.963,$GPGGA,000759,4639.1086,N,12437.4641,W,1,9,1.5,14,M,,M,,*50
07/03/2021,00:08:00.073,$GPGGA,000800,4639.1051,N,12437.4635,W,1,9,1.5,14,M,,M,,*5A
07/03/2021,00:08:00.972,$GPGGA,000801,4639.1017,N,12437.4629,W,1,9,1.5,14,M,,M,,*54
07/03/2021,00:08:02.063,$GPGGA,000802,4639.0984,N,12437.4622,W,1,9,1.5,14,M,,M,,*5E
07/03/2021,00:08:02.962,$GPGGA,000803,4639.0949,N,12437.4616,W,1,9,1.5,14,M,,M,,*59
07/03/2021,00:08:04.072,$GPGGA,000804,4639.0914,N,12437.4610,W,1,9,1.5,14,M,,M,,*50
07/03/2021,00:08:04.963,$GPGGA,000805,4639.0877,N,12437.4604,W,1,9,1.7,14,M,,M,,*52
07/03/2021,00:08:06.072,$GPGGA,000806,4639.0841,N,12437.4599,W,1,9,1.7,14,M,,M,,*53
07/03/2021,00:08:06.963,$GPGGA,000807,4639.0804,N,12437.4594,W,1,9,1.5,15,M,,M,,*5D
07/03/2021,00:08:08.063,$GPGGA,000808,4639.0768,N,12437.4588,W,1,9,1.5,15,M,,M,,*5A
07/03/2021,00:08:08.963,$GPGGA,000809,4639.0730,N,12437.4581,W,1,9,1.7,15,M,,M,,*5D
07/03/2021,00:08:10.063,$GPGGA,000810,4639.0693,N,12437.4576,W,1,9,1.7,15,M,,M,,*55
07/03/2021,00:08:10.963,$GPGGA,000811,4639.0657,N,12437.4572,W,1,9,1.5,15,M,,M,,*5A
07/03/2021,00:08:12.073,$GPGGA,000812,4639.0622,N,12437.4568,W,1,9,1.5,15,M,,M,,*50
07/03/2021,00:08:12.963,$GPGGA,000813,4639.0587,N,12437.4564,W,1,9,1.5,15,M,,M,,*51
07/03/2021,00:08:14.064,$GPGGA,000814,4639.0553,N,12437.4559,W,1,9,1.5,15,M,,M,,*51
07/03/2021,00:08:14.963,$GPGGA,000815,4639.0519,N,12437.4553,W,1,9,1.5,15,M,,M,,*54
07/03/2021,00:08:16.073,$GPGGA,000816,4639.0486,N,12437.4547,W,1,9,1.5,15,M,,M,,*55
07/03/2021,00:08:16.963,$GPGGA,000817,4639.0451,N,12437.4542,W,1,9,1.5,15,M,,M,,*5B
07/03/2021,00:08:18.064,$GPGGA,000818,4639.0416,N,12437.4535,W,1,9,1.5,15,M,,M,,*57
07/03/2021,00:08:18.963,$GPGGA,000819,4639.0380,N,12437.4529,W,1,9,1.5,15,M,,M,,*53
07/03/2021,00:08:20.063,$GPGGA,000820,4639.0345,N,12437.4521,W,1,9,1.5,15,M,,M,,*58
07/03/2021,00:08:20.963,$GPGGA,000821,4639.0307,N,12437.4513,W,1,9,1.5,15,M,,M,,*5E
07/03/2021,00:08:22.073,$GPGGA,000822,4639.0270,N,12437.4506,W,1,9,1.5,15,M,,M,,*58
07/03/2021,00:08:22.963,$GPGGA,000823,4639.0233,N,12437.4499,W,1,9,1.5,15,M,,M,,*59
07/03/2021,00:08:24.064,$GPGGA,000824,4639.0197,N,12437.4491,W,1,9,1.5,15,M,,M,,*5B
07/03/2021,00:08:24.964,$GPGGA,000825,4639.0161,N,12437.4484,W,1,9,1.5,15,M,,M,,*57
07/03/2021,00:08:26.064,$GPGGA,000826,4639.0127,N,12437.4477,W,1,9,1.5,15,M,,M,,*5A
07/03/2021,00:08:26.964,$GPGGA,000827,4639.0093,N,12437.4470,W,1,9,1.7,15,M,,M,,*50
07/03/2021,00:08:28.064,$GPGGA,000828,4639.0057,N,12437.4466,W,1,9,1.7,15,M,,M,,*50
07/03/2021,00:08:28.972,$GPGGA,000829,4639.0022,N,12437.4460,W,1,9,1.5,15,M,,M,,*57
07/03/2021,00:08:30.064,$GPGGA,000830,4638.9988,N,12437.4453,W,1,9,1.5,15,M,,M,,*5E
07/03/2021,00:08:30.964,$GPGGA,000831,4638.9955,N,12437.4446,W,1,9,1.5,15,M,,M,,*5B
07/03/2021,00:08:32.064,$GPGGA,000832,4638.9919,N,12437.4439,W,1,9,1.5,15,M,,M,,*58
07/03/2021,00:08:32.964,$GPGGA,000833,4638.9883,N,12437.4432,W,1,9,1.5,16,M,,M,,*53
07/03/2021,00:08:34.064,$GPGGA,000834,4638.9846,N,12437.4424,W,1,8,1.5,16,M,,M,,*5B
07/03/2021,00:08:34.964,$GPGGA,000835,4638.9810,N,12437.4417,W,1,8,1.7,16,M,,M,,*5B
07/03/2021,00:08:36.064,$GPGGA,000836,4638.9773,N,12437.4411,W,1,8,1.7,16,M,,M,,*54
07/03/2021,00:08:36.964,$GPGGA,000837,4638.9736,N,12437.4406,W,1,8,1.7,16,M,,M,,*52
07/03/2021,00:08:38.065,$GPGGA,000838,4638.9700,N,12437.4403,W,1,9,1.7,16,M,,M,,*5C
07/03/2021,00:08:38.964,$GPGGA,000839,4638.9666,N,12437.4399,W,1,9,1.5,16,M,,M,,*5A
07/03/2021,00:08:40.064,$GPGGA,000840,4638.9630,N,12437.4394,W,1,9,1.5,16,M,,M,,*5A
07/03/2021,00:08:40.965,$GPGGA,000841,4638.9596,N,12437.4389,W,1,9,1.5,16,M,,M,,*58
07/03/2021,00:08:42.065,$GPGGA,000842,4638.9563,N,12437.4382,W,1,9,1.5,16,M,,M,,*5A
07/03/2021,00:08:42.965,$GPGGA,000843,4638.9529,N,12437.4376,W,1,9,1.5,16,M,,M,,*5E
07/03/2021,00:08:44.065,$GPGGA,000844,4638.9496,N,12437.4369,W,1,8,1.5,16,M,,M,,*53
07/03/2021,00:08:44.965,$GPGGA,000845,4638.9461,N,12437.4365,W,1,8,1.5,16,M,,M,,*56
07/03/2021,00:08:46.064,$GPGGA,000846,4638.9426,N,12437.4359,W,1,9,1.5,16,M,,M,,*58
07/03/2021,00:08:46.965,$GPGGA,000847,4638.9391,N,12437.4355,W,1,9,1.5,16,M,,M,,*5E
07/03/2021,00:08:48.065,$GPGGA,000848,4638.9355,N,12437.4349,W,1,8,1.5,16,M,,M,,*55
07/03/2021,00:08:48.965,$GPGGA,000849,4638.9319,N,12437.4344,W,1,8,1.7,17,M,,M,,*52
07/03/2021,00:08:50.065,$GPGGA,000850,4638.9283,N,12437.4340,W,1,9,1.7,17,M,,M,,*5D
07/03/2021,00:08:50.965,$GPGGA,000851,4638.9248,N,12437.4335,W,1,9,1.5,17,M,,M,,*5B
07/03/2021,00:08:52.065,$GPGGA,000852,4638.9213,N,12437.4331,W,1,9,1.5,17,M,,M,,*52
07/03/2021,00:08:52.965,$GPGGA,000853,4638.9178,N,12437.4325,W,1,9,1.5,17,M,,M,,*58
07/03/2021,00:08:54.065,$GPGGA,000854,4638.9143,N,12437.4320,W,1,9,1.5,17,M,,M,,*52
07/03/2021,00:08:54.965,$GPGGA,000855,4638.9109,N,12437.4314,W,1,9,1.5,17,M,,M,,*5A
07/03/2021,00:08:56.065,$GPGGA,000856,4638.9075,N,12437.4309,W,1,9,1.5,17,M,,M,,*5F
07/03/2021,00:08:56.965,$GPGGA,000857,4638.9041,N,12437.4305,W,1,9,1.5,17,M,,M,,*55
07/03/2021,00:08:58.065,$GPGGA,000858,4638.9005,N,12437.4299,W,1,9,1.5,17,M,,M,,*5E
07/03/2021,00:08:58.965,$GPGGA,000859,4638.8970,N,12437.4291,W,1,9,1.7,17,M,,M,,*5F
07/03/2021,00:09:00.076,$GPGGA,000900,4638.8936,N,12437.4282,W,1,9,1.7,17,M,,M,,*52
07/03/2021,00:09:00.965,$GPGGA,000901,4638.8900,N,12437.4275,W,1,9,1.5,17,M,,M,,*5C
07/03/2021,00:09:02.066,$GPGGA,000902,4638.8864,N,12437.4270,W,1,9,1.5,17,M,,M,,*59
07/03/2021,00:09:02.966,$GPGGA,000903,4638.8828,N,12437.4266,W,1,9,1.5,17,M,,M,,*57
07/03/2021,00:09:04.066,$GPGGA,000904,4638.8793,N,12437.4262,W,1,9,1.5,17,M,,M,,*5B
07/03/2021,00:09:04.966,$GPGGA,000905,4638.8759,N,12437.4257,W,1,9,1.5,16,M,,M,,*5B
07/03/2021,00:09:06.066,$GPGGA,000906,4638.8723,N,12437.4252,W,1,9,1.5,16,M,,M,,*50
07/03/2021,00:09:06.966,$GPGGA,000907,4638.8688,N,12437.4246,W,1,9,1.5,16,M,,M,,*54
07/03/2021,00:09:08.068,$GPGGA,000908,4638.8652,N,12437.4240,W,1,9,1.5,16,M,,M,,*5A
07/03/2021,00:09:08.966,$GPGGA,000909,4638.8617,N,12437.4235,W,1,9,1.5,16,M,,M,,*58
07/03/2021,00:09:10.066,$GPGGA,000910,4638.8582,N,12437.4228,W,1,9,1.5,16,M,,M,,*53
07/03/2021,00:09:10.966,$GPGGA,000911,4638.8547,N,12437.4220,W,1,9,1.5,16,M,,M,,*53
07/03/2021,00:09:12.066,$GPGGA,000912,4638.8511,N,12437.4211,W,1,8,1.5,16,M,,M,,*50
07/03/2021,00:09:12.966,$GPGGA,000913,4638.8476,N,12437.4206,W,1,8,1.5,16,M,,M,,*57
07/03/2021,00:09:14.066,$GPGGA,000914,4638.8441,N,12437.4199,W,1,8,1.5,16,M,,M,,*51
07/03/2021,00:09:14.966,$GPGGA,000915,4638.8405,N,12437.4193,W,1,8,1.5,16,M,,M,,*5A
07/03/2021,00:09:16.066,$GPGGA,000916,4638.8370,N,12437.4188,W,1,8,1.5,16,M,,M,,*56
07/03/2021,00:09:17.146,$GPGGA,000917,4638.8334,N,12437.4184,W,1,8,1.5,16,M,,M,,*5B
07/03/2021,00:09:18.067,$GPGGA,000918,4638.8300,N,12437.4181,W,1,9,1.5,16,M,,M,,*57
07/03/2021,00:09:18.966,$GPGGA,000919,4638.8265,N,12437.4176,W,1,9,1.5,16,M,,M,,*5C
07/03/2021,00:09:20.066,$GPGGA,000920,4638.8232,N,12437.4172,W,1,9,1.5,16,M,,M,,*50
07/03/2021,00:09:20.967,$GPGGA,000921,4638.8197,N,12437.4166,W,1,9,1.5,16,M,,M,,*58
07/03/2021,00:09:22.067,$GPGGA,000922,4638.8163,N,12437.4159,W,1,9,1.5,16,M,,M,,*5C
07/03/2021,00:09:22.967,$GPGGA,000923,4638.8127,N,12437.4150,W,1,9,1.5,16,M,,M,,*54
07/03/2021,00:09:24.067,$GPGGA,000924,4638.8091,N,12437.4142,W,1,9,1.5,16,M,,M,,*5C
07/03/2021,00:09:24.967,$GPGGA,000925,4638.8055,N,12437.4136,W,1,9,1.5,16,M,,M,,*56
07/03/2021,00:09:26.067,$GPGGA,000926,4638.8018,N,12437.4132,W,1,9,1.5,16,M,,M,,*58
07/03/2021,00:09:26.967,$GPGGA,000927,4638.7982,N,12437.4130,W,1,9,1.5,16,M,,M,,*5E
07/03/2021,00:09:28.067,$GPGGA,000928,4638.7946,N,12437.4128,W,1,9,1.5,16,M,,M,,*50
07/03/2021,00:09:28.972,$GPGGA,000929,4638.7910,N,12437.4125,W,1,9,1.7,16,M,,M,,*5D
07/03/2021,00:09:30.067,$GPGGA,000930,4638.7875,N,12437.4120,W,1,9,1.7,16,M,,M,,*52
07/03/2021,00:09:30.967,$GPGGA,000931,4638.7842,N,12437.4113,W,1,9,1.5,16,M,,M,,*55
07/03/2021,00:09:32.095,$GPGGA,000932,4638.7809,N,12437.4104,W,1,9,1.5,16,M,,M,,*5F
07/03/2021,00:09:32.968,$GPGGA,000933,4638.7775,N,12437.4096,W,1,9,1.5,16,M,,M,,*50
07/03/2021,00:09:34.067,$GPGGA,000934,4638.7739,N,12437.4090,W,1,8,1.5,16,M,,M,,*58
07/03/2021,00:09:34.968,$GPGGA,000935,4638.7704,N,12437.4084,W,1,8,1.5,16,M,,M,,*52
07/03/2021,00:09:36.068,$GPGGA,000936,4638.7666,N,12437.4079,W,1,9,1.5,16,M,,M,,*57
07/03/2021,00:09:36.968,$GPGGA,000937,4638.7629,N,12437.4074,W,1,9,1.5,16,M,,M,,*50
07/03/2021,00:09:38.067,$GPGGA,000938,4638.7592,N,12437.4069,W,1,9,1.5,16,M,,M,,*50
07/03/2021,00:09:38.967,$GPGGA,000939,4638.7556,N,12437.4064,W,1,9,1.5,16,M,,M,,*54
07/03/2021,00:09:40.068,$GPGGA,000940,4638.7521,N,12437.4059,W,1,9,1.5,16,M,,M,,*54
07/03/2021,00:09:40.967,$GPGGA,000941,4638.7486,N,12437.4055,W,1,9,1.5,16,M,,M,,*55
07/03/2021,00:09:42.068,$GPGGA,000942,4638.7452,N,12437.4051,W,1,9,1.5,16,M,,M,,*5B
07/03/2021,00:09:42.968,$GPGGA,000943,4638.7419,N,12437.4046,W,1,9,1.5,16,M,,M,,*53
07/03/2021,00:09:44.068,$GPGGA,000944,4638.7384,N,12437.4040,W,1,9,1.5,16,M,,M,,*51
07/03/2021,00:09:44.967,$GPGGA,000945,4638.7351,N,12437.4034,W,1,9,1.5,16,M,,M,,*5B
07/03/2021,00:09:46.068,$GPGGA,000946,4638.7318,N,12437.4028,W,1,9,1.5,16,M,,M,,*58
07/03/2021,00:09:46.968,$GPGGA,000947,4638.7282,N,12437.4021,W,1,9,1.5,16,M,,M,,*52
07/03/2021,00:09:48.068,$GPGGA,000948,4638.7247,N,12437.4013,W,1,9,1.5,16,M,,M,,*55
07/03/2021,00:09:48.968,$GPGGA,000949,4638.7211,N,12437.4006,W,1,9,1.5,16,M,,M,,*53
07/03/2021,00:09:50.068,$GPGGA,000950,4638.7174,N,12437.4002,W,1,9,1.5,16,M,,M,,*5F
07/03/2021,00:09:50.968,$GPGGA,000951,4638.7137,N,12437.3998,W,1,9,1.7,16,M,,M,,*56
07/03/2021,00:09:52.068,$GPGGA,000952,4638.7101,N,12437.3994,W,1,9,1.7,16,M,,M,,*5C
07/03/2021,00:09:52.968,$GPGGA,000953,4638.7065,N,12437.3992,W,1,9,1.5,16,M,,M,,*5A
07/03/2021,00:09:54.068,$GPGGA,000954,4638.7030,N,12437.3989,W,1,8,1.5,16,M,,M,,*56
07/03/2021,00:09:54.969,$GPGGA,000955,4638.6996,N,12437.3983,W,1,8,1.7,16,M,,M,,*5B
07/03/2021,00:09:56.068,$GPGGA,000956,4638.6964,N,12437.3976,W,1,9,1.7,16,M,,M,,*5E
07/03/2021,00:09:56.968,$GPGGA,000957,4638.6931,N,12437.3968,W,1,9,1.5,16,M,,M,,*52
07/03/2021,00:09:58.069,$GPGGA,000958,4638.6898,N,12437.3962,W,1,9,1.5,16,M,,M,,*55
07/03/2021,00:09:58.968,$GPGGA,000959,4638.6864,N,12437.3956,W,1,9,1.5,16,M,,M,,*50
07/03/2021,00:10:00.068,$GPGGA,001000,4638.6830,N,12437.3949,W,1,9,1.5,16,M,,M,,*5B
07/03/2021,00:10:00.969,$GPGGA,001001,4638.6794,N,12437.3942,W,1,9,1.5,16,M,,M,,*50
07/03/2021,00:10:02.069,$GPGGA,001002,4638.6758,N,12437.3935,W,1,9,1.5,16,M,,M,,*53
07/03/2021,00:10:02.969,$GPGGA,001003,4638.6721,N,12437.3929,W,1,9,1.5,16,M,,M,,*51
07/03/2021,00:10:04.069,$GPGGA,001004,4638.6685,N,12437.3925,W,1,9,1.5,16,M,,M,,*55
07/03/2021,00:10:04.968,$GPGGA,001005,4638.6647,N,12437.3922,W,1,9,1.7,16,M,,M,,*5F
07/03/2021,00:10:06.069,$GPGGA,001006,4638.6611,N,12437.3918,W,1,9,1.7,16,M,,M,,*56
07/03/2021,00:10:08.069,$GPGGA,001008,4638.6541,N,12437.3906,W,1,9,1.5,16,M,,M,,*53
07/03/2021,00:10:08.969,$GPGGA,001009,4638.6507,N,12437.3898,W,1,9,1.5,16,M,,M,,*56
07/03/2021,00:10:10.070,$GPGGA,001010,4638.6473,N,12437.3890,W,1,9,1.5,16,M,,M,,*54
07/03/2021,00:10:10.970,$GPGGA,001011,4638.6440,N,12437.3883,W,1,9,1.5,16,M,,M,,*57
07/03/2021,00:10:12.069,$GPGGA,001012,4638.6405,N,12437.3878,W,1,9,1.5,16,M,,M,,*51
07/03/2021,00:10:12.970,$GPGGA,001013,4638.6371,N,12437.3874,W,1,9,1.5,16,M,,M,,*58
07/03/2021,00:10:14.069,$GPGGA,001014,4638.6335,N,12437.3872,W,1,9,1.5,16,M,,M,,*59
07/03/2021,00:10:14.969,$GPGGA,001015,4638.6299,N,12437.3869,W,1,9,1.5,16,M,,M,,*55
07/03/2021,00:10:16.070,$GPGGA,001016,4638.6263,N,12437.3866,W,1,9,1.5,16,M,,M,,*5C
07/03/2021,00:10:16.970,$GPGGA,001017,4638.6227,N,12437.3862,W,1,9,1.5,16,M,,M,,*59
07/03/2021,00:10:18.070,$GPGGA,001018,4638.6190,N,12437.3858,W,1,9,1.5,16,M,,M,,*50
07/03/2021,00:10:18.969,$GPGGA,001019,4638.6155,N,12437.3853,W,1,9,1.5,16,M,,M,,*53
07/03/2021,00:10:20.070,$GPGGA,001020,4638.6120,N,12437.3849,W,1,9,1.5,16,M,,M,,*50
07/03/2021,00:10:20.969,$GPGGA,001021,4638.6084,N,12437.3844,W,1,9,1.5,16,M,,M,,*53
07/03/2021,00:10:22.070,$GPGGA,001022,4638.6048,N,12437.3840,W,1,9,1.5,16,M,,M,,*54
07/03/2021,00:10:22.969,$GPGGA,001023,4638.6014,N,12437.3837,W,1,9,1.5,16,M,,M,,*5C
07/03/2021,00:10:24.070,$GPGGA,001024,4638.5981,N,12437.3833,W,1,9,1.5,16,M,,M,,*59
07/03/2021,00:10:24.970,$GPGGA,001025,4638.5946,N,12437.3830,W,1,9,1.5,15,M,,M,,*53
07/03/2021,00:10:26.071,$GPGGA,001026,4638.5911,N,12437.3826,W,1,9,1.5,15,M,,M,,*55
07/03/2021,00:10:26.970,$GPGGA,001027,4638.5876,N,12437.3823,W,1,9,1.5,15,M,,M,,*51
07/03/2021,00:10:28.070,$GPGGA,001028,4638.5841,N,12437.3820,W,1,9,1.5,15,M,,M,,*59
07/03/2021,00:10:28.970,$GPGGA,001029,4638.5805,N,12437.3815,W,1,9,1.7,15,M,,M,,*5C
07/03/2021,00:10:30.070,$GPGGA,001030,4638.5768,N,12437.3810,W,1,8,1.7,15,M,,M,,*54
07/03/2021,00:10:30.970,$GPGGA,001031,4638.5732,N,12437.3808,W,1,8,1.5,15,M,,M,,*51
07/03/2021,00:10:32.070,$GPGGA,001032,4638.5694,N,12437.3806,W,1,8,1.5,15,M,,M,,*51
07/03/2021,00:10:32.970,$GPGGA,001033,4638.5657,N,12437.3802,W,1,8,1.7,16,M,,M,,*5A
07/03/2021,00:10:34.070,$GPGGA,001034,4638.5621,N,12437.3797,W,1,9,1.7,16,M,,M,,*5E
07/03/2021,00:10:34.972,$GPGGA,001035,4638.5587,N,12437.3790,W,1,9,1.5,16,M,,M,,*55
07/03/2021,00:10:36.071,$GPGGA,001036,4638.5551,N,12437.3783,W,1,9,1.5,16,M,,M,,*5F
07/03/2021,00:10:36.971,$GPGGA,001037,4638.5515,N,12437.3775,W,1,9,1.5,16,M,,M,,*57
07/03/2021,00:10:39.435,$GPGGA,001038,4638.5479,N,12437.3769,W,1,9,1.5,16,M,,M,,*5E
07/03/2021,00:10:39.435,$GPGGA,001039,4638.5444,N,12437.3763,W,1,9,1.5,16,M,,M,,*5B
07/03/2021,00:10:40.070,$GPGGA,001040,4638.5410,N,12437.3756,W,1,9,1.5,16,M,,M,,*52
07/03/2021,00:10:40.970,$GPGGA,001041,4638.5374,N,12437.3750,W,1,9,1.5,17,M,,M,,*51
07/03/2021,00:10:42.071,$GPGGA,001042,4638.5339,N,12437.3743,W,1,9,1.5,17,M,,M,,*59
07/03/2021,00:10:42.971,$GPGGA,001043,4638.5304,N,12437.3736,W,1,9,1.5,17,M,,M,,*54
07/03/2021,00:10:44.071,$GPGGA,001044,4638.5269,N,12437.3729,W,1,9,1.5,17,M,,M,,*57
07/03/2021,00:10:44.972,$GPGGA,001045,4638.5234,N,12437.3720,W,1,9,1.5,17,M,,M,,*57
07/03/2021,00:10:46.071,$GPGGA,001046,4638.5198,N,12437.3710,W,1,9,1.5,17,M,,M,,*52
07/03/2021,00:10:46.971,$GPGGA,001047,4638.5163,N,12437.3701,W,1,9,1.5,17,M,,M,,*57
07/03/2021,00:10:48.071,$GPGGA,001048,4638.5126,N,12437.3693,W,1,9,1.5,17,M,,M,,*53
07/03/2021,00:10:48.971,$GPGGA,001049,4638.5092,N,12437.3685,W,1,9,1.5,17,M,,M,,*5B
07/03/2021,00:10:50.071,$GPGGA,001050,4638.5056,N,12437.3678,W,1,9,1.5,17,M,,M,,*59
07/03/2021,00:10:50.971,$GPGGA,001051,4638.5021,N,12437.3671,W,1,9,1.5,18,M,,M,,*5E
07/03/2021,00:10:52.071,$GPGGA,001052,4638.4986,N,12437.3663,W,1,9,1.5,18,M,,M,,*5B
07/03/2021,00:10:52.972,$GPGGA,001053,4638.4951,N,12437.3657,W,1,9,1.5,18,M,,M,,*57
07/03/2021,00:10:54.071,$GPGGA,001054,4638.4917,N,12437.3651,W,1,9,1.5,18,M,,M,,*54
07/03/2021,00:10:54.971,$GPGGA,001055,4638.4883,N,12437.3648,W,1,9,1.5,18,M,,M,,*51
07/03/2021,00:10:56.072,$GPGGA,001056,4638.4850,N,12437.3643,W,1,9,1.5,18,M,,M,,*57
07/03/2021,00:10:56.972,$GPGGA,001057,4638.4815,N,12437.3638,W,1,9,1.5,18,M,,M,,*5B
07/03/2021,00:10:58.071,$GPGGA,001058,4638.4779,N,12437.3633,W,1,9,1.5,18,M,,M,,*5A
07/03/2021,00:10:58.972,$GPGGA,001059,4638.4744,N,12437.3628,W,1,9,1.5,17,M,,M,,*50
07/03/2021,00:11:00.071,$GPGGA,001100,4638.4709,N,12437.3622,W,1,9,1.5,17,M,,M,,*5E
07/03/2021,00:11:00.971,$GPGGA,001101,4638.4673,N,12437.3616,W,1,9,1.5,17,M,,M,,*54
07/03/2021,00:11:02.072,$GPGGA,001102,4638.4637,N,12437.3610,W,1,9,1.5,17,M,,M,,*51
07/03/2021,00:11:02.971,$GPGGA,001103,4638.4601,N,12437.3606,W,1,9,1.5,17,M,,M,,*52
07/03/2021,00:11:04.072,$GPGGA,001104,4638.4563,N,12437.3601,W,1,9,1.5,17,M,,M,,*55
07/03/2021,00:11:04.972,$GPGGA,001105,4638.4527,N,12437.3597,W,1,9,1.5,17,M,,M,,*58
07/03/2021,00:11:06.072,$GPGGA,001106,4638.4491,N,12437.3593,W,1,9,1.5,17,M,,M,,*53
07/03/2021,00:11:06.972,$GPGGA,001107,4638.4455,N,12437.3588,W,1,9,1.7,17,M,,M,,*52
07/03/2021,00:11:08.072,$GPGGA,001108,4638.4421,N,12437.3584,W,1,9,1.7,17,M,,M,,*52
07/03/2021,00:11:08.972,$GPGGA,001109,4638.4388,N,12437.3578,W,1,9,1.7,17,M,,M,,*54
07/03/2021,00:11:10.072,$GPGGA,001110,4638.4353,N,12437.3571,W,1,8,1.7,17,M,,M,,*52
07/03/2021,00:11:10.972,$GPGGA,001111,4638.4319,N,12437.3565,W,1,8,1.5,17,M,,M,,*5A
07/03/2021,00:11:12.072,$GPGGA,001112,4638.4283,N,12437.3560,W,1,8,1.5,17,M,,M,,*5E
07/03/2021,00:11:12.972,$GPGGA,001113,4638.4247,N,12437.3553,W,1,8,1.5,17,M,,M,,*57
07/03/2021,00:11:14.072,$GPGGA,001114,4638.4211,N,12437.3545,W,1,9,1.5,17,M,,M,,*55
07/03/2021,00:11:14.972,$GPGGA,001115,4638.4173,N,12437.3537,W,1,9,1.5,17,M,,M,,*56
07/03/2021,00:11:16.073,$GPGGA,001116,4638.4136,N,12437.3530,W,1,9,1.5,17,M,,M,,*53
07/03/2021,00:11:16.972,$GPGGA,001117,4638.4099,N,12437.3524,W,1,9,1.5,17,M,,M,,*53
07/03/2021,00:11:18.072,$GPGGA,001118,4638.4063,N,12437.3519,W,1,8,1.5,17,M,,M,,*56
07/03/2021,00:11:18.973,$GPGGA,001119,4638.4026,N,12437.3514,W,1,8,1.7,16,M,,M,,*58
07/03/2021,00:11:20.073,$GPGGA,001120,4638.3990,N,12437.3512,W,1,9,1.7,16,M,,M,,*56
07/03/2021,00:11:20.973,$GPGGA,001121,4638.3955,N,12437.3509,W,1,9,1.6,16,M,,M,,*55
07/03/2021,00:11:22.072,$GPGGA,001122,4638.3922,N,12437.3504,W,1,9,1.6,16,M,,M,,*5B
07/03/2021,00:11:22.973,$GPGGA,001123,4638.3887,N,12437.3498,W,1,9,1.6,16,M,,M,,*50
07/03/2021,00:11:24.073,$GPGGA,001124,4638.3854,N,12437.3491,W,1,9,1.6,16,M,,M,,*50
07/03/2021,00:11:24.973,$GPGGA,001125,4638.3820,N,12437.3483,W,1,9,1.6,16,M,,M,,*51
07/03/2021,00:11:26.073,$GPGGA,001126,4638.3785,N,12437.3475,W,1,9,1.6,16,M,,M,,*5B
07/03/2021,00:11:26.974,$GPGGA,001127,4638.3750,N,12437.3466,W,1,9,1.5,17,M,,M,,*52
07/03/2021,00:11:28.073,$GPGGA,001128,4638.3713,N,12437.3460,W,1,9,1.5,17,M,,M,,*5C
07/03/2021,00:11:28.974,$GPGGA,001129,4638.3676,N,12437.3455,W,1,9,1.5,17,M,,M,,*59
07/03/2021,00:11:30.073,$GPGGA,001130,4638.3640,N,12437.3451,W,1,9,1.5,17,M,,M,,*50
07/03/2021,00:11:30.974,$GPGGA,001131,4638.3601,N,12437.3448,W,1,9,1.5,17,M,,M,,*5C
07/03/2021,00:11:32.073,$GPGGA,001132,4638.3564,N,12437.3445,W,1,8,1.5,17,M,,M,,*53
07/03/2021,00:11:32.974,$GPGGA,001133,4638.3528,N,12437.3440,W,1,8,1.6,17,M,,M,,*5C
07/03/2021,00:11:34.074,$GPGGA,001134,4638.3493,N,12437.3434,W,1,9,1.6,17,M,,M,,*58
07/03/2021,00:11:34.974,$GPGGA,001135,4638.3458,N,12437.3428,W,1,9,1.6,16,M,,M,,*52
07/03/2021,00:11:36.074,$GPGGA,001136,4638.3424,N,12437.3421,W,1,9,1.6,16,M,,M,,*53
07/03/2021,00:11:36.973,$GPGGA,001137,4638.3391,N,12437.3413,W,1,9,1.6,16,M,,M,,*5A
07/03/2021,00:11:38.074,$GPGGA,001138,4638.3356,N,12437.3405,W,1,9,1.6,16,M,,M,,*59
07/03/2021,00:11:38.973,$GPGGA,001139,4638.3322,N,12437.3399,W,1,9,1.5,16,M,,M,,*5A
07/03/2021,00:11:40.074,$GPGGA,001140,4638.3286,N,12437.3396,W,1,9,1.5,16,M,,M,,*54
07/03/2021,00:11:40.973,$GPGGA,001141,4638.3250,N,12437.3394,W,1,9,1.5,16,M,,M,,*5C
07/03/2021,00:11:42.074,$GPGGA,001142,4638.3212,N,12437.3391,W,1,9,1.5,16,M,,M,,*5C
07/03/2021,00:11:42.974,$GPGGA,001143,4638.3176,N,12437.3389,W,1,9,1.5,16,M,,M,,*55
07/03/2021,00:11:44.074,$GPGGA,001144,4638.3139,N,12437.3388,W,1,9,1.5,16,M,,M,,*58
07/03/2021,00:11:44.974,$GPGGA,001145,4638.3102,N,12437.3385,W,1,9,1.6,16,M,,M,,*5F
07/03/2021,00:11:46.077,$GPGGA,001146,4638.3066,N,12437.3381,W,1,9,1.6,16,M,,M,,*5B
07/03/2021,00:11:46.974,$GPGGA,001147,4638.3030,N,12437.3376,W,1,9,1.6,16,M,,M,,*51
07/03/2021,00:11:48.074,$GPGGA,001148,4638.2995,N,12437.3370,W,1,9,1.6,16,M,,M,,*5F
07/03/2021,00:11:48.974,$GPGGA,001149,4638.2961,N,12437.3364,W,1,9,1.6,16,M,,M,,*50
07/03/2021,00:11:50.074,$GPGGA,001150,4638.2925,N,12437.3358,W,1,9,1.6,16,M,,M,,*57
07/03/2021,00:11:50.975,$GPGGA,001151,4638.2890,N,12437.3353,W,1,9,1.5,16,M,,M,,*51
07/03/2021,00:11:52.075,$GPGGA,001152,4638.2856,N,12437.3351,W,1,9,1.5,16,M,,M,,*5A
07/03/2021,00:11:52.975,$GPGGA,001153,4638.2820,N,12437.3348,W,1,9,1.5,16,M,,M,,*52
07/03/2021,00:11:54.074,$GPGGA,001154,4638.2784,N,12437.3344,W,1,9,1.5,16,M,,M,,*58
07/03/2021,00:11:54.975,$GPGGA,001155,4638.2747,N,12437.3340,W,1,9,1.5,16,M,,M,,*52
