06/13/2021,17:35:58.944,$GPGGA,173559,3241.8214,N,11709.3699,W,1,8,2.3,16,M,,M,,*52
06/13/2021,17:36:00.037,$GPGGA,173600,3241.8214,N,11709.3699,W,1,8,2.3,16,M,,M,,*5D
06/13/2021,17:36:00.936,$GPGGA,173601,3241.8214,N,11709.3699,W,1,8,2.3,15,M,,M,,*5F
06/13/2021,17:36:02.037,$GPGGA,173602,3241.8214,N,11709.3698,W,1,8,2.3,15,M,,M,,*5D
06/13/2021,17:36:02.936,$GPGGA,173603,3241.8214,N,11709.3699,W,1,8,2.3,15,M,,M,,*5D
06/13/2021,17:36:04.037,$GPGGA,173604,3241.8214,N,11709.3697,W,1,8,2.3,15,M,,M,,*54
06/13/2021,17:36:04.937,$GPGGA,173605,3241.8216,N,11709.3697,W,1,8,2.3,15,M,,M,,*57
06/13/2021,17:36:06.037,$GPGGA,173606,3241.8215,N,11709.3697,W,1,8,2.3,15,M,,M,,*57
06/13/2021,17:36:06.937,$GPGGA,173607,3241.8216,N,11709.3697,W,1,8,2.3,15,M,,M,,*55
06/13/2021,17:36:08.038,$GPGGA,173608,3241.8214,N,11709.3697,W,1,8,2.3,15,M,,M,,*58
06/13/2021,17:36:08.937,$GPGGA,173609,3241.8214,N,11709.3697,W,1,8,2.3,15,M,,M,,*59
06/13/2021,17:36:10.038,$GPGGA,173610,3241.8214,N,11709.3696,W,1,8,2.3,15,M,,M,,*50
06/13/2021,17:36:10.937,$GPGGA,173611,3241.8214,N,11709.3696,W,1,8,2.3,15,M,,M,,*51
06/13/2021,17:36:12.037,$GPGGA,173612,3241.8214,N,11709.3696,W,1,8,2.3,15,M,,M,,*52
06/13/2021,17:36:12.937,$GPGGA,173613,3241.8216,N,11709.3696,W,1,8,2.3,15,M,,M,,*51
06/13/2021,17:36:14.038,$GPGGA,173614,3241.8215,N,11709.3696,W,1,8,2.3,15,M,,M,,*55
06/13/2021,17:36:14.938,$GPGGA,173615,3241.8216,N,11709.3696,W,1,8,2.3,15,M,,M,,*57
06/13/2021,17:36:16.037,$GPGGA,173616,3241.8215,N,11709.3696,W,1,8,2.3,15,M,,M,,*57
06/13/2021,17:36:16.937,$GPGGA,173617,3241.8216,N,11709.3696,W,1,8,2.3,15,M,,M,,*55
06/13/2021,17:36:18.034,$GPGGA,173618,3241.8215,N,11709.3696,W,1,8,2.3,15,M,,M,,*59
06/13/2021,17:36:18.928,$GPGGA,173619,3241.8216,N,11709.3696,W,1,8,2.3,15,M,,M,,*5B
06/13/2021,17:36:20.024,$GPGGA,173620,3241.8217,N,11709.3696,W,1,8,2.3,15,M,,M,,*50
06/13/2021,17:36:20.923,$GPGGA,173621,3241.8217,N,11709.3696,W,1,8,2.3,15,M,,M,,*51
06/13/2021,17:36:22.024,$GPGGA,173622,3241.8217,N,11709.3696,W,1,8,2.3,15,M,,M,,*52
06/13/2021,17:36:22.923,$GPGGA,173623,3241.8217,N,11709.3696,W,1,8,2.3,15,M,,M,,*53
06/13/2021,17:36:24.024,$GPGGA,173624,3241.8217,N,11709.3696,W,1,8,2.3,15,M,,M,,*54
06/13/2021,17:36:24.923,$GPGGA,173625,3241.8217,N,11709.3696,W,1,8,2.3,15,M,,M,,*55
06/13/2021,17:36:26.024,$GPGGA,173626,3241.8217,N,11709.3697,W,1,8,2.3,15,M,,M,,*57
06/13/2021,17:36:26.924,$GPGGA,173627,3241.8217,N,11709.3697,W,1,8,2.3,15,M,,M,,*56
06/13/2021,17:36:28.024,$GPGGA,173628,3241.8217,N,11709.3697,W,1,8,2.3,15,M,,M,,*59
06/13/2021,17:36:28.924,$GPGGA,173629,3241.8217,N,11709.3697,W,1,8,2.3,15,M,,M,,*58
06/13/2021,17:36:30.024,$GPGGA,173630,3241.8217,N,11709.3697,W,1,8,2.3,15,M,,M,,*50
06/13/2021,17:36:30.924,$GPGGA,173631,3241.8217,N,11709.3697,W,1,8,2.3,15,M,,M,,*51
06/13/2021,17:36:32.024,$GPGGA,173632,3241.8217,N,11709.3697,W,1,8,2.3,15,M,,M,,*52
06/13/2021,17:36:32.924,$GPGGA,173633,3241.8217,N,11709.3697,W,1,8,2.3,15,M,,M,,*53
06/13/2021,17:36:34.024,$GPGGA,173634,3241.8217,N,11709.3697,W,1,8,2.3,15,M,,M,,*54
06/13/2021,17:36:34.924,$GPGGA,173635,3241.8217,N,11709.3697,W,1,8,2.3,15,M,,M,,*55
06/13/2021,17:36:36.024,$GPGGA,173636,3241.8217,N,11709.3697,W,1,8,2.3,15,M,,M,,*56
06/13/2021,17:36:36.925,$GPGGA,173637,3241.8217,N,11709.3697,W,1,8,2.3,15,M,,M,,*57
06/13/2021,17:36:38.025,$GPGGA,173638,3241.8217,N,11709.3697,W,1,8,2.3,15,M,,M,,*58
06/13/2021,17:36:38.924,$GPGGA,173639,3241.8217,N,11709.3697,W,1,8,2.3,15,M,,M,,*59
06/13/2021,17:36:40.025,$GPGGA,173640,3241.8217,N,11709.3697,W,1,8,2.3,15,M,,M,,*57
06/13/2021,17:36:40.924,$GPGGA,173641,3241.8217,N,11709.3697,W,1,8,2.3,15,M,,M,,*56
06/13/2021,17:36:42.025,$GPGGA,173642,3241.8219,N,11709.3697,W,1,8,2.3,15,M,,M,,*5B
06/13/2021,17:36:42.925,$GPGGA,173643,3241.8218,N,11709.3697,W,1,8,2.3,15,M,,M,,*5B
06/13/2021,17:36:44.025,$GPGGA,173644,3241.8219,N,11709.3697,W,1,8,2.3,15,M,,M,,*5D
06/13/2021,17:36:44.925,$GPGGA,173645,3241.8218,N,11709.3697,W,1,8,2.3,15,M,,M,,*5D
06/13/2021,17:36:46.025,$GPGGA,173646,3241.8219,N,11709.3697,W,1,8,2.3,15,M,,M,,*5F
06/13/2021,17:36:46.924,$GPGGA,173647,3241.8218,N,11709.3699,W,1,8,2.3,15,M,,M,,*51
06/13/2021,17:36:48.025,$GPGGA,173648,3241.8219,N,11709.3698,W,1,8,2.3,15,M,,M,,*5E
06/13/2021,17:36:48.925,$GPGGA,173649,3241.8220,N,11709.3699,W,1,8,2.3,15,M,,M,,*54
06/13/2021,17:36:50.025,$GPGGA,173650,3241.8219,N,11709.3697,W,1,8,2.3,15,M,,M,,*58
06/13/2021,17:36:50.925,$GPGGA,173651,3241.8220,N,11709.3699,W,1,8,2.3,15,M,,M,,*5D
06/13/2021,17:36:52.025,$GPGGA,173652,3241.8219,N,11709.3698,W,1,8,2.3,15,M,,M,,*55
06/13/2021,17:36:52.925,$GPGGA,173653,3241.8221,N,11709.3699,W,1,8,2.3,15,M,,M,,*5E
06/13/2021,17:36:54.025,$GPGGA,173654,3241.8221,N,11709.3698,W,1,8,2.3,15,M,,M,,*58
06/13/2021,17:36:54.925,$GPGGA,173655,3241.8221,N,11709.3699,W,1,8,2.3,15,M,,M,,*58
06/13/2021,17:36:56.025,$GPGGA,173656,3241.8221,N,11709.3698,W,1,8,2.3,15,M,,M,,*5A
06/13/2021,17:36:56.925,$GPGGA,173657,3241.8221,N,11709.3699,W,1,8,2.3,15,M,,M,,*5A
06/13/2021,17:36:58.026,$GPGGA,173658,3241.8221,N,11709.3698,W,1,8,2.3,15,M,,M,,*54
06/13/2021,17:36:58.926,$GPGGA,173659,3241.8221,N,11709.3699,W,1,8,2.3,15,M,,M,,*54
06/13/2021,17:37:00.025,$GPGGA,173700,3241.8221,N,11709.3699,W,1,8,2.3,15,M,,M,,*59
06/13/2021,17:37:00.925,$GPGGA,173701,3241.8221,N,11709.3698,W,1,8,2.3,15,M,,M,,*59
06/13/2021,17:37:02.026,$GPGGA,173702,3241.8221,N,11709.3699,W,1,8,2.3,15,M,,M,,*5B
06/13/2021,17:37:02.926,$GPGGA,173703,3241.8219,N,11709.3699,W,1,8,2.3,15,M,,M,,*51
06/13/2021,17:37:04.026,$GPGGA,173704,3241.8220,N,11709.3699,W,1,8,2.3,15,M,,M,,*5C
06/13/2021,17:37:04.925,$GPGGA,173705,3241.8219,N,11709.3699,W,1,8,2.3,15,M,,M,,*57
06/13/2021,17:37:06.026,$GPGGA,173706,3241.8220,N,11709.3699,W,1,8,2.3,15,M,,M,,*5E
06/13/2021,17:37:06.926,$GPGGA,173707,3241.8218,N,11709.3699,W,1,8,2.3,15,M,,M,,*54
06/13/2021,17:37:08.026,$GPGGA,173708,3241.8219,N,11709.3699,W,1,8,2.3,15,M,,M,,*5A
06/13/2021,17:37:08.926,$GPGGA,173709,3241.8218,N,11709.3699,W,1,8,2.3,15,M,,M,,*5A
06/13/2021,17:37:10.026,$GPGGA,173710,3241.8219,N,11709.3699,W,1,8,2.3,15,M,,M,,*53
06/13/2021,17:37:10.926,$GPGGA,173711,3241.8217,N,11709.3699,W,1,8,2.3,15,M,,M,,*5C
06/13/2021,17:37:12.026,$GPGGA,173712,3241.8217,N,11709.3699,W,1,8,2.3,15,M,,M,,*5F
06/13/2021,17:37:12.927,$GPGGA,173713,3241.8217,N,11709.3699,W,1,8,2.3,15,M,,M,,*5E
06/13/2021,17:37:14.026,$GPGGA,173714,3241.8217,N,11709.3699,W,1,8,2.3,15,M,,M,,*59
06/13/2021,17:37:14.926,$GPGGA,173715,3241.8217,N,11709.3700,W,1,8,2.3,15,M,,M,,*59
06/13/2021,17:37:16.027,$GPGGA,173716,3241.8217,N,11709.3700,W,1,8,2.3,15,M,,M,,*5A
06/13/2021,17:37:16.927,$GPGGA,173717,3241.8217,N,11709.3700,W,1,8,2.3,15,M,,M,,*5B
06/13/2021,17:37:18.027,$GPGGA,173718,3241.8217,N,11709.3700,W,1,8,2.3,15,M,,M,,*54
06/13/2021,17:37:18.927,$GPGGA,173719,3241.8215,N,11709.3701,W,1,8,2.3,15,M,,M,,*56
06/13/2021,17:37:20.027,$GPGGA,173720,3241.8216,N,11709.3701,W,1,8,2.3,15,M,,M,,*5F
06/13/2021,17:37:20.927,$GPGGA,173721,3241.8215,N,11709.3701,W,1,8,2.3,15,M,,M,,*5D
06/13/2021,17:37:22.027,$GPGGA,173722,3241.8216,N,11709.3701,W,1,8,2.3,15,M,,M,,*5D
06/13/2021,17:37:22.928,$GPGGA,173723,3241.8215,N,11709.3701,W,1,8,2.3,15,M,,M,,*5F
06/13/2021,17:37:24.027,$GPGGA,173724,3241.8214,N,11709.3703,W,1,8,2.3,15,M,,M,,*5B
06/13/2021,17:37:24.927,$GPGGA,173725,3241.8214,N,11709.3702,W,1,8,2.3,15,M,,M,,*5B
06/13/2021,17:37:26.027,$GPGGA,173726,3241.8214,N,11709.3703,W,1,8,2.3,15,M,,M,,*59
06/13/2021,17:37:26.927,$GPGGA,173727,3241.8214,N,11709.3702,W,1,8,2.3,15,M,,M,,*59
06/13/2021,17:37:28.027,$GPGGA,173728,3241.8214,N,11709.3703,W,1,8,2.3,15,M,,M,,*57
06/13/2021,17:37:28.927,$GPGGA,173729,3241.8214,N,11709.3703,W,1,8,2.3,15,M,,M,,*56
06/13/2021,17:37:30.028,$GPGGA,173730,3241.8214,N,11709.3703,W,1,8,2.3,15,M,,M,,*5E
06/13/2021,17:37:30.927,$GPGGA,173731,3241.8214,N,11709.3703,W,1,8,2.3,15,M,,M,,*5F
06/13/2021,17:37:32.027,$GPGGA,173732,3241.8214,N,11709.3703,W,1,8,2.3,15,M,,M,,*5C
06/13/2021,17:37:32.927,$GPGGA,173733,3241.8214,N,11709.3703,W,1,8,2.3,15,M,,M,,*5D
06/13/2021,17:37:34.027,$GPGGA,173734,3241.8214,N,11709.3703,W,1,8,2.3,15,M,,M,,*5A
06/13/2021,17:37:34.927,$GPGGA,173735,3241.8214,N,11709.3703,W,1,8,2.3,15,M,,M,,*5B
06/13/2021,17:37:36.027,$GPGGA,173736,3241.8214,N,11709.3703,W,1,8,2.3,15,M,,M,,*58
06/13/2021,17:37:36.928,$GPGGA,173737,3241.8214,N,11709.3703,W,1,8,2.3,15,M,,M,,*59
06/13/2021,17:37:38.028,$GPGGA,173738,3241.8214,N,11709.3703,W,1,8,2.3,15,M,,M,,*56
06/13/2021,17:37:38.928,$GPGGA,173739,3241.8214,N,11709.3703,W,1,8,2.3,15,M,,M,,*57
06/13/2021,17:37:40.028,$GPGGA,173740,3241.8214,N,11709.3703,W,1,8,2.3,15,M,,M,,*59
06/13/2021,17:37:40.928,$GPGGA,173741,3241.8214,N,11709.3702,W,1,8,2.3,15,M,,M,,*59
06/13/2021,17:37:42.027,$GPGGA,173742,3241.8214,N,11709.3703,W,1,8,2.3,15,M,,M,,*5B
06/13/2021,17:37:42.928,$GPGGA,173743,3241.8214,N,11709.3702,W,1,8,2.3,16,M,,M,,*58
06/13/2021,17:37:44.028,$GPGGA,173744,3241.8214,N,11709.3703,W,1,8,2.3,16,M,,M,,*5E
06/13/2021,17:37:44.928,$GPGGA,173745,3241.8214,N,11709.3702,W,1,8,2.3,16,M,,M,,*5E
06/13/2021,17:37:46.028,$GPGGA,173746,3241.8214,N,11709.3703,W,1,8,2.3,16,M,,M,,*5C
06/13/2021,17:37:46.928,$GPGGA,173747,3241.8214,N,11709.3702,W,1,8,2.3,16,M,,M,,*5C
06/13/2021,17:37:48.028,$GPGGA,173748,3241.8214,N,11709.3701,W,1,8,2.3,16,M,,M,,*50
06/13/2021,17:37:48.928,$GPGGA,173749,3241.8214,N,11709.3701,W,1,8,2.3,16,M,,M,,*51
06/13/2021,17:37:50.028,$GPGGA,173750,3241.8216,N,11709.3701,W,1,8,2.3,16,M,,M,,*5B
06/13/2021,17:37:50.929,$GPGGA,173751,3241.8215,N,11709.3701,W,1,8,2.3,16,M,,M,,*59
06/13/2021,17:37:52.029,$GPGGA,173752,3241.8217,N,11709.3701,W,1,8,2.3,16,M,,M,,*58
06/13/2021,17:37:52.928,$GPGGA,173753,3241.8217,N,11709.3701,W,1,8,2.3,16,M,,M,,*59
06/13/2021,17:37:54.028,$GPGGA,173754,3241.8217,N,11709.3700,W,1,8,2.3,16,M,,M,,*5F
06/13/2021,17:37:54.929,$GPGGA,173755,3241.8217,N,11709.3700,W,1,8,2.3,16,M,,M,,*5E
06/13/2021,17:37:56.029,$GPGGA,173756,3241.8217,N,11709.3700,W,1,8,2.3,16,M,,M,,*5D
06/13/2021,17:37:56.929,$GPGGA,173757,3241.8217,N,11709.3700,W,1,8,2.3,17,M,,M,,*5D
06/13/2021,17:37:58.029,$GPGGA,173758,3241.8217,N,11709.3700,W,1,8,2.3,17,M,,M,,*52
06/13/2021,17:37:58.928,$GPGGA,173759,3241.8219,N,11709.3700,W,1,8,2.3,17,M,,M,,*5D
06/13/2021,17:38:00.028,$GPGGA,173800,3241.8218,N,11709.3699,W,1,8,2.3,17,M,,M,,*5E
06/13/2021,17:38:00.929,$GPGGA,173801,3241.8220,N,11709.3699,W,1,8,2.3,17,M,,M,,*54
06/13/2021,17:38:02.029,$GPGGA,173802,3241.8219,N,11709.3699,W,1,8,2.3,17,M,,M,,*5D
06/13/2021,17:38:02.929,$GPGGA,173803,3241.8220,N,11709.3699,W,1,8,2.3,17,M,,M,,*56
06/13/2021,17:38:04.029,$GPGGA,173804,3241.8219,N,11709.3699,W,1,8,2.3,17,M,,M,,*5B
06/13/2021,17:38:04.929,$GPGGA,173805,3241.8221,N,11709.3698,W,1,8,2.3,17,M,,M,,*50
06/13/2021,17:38:06.029,$GPGGA,173806,3241.8221,N,11709.3699,W,1,8,2.3,17,M,,M,,*52
06/13/2021,17:38:06.929,$GPGGA,173807,3241.8221,N,11709.3698,W,1,8,2.3,17,M,,M,,*52
06/13/2021,17:38:08.029,$GPGGA,173808,3241.8221,N,11709.3699,W,1,8,2.3,17,M,,M,,*5C
06/13/2021,17:38:08.929,$GPGGA,173809,3241.8221,N,11709.3698,W,1,8,2.3,17,M,,M,,*5C
06/13/2021,17:38:10.029,$GPGGA,173810,3241.8221,N,11709.3697,W,1,8,2.3,17,M,,M,,*5B
06/13/2021,17:38:10.929,$GPGGA,173811,3241.8221,N,11709.3697,W,1,8,2.3,17,M,,M,,*5A
06/13/2021,17:38:12.030,$GPGGA,173812,3241.8221,N,11709.3697,W,1,8,2.3,17,M,,M,,*59
06/13/2021,17:38:12.929,$GPGGA,173813,3241.8221,N,11709.3697,W,1,8,2.3,17,M,,M,,*58
06/13/2021,17:38:14.029,$GPGGA,173814,3241.8221,N,11709.3697,W,1,8,2.3,17,M,,M,,*5F
06/13/2021,17:38:14.929,$GPGGA,173815,3241.8219,N,11709.3697,W,1,8,2.3,17,M,,M,,*55
06/13/2021,17:38:16.030,$GPGGA,173816,3241.8220,N,11709.3697,W,1,8,2.3,17,M,,M,,*5C
06/13/2021,17:38:16.930,$GPGGA,173817,3241.8219,N,11709.3697,W,1,8,2.3,17,M,,M,,*57
06/13/2021,17:38:18.030,$GPGGA,173818,3241.8220,N,11709.3696,W,1,8,2.3,17,M,,M,,*53
06/13/2021,17:38:18.930,$GPGGA,173819,3241.8219,N,11709.3696,W,1,8,2.3,17,M,,M,,*58
06/13/2021,17:38:20.030,$GPGGA,173820,3241.8218,N,11709.3696,W,1,8,2.3,17,M,,M,,*53
06/13/2021,17:38:20.930,$GPGGA,173821,3241.8219,N,11709.3696,W,1,8,2.3,17,M,,M,,*53
06/13/2021,17:38:22.030,$GPGGA,173822,3241.8218,N,11709.3695,W,1,8,2.3,17,M,,M,,*52
06/13/2021,17:38:22.930,$GPGGA,173823,3241.8219,N,11709.3696,W,1,8,2.3,17,M,,M,,*51
06/13/2021,17:38:24.030,$GPGGA,173824,3241.8218,N,11709.3695,W,1,8,2.3,17,M,,M,,*54
06/13/2021,17:38:24.930,$GPGGA,173825,3241.8217,N,11709.3694,W,1,8,2.3,17,M,,M,,*5B
06/13/2021,17:38:26.030,$GPGGA,173826,3241.8217,N,11709.3694,W,1,8,2.3,17,M,,M,,*58
06/13/2021,17:38:26.930,$GPGGA,173827,3241.8217,N,11709.3694,W,1,8,2.3,17,M,,M,,*59
06/13/2021,17:38:28.030,$GPGGA,173828,3241.8217,N,11709.3694,W,1,8,2.3,17,M,,M,,*56
06/13/2021,17:38:28.930,$GPGGA,173829,3241.8217,N,11709.3693,W,1,8,2.3,17,M,,M,,*50
06/13/2021,17:38:30.031,$GPGGA,173830,3241.8217,N,11709.3693,W,1,8,2.3,17,M,,M,,*58
06/13/2021,17:38:30.930,$GPGGA,173831,3241.8217,N,11709.3693,W,1,8,2.3,17,M,,M,,*59
06/13/2021,17:38:32.030,$GPGGA,173832,3241.8217,N,11709.3693,W,1,8,2.3,17,M,,M,,*5A
06/13/2021,17:38:32.930,$GPGGA,173833,3241.8217,N,11709.3692,W,1,8,2.3,17,M,,M,,*5A
06/13/2021,17:38:34.030,$GPGGA,173834,3241.8217,N,11709.3692,W,1,8,2.3,17,M,,M,,*5D
06/13/2021,17:38:34.930,$GPGGA,173835,3241.8217,N,11709.3692,W,1,8,2.3,17,M,,M,,*5C
06/13/2021,17:38:36.030,$GPGGA,173836,3241.8217,N,11709.3692,W,1,8,2.3,17,M,,M,,*5F
06/13/2021,17:38:36.930,$GPGGA,173837,3241.8215,N,11709.3692,W,1,8,2.3,17,M,,M,,*5C
06/13/2021,17:38:38.030,$GPGGA,173838,3241.8216,N,11709.3691,W,1,8,2.3,17,M,,M,,*53
06/13/2021,17:38:38.930,$GPGGA,173839,3241.8215,N,11709.3692,W,1,8,2.3,17,M,,M,,*52
06/13/2021,17:38:40.030,$GPGGA,173840,3241.8216,N,11709.3691,W,1,8,2.3,17,M,,M,,*5C
06/13/2021,17:38:40.931,$GPGGA,173841,3241.8215,N,11709.3692,W,1,8,2.3,17,M,,M,,*5D
06/13/2021,17:38:42.031,$GPGGA,173842,3241.8214,N,11709.3691,W,1,8,2.3,17,M,,M,,*5C
06/13/2021,17:38:42.930,$GPGGA,173843,3241.8214,N,11709.3692,W,1,8,2.3,17,M,,M,,*5E
06/13/2021,17:38:44.031,$GPGGA,173844,3241.8214,N,11709.3691,W,1,8,2.3,17,M,,M,,*5A
06/13/2021,17:38:44.931,$GPGGA,173845,3241.8214,N,11709.3690,W,1,8,2.2,17,M,,M,,*5B
06/13/2021,17:38:46.031,$GPGGA,173846,3241.8214,N,11709.3690,W,1,8,2.2,17,M,,M,,*58
06/13/2021,17:38:46.931,$GPGGA,173847,3241.8214,N,11709.3692,W,1,8,2.2,17,M,,M,,*5B
06/13/2021,17:38:48.031,$GPGGA,173848,3241.8214,N,11709.3690,W,1,8,2.2,17,M,,M,,*56
06/13/2021,17:38:48.931,$GPGGA,173849,3241.8214,N,11709.3690,W,1,8,2.2,17,M,,M,,*57
06/13/2021,17:38:50.031,$GPGGA,173850,3241.8214,N,11709.3690,W,1,8,2.2,17,M,,M,,*5F
06/13/2021,17:38:50.931,$GPGGA,173851,3241.8214,N,11709.3690,W,1,8,2.2,17,M,,M,,*5E
06/13/2021,17:38:52.031,$GPGGA,173852,3241.8214,N,11709.3690,W,1,8,2.2,17,M,,M,,*5D
06/13/2021,17:38:52.931,$GPGGA,173853,3241.8214,N,11709.3690,W,1,8,2.2,17,M,,M,,*5C
06/13/2021,17:38:54.032,$GPGGA,173854,3241.8214,N,11709.3692,W,1,8,2.2,17,M,,M,,*59
06/13/2021,17:38:54.931,$GPGGA,173855,3241.8214,N,11709.3691,W,1,8,2.2,17,M,,M,,*5B
06/13/2021,17:38:56.031,$GPGGA,173856,3241.8214,N,11709.3692,W,1,8,2.2,17,M,,M,,*5B
06/13/2021,17:38:56.932,$GPGGA,173857,3241.8214,N,11709.3691,W,1,8,2.2,17,M,,M,,*59
06/13/2021,17:38:58.032,$GPGGA,173858,3241.8214,N,11709.3690,W,1,8,2.2,17,M,,M,,*57
06/13/2021,17:38:58.932,$GPGGA,173859,3241.8214,N,11709.3690,W,1,8,2.2,17,M,,M,,*56
06/13/2021,17:39:00.031,$GPGGA,173900,3241.8214,N,11709.3690,W,1,8,2.2,17,M,,M,,*5B
06/13/2021,17:39:00.932,$GPGGA,173901,3241.8214,N,11709.3690,W,1,8,2.2,17,M,,M,,*5A
06/13/2021,17:39:02.032,$GPGGA,173902,3241.8214,N,11709.3690,W,1,8,2.2,17,M,,M,,*59
06/13/2021,17:39:02.932,$GPGGA,173903,3241.8216,N,11709.3690,W,1,8,2.2,17,M,,M,,*5A
06/13/2021,17:39:04.032,$GPGGA,173904,3241.8215,N,11709.3690,W,1,8,2.2,17,M,,M,,*5E
06/13/2021,17:39:04.932,$GPGGA,173905,3241.8216,N,11709.3690,W,1,8,2.2,17,M,,M,,*5C
06/13/2021,17:39:06.032,$GPGGA,173906,3241.8215,N,11709.3692,W,1,8,2.2,17,M,,M,,*5E
06/13/2021,17:39:06.932,$GPGGA,173907,3241.8216,N,11709.3690,W,1,8,2.2,17,M,,M,,*5E
06/13/2021,17:39:08.032,$GPGGA,173908,3241.8215,N,11709.3690,W,1,8,2.2,17,M,,M,,*52
06/13/2021,17:39:08.933,$GPGGA,173909,3241.8217,N,11709.3690,W,1,8,2.2,17,M,,M,,*51
06/13/2021,17:39:10.032,$GPGGA,173910,3241.8217,N,11709.3690,W,1,8,2.2,17,M,,M,,*59
06/13/2021,17:39:10.932,$GPGGA,173911,3241.8217,N,11709.3690,W,1,8,2.2,17,M,,M,,*58
06/13/2021,17:39:12.032,$GPGGA,173912,3241.8217,N,11709.3690,W,1,8,2.2,17,M,,M,,*5B
06/13/2021,17:39:12.933,$GPGGA,173913,3241.8217,N,11709.3690,W,1,8,2.2,17,M,,M,,*5A
06/13/2021,17:39:14.033,$GPGGA,173914,3241.8217,N,11709.3690,W,1,8,2.2,17,M,,M,,*5D
06/13/2021,17:39:14.933,$GPGGA,173915,3241.8217,N,11709.3692,W,1,8,2.2,17,M,,M,,*5E
06/13/2021,17:39:16.033,$GPGGA,173916,3241.8217,N,11709.3690,W,1,8,2.2,17,M,,M,,*5F
06/13/2021,17:39:16.933,$GPGGA,173917,3241.8217,N,11709.3690,W,1,8,2.2,17,M,,M,,*5E
06/13/2021,17:39:18.033,$GPGGA,173918,3241.8217,N,11709.3690,W,1,8,2.2,17,M,,M,,*51
06/13/2021,17:39:18.933,$GPGGA,173919,3241.8217,N,11709.3690,W,1,8,2.2,17,M,,M,,*50
06/13/2021,17:39:20.033,$GPGGA,173920,3241.8217,N,11709.3692,W,1,8,2.2,17,M,,M,,*58
06/13/2021,17:39:20.933,$GPGGA,173921,3241.8217,N,11709.3691,W,1,8,2.2,17,M,,M,,*5A
06/13/2021,17:39:22.033,$GPGGA,173922,3241.8217,N,11709.3692,W,1,8,2.2,17,M,,M,,*5A
06/13/2021,17:39:22.933,$GPGGA,173923,3241.8217,N,11709.3691,W,1,8,2.2,17,M,,M,,*58
06/13/2021,17:39:24.034,$GPGGA,173924,3241.8217,N,11709.3692,W,1,8,2.2,17,M,,M,,*5C
06/13/2021,17:39:24.933,$GPGGA,173925,3241.8217,N,11709.3691,W,1,8,2.2,17,M,,M,,*5E
06/13/2021,17:39:26.033,$GPGGA,173926,3241.8217,N,11709.3692,W,1,8,2.2,17,M,,M,,*5E
06/13/2021,17:39:26.933,$GPGGA,173927,3241.8217,N,11709.3691,W,1,8,2.2,17,M,,M,,*5C
06/13/2021,17:39:28.033,$GPGGA,173928,3241.8217,N,11709.3692,W,1,8,2.2,17,M,,M,,*50
06/13/2021,17:39:28.933,$GPGGA,173929,3241.8217,N,11709.3692,W,1,8,2.2,17,M,,M,,*51
06/13/2021,17:39:30.033,$GPGGA,173930,3241.8217,N,11709.3691,W,1,8,2.2,17,M,,M,,*5A
06/13/2021,17:39:30.933,$GPGGA,173931,3241.8217,N,11709.3692,W,1,8,2.2,17,M,,M,,*58
06/13/2021,17:39:32.033,$GPGGA,173932,3241.8217,N,11709.3691,W,1,8,2.2,17,M,,M,,*58
06/13/2021,17:39:32.933,$GPGGA,173933,3241.8217,N,11709.3692,W,1,8,2.2,17,M,,M,,*5A
06/13/2021,17:39:34.033,$GPGGA,173934,3241.8217,N,11709.3691,W,1,8,2.2,17,M,,M,,*5E
06/13/2021,17:39:34.934,$GPGGA,173935,3241.8217,N,11709.3692,W,1,8,2.2,18,M,,M,,*53
06/13/2021,17:39:36.033,$GPGGA,173936,3241.8217,N,11709.3692,W,1,8,2.2,18,M,,M,,*50
06/13/2021,17:39:36.933,$GPGGA,173937,3241.8217,N,11709.3692,W,1,8,2.2,18,M,,M,,*51
06/13/2021,17:39:38.034,$GPGGA,173938,3241.8217,N,11709.3692,W,1,8,2.2,18,M,,M,,*5E
06/13/2021,17:39:38.934,$GPGGA,173939,3241.8217,N,11709.3692,W,1,8,2.2,18,M,,M,,*5F
06/13/2021,17:39:40.034,$GPGGA,173940,3241.8219,N,11709.3692,W,1,8,2.2,18,M,,M,,*5F
06/13/2021,17:39:40.934,$GPGGA,173941,3241.8218,N,11709.3692,W,1,8,2.2,18,M,,M,,*5F
06/13/2021,17:39:42.034,$GPGGA,173942,3241.8219,N,11709.3692,W,1,8,2.2,18,M,,M,,*5D
06/13/2021,17:39:42.934,$GPGGA,173943,3241.8218,N,11709.3692,W,1,8,2.2,18,M,,M,,*5D
06/13/2021,17:39:44.034,$GPGGA,173944,3241.8219,N,11709.3692,W,1,8,2.2,18,M,,M,,*5B
06/13/2021,17:39:44.934,$GPGGA,173945,3241.8218,N,11709.3692,W,1,8,2.2,18,M,,M,,*5B
06/13/2021,17:39:46.034,$GPGGA,173946,3241.8220,N,11709.3692,W,1,8,2.2,18,M,,M,,*53
06/13/2021,17:39:46.934,$GPGGA,173947,3241.8219,N,11709.3692,W,1,8,2.2,18,M,,M,,*58
06/13/2021,17:39:48.034,$GPGGA,173948,3241.8220,N,11709.3692,W,1,8,2.2,18,M,,M,,*5D
06/13/2021,17:39:48.934,$GPGGA,173949,3241.8219,N,11709.3692,W,1,8,2.2,18,M,,M,,*56
06/13/2021,17:39:50.034,$GPGGA,173950,3241.8220,N,11709.3692,W,1,8,2.2,18,M,,M,,*54
06/13/2021,17:39:50.934,$GPGGA,173951,3241.8219,N,11709.3692,W,1,8,2.2,18,M,,M,,*5F
06/13/2021,17:39:52.034,$GPGGA,173952,3241.8220,N,11709.3692,W,1,8,2.2,18,M,,M,,*56
06/13/2021,17:39:52.934,$GPGGA,173953,3241.8219,N,11709.3692,W,1,8,2.2,18,M,,M,,*5D
06/13/2021,17:39:54.034,$GPGGA,173954,3241.8220,N,11709.3692,W,1,8,2.2,18,M,,M,,*50
06/13/2021,17:39:54.934,$GPGGA,173955,3241.8219,N,11709.3692,W,1,8,2.2,18,M,,M,,*5B
06/13/2021,17:39:56.034,$GPGGA,173956,3241.8218,N,11709.3693,W,1,8,2.2,18,M,,M,,*58
06/13/2021,17:39:56.935,$GPGGA,173957,3241.8220,N,11709.3693,W,1,8,2.2,19,M,,M,,*53
06/13/2021,17:39:58.035,$GPGGA,173958,3241.8219,N,11709.3693,W,1,8,2.2,19,M,,M,,*56
06/13/2021,17:39:58.934,$GPGGA,173959,3241.8220,N,11709.3693,W,1,8,2.2,19,M,,M,,*5D
06/13/2021,17:40:00.035,$GPGGA,174000,3241.8219,N,11709.3693,W,1,8,2.2,19,M,,M,,*55
06/13/2021,17:40:00.935,$GPGGA,174001,3241.8220,N,11709.3692,W,1,8,2.2,19,M,,M,,*5F
06/13/2021,17:40:02.035,$GPGGA,174002,3241.8219,N,11709.3693,W,1,8,2.2,19,M,,M,,*57
06/13/2021,17:40:02.935,$GPGGA,174003,3241.8220,N,11709.3692,W,1,8,2.2,19,M,,M,,*5D
06/13/2021,17:40:04.035,$GPGGA,174004,3241.8219,N,11709.3693,W,1,8,2.2,19,M,,M,,*51
06/13/2021,17:40:04.935,$GPGGA,174005,3241.8221,N,11709.3692,W,1,8,2.2,19,M,,M,,*5A
06/13/2021,17:40:06.035,$GPGGA,174006,3241.8221,N,11709.3692,W,1,8,2.2,19,M,,M,,*59
06/13/2021,17:40:06.935,$GPGGA,174007,3241.8221,N,11709.3692,W,1,8,2.2,19,M,,M,,*58
06/13/2021,17:40:08.035,$GPGGA,174008,3241.8221,N,11709.3692,W,1,8,2.2,19,M,,M,,*57
06/13/2021,17:40:08.935,$GPGGA,174009,3241.8221,N,11709.3692,W,1,8,2.2,19,M,,M,,*56
06/13/2021,17:40:10.035,$GPGGA,174010,3241.8221,N,11709.3692,W,1,8,2.2,19,M,,M,,*5E
06/13/2021,17:40:10.936,$GPGGA,174011,3241.8221,N,11709.3692,W,1,8,2.2,19,M,,M,,*5F
06/13/2021,17:40:12.035,$GPGGA,174012,3241.8221,N,11709.3693,W,1,8,2.2,19,M,,M,,*5D
06/13/2021,17:40:12.936,$GPGGA,174013,3241.8221,N,11709.3693,W,1,8,2.2,19,M,,M,,*5C
06/13/2021,17:40:14.035,$GPGGA,174014,3241.8221,N,11709.3693,W,1,8,2.2,19,M,,M,,*5B
06/13/2021,17:40:14.935,$GPGGA,174015,3241.8221,N,11709.3693,W,1,8,2.2,19,M,,M,,*5A
06/13/2021,17:40:16.036,$GPGGA,174016,3241.8221,N,11709.3693,W,1,8,2.2,19,M,,M,,*59
06/13/2021,17:40:16.936,$GPGGA,174017,3241.8221,N,11709.3693,W,1,8,2.2,19,M,,M,,*58
06/13/2021,17:40:18.036,$GPGGA,174018,3241.8221,N,11709.3692,W,1,8,2.2,19,M,,M,,*56
06/13/2021,17:40:18.936,$GPGGA,174019,3241.8221,N,11709.3692,W,1,8,2.2,19,M,,M,,*57
06/13/2021,17:40:20.036,$GPGGA,174020,3241.8221,N,11709.3692,W,1,8,2.2,19,M,,M,,*5D
06/13/2021,17:40:20.936,$GPGGA,174021,3241.8221,N,11709.3692,W,1,8,2.2,20,M,,M,,*56
06/13/2021,17:40:22.036,$GPGGA,174022,3241.8221,N,11709.3692,W,1,8,2.2,20,M,,M,,*55
06/13/2021,17:40:22.935,$GPGGA,174023,3241.8221,N,11709.3692,W,1,8,2.2,20,M,,M,,*54
06/13/2021,17:40:24.036,$GPGGA,174024,3241.8221,N,11709.3692,W,1,8,2.2,20,M,,M,,*53
06/13/2021,17:40:24.936,$GPGGA,174025,3241.8221,N,11709.3692,W,1,8,2.2,20,M,,M,,*52
06/13/2021,17:40:26.036,$GPGGA,174026,3241.8221,N,11709.3692,W,1,8,2.2,20,M,,M,,*51
06/13/2021,17:40:26.936,$GPGGA,174027,3241.8221,N,11709.3691,W,1,8,2.2,20,M,,M,,*53
06/13/2021,17:40:28.036,$GPGGA,174028,3241.8221,N,11709.3692,W,1,8,2.2,20,M,,M,,*5F
06/13/2021,17:40:28.936,$GPGGA,174029,3241.8221,N,11709.3691,W,1,8,2.2,20,M,,M,,*5D
06/13/2021,17:40:30.036,$GPGGA,174030,3241.8221,N,11709.3690,W,1,8,2.2,20,M,,M,,*54
06/13/2021,17:40:30.936,$GPGGA,174031,3241.8221,N,11709.3690,W,1,8,2.2,20,M,,M,,*55
06/13/2021,17:40:32.037,$GPGGA,174032,3241.8221,N,11709.3690,W,1,8,2.2,20,M,,M,,*56
06/13/2021,17:40:32.937,$GPGGA,174033,3241.8221,N,11709.3690,W,1,8,2.2,20,M,,M,,*57
06/13/2021,17:40:34.036,$GPGGA,174034,3241.8221,N,11709.3690,W,1,8,2.2,20,M,,M,,*50
06/13/2021,17:40:34.937,$GPGGA,174035,3241.8221,N,11709.3690,W,1,8,2.2,20,M,,M,,*51
06/13/2021,17:40:36.036,$GPGGA,174036,3241.8221,N,11709.3690,W,1,8,2.2,20,M,,M,,*52
06/13/2021,17:40:36.936,$GPGGA,174037,3241.8221,N,11709.3690,W,1,8,2.2,20,M,,M,,*53
06/13/2021,17:40:38.037,$GPGGA,174038,3241.8221,N,11709.3690,W,1,8,2.2,20,M,,M,,*5C
06/13/2021,17:40:38.937,$GPGGA,174039,3241.8221,N,11709.3690,W,1,8,2.2,20,M,,M,,*5D
06/13/2021,17:40:40.036,$GPGGA,174040,3241.8221,N,11709.3690,W,1,8,2.2,20,M,,M,,*53
06/13/2021,17:40:40.937,$GPGGA,174041,3241.8221,N,11709.3690,W,1,8,2.2,20,M,,M,,*52
06/13/2021,17:40:42.037,$GPGGA,174042,3241.8223,N,11709.3690,W,1,8,2.2,20,M,,M,,*53
06/13/2021,17:40:42.937,$GPGGA,174043,3241.8222,N,11709.3690,W,1,8,2.2,20,M,,M,,*53
06/13/2021,17:40:44.037,$GPGGA,174044,3241.8223,N,11709.3690,W,1,8,2.2,20,M,,M,,*55
06/13/2021,17:40:44.937,$GPGGA,174045,3241.8222,N,11709.3690,W,1,8,2.2,21,M,,M,,*54
06/13/2021,17:40:46.037,$GPGGA,174046,3241.8224,N,11709.3690,W,1,8,2.2,21,M,,M,,*51
06/13/2021,17:40:46.937,$GPGGA,174047,3241.8223,N,11709.3690,W,1,8,2.2,21,M,,M,,*57
06/13/2021,17:40:48.037,$GPGGA,174048,3241.8224,N,11709.3690,W,1,8,2.2,21,M,,M,,*5F
06/13/2021,17:40:48.937,$GPGGA,174049,3241.8223,N,11709.3690,W,1,8,2.2,21,M,,M,,*59
06/13/2021,17:40:50.037,$GPGGA,174050,3241.8224,N,11709.3690,W,1,8,2.2,21,M,,M,,*56
06/13/2021,17:40:50.938,$GPGGA,174051,3241.8223,N,11709.3690,W,1,8,2.2,21,M,,M,,*50
06/13/2021,17:40:52.037,$GPGGA,174052,3241.8224,N,11709.3690,W,1,8,2.2,21,M,,M,,*54
06/13/2021,17:40:52.938,$GPGGA,174053,3241.8223,N,11709.3690,W,1,8,2.2,21,M,,M,,*52
06/13/2021,17:40:54.037,$GPGGA,174054,3241.8224,N,11709.3690,W,1,8,2.2,21,M,,M,,*52
06/13/2021,17:40:54.937,$GPGGA,174055,3241.8224,N,11709.3690,W,1,8,2.2,21,M,,M,,*53
06/13/2021,17:40:56.037,$GPGGA,174056,3241.8223,N,11709.3690,W,1,8,2.2,21,M,,M,,*57
06/13/2021,17:40:56.937,$GPGGA,174057,3241.8224,N,11709.3690,W,1,8,2.2,21,M,,M,,*51
06/13/2021,17:40:58.038,$GPGGA,174058,3241.8224,N,11709.3690,W,1,8,2.2,21,M,,M,,*5E
06/13/2021,17:40:58.937,$GPGGA,174059,3241.8224,N,11709.3690,W,1,8,2.2,21,M,,M,,*5F
06/13/2021,17:41:00.038,$GPGGA,174100,3241.8224,N,11709.3690,W,1,8,2.2,21,M,,M,,*52
06/13/2021,17:41:00.938,$GPGGA,174101,3241.8224,N,11709.3692,W,1,8,2.2,21,M,,M,,*51
06/13/2021,17:41:02.037,$GPGGA,174102,3241.8225,N,11709.3691,W,1,8,2.2,21,M,,M,,*50
06/13/2021,17:41:02.938,$GPGGA,174103,3241.8225,N,11709.3692,W,1,8,2.2,21,M,,M,,*52
06/13/2021,17:41:04.038,$GPGGA,174104,3241.8225,N,11709.3691,W,1,8,2.2,21,M,,M,,*56
06/13/2021,17:41:04.938,$GPGGA,174105,3241.8225,N,11709.3692,W,1,8,2.2,21,M,,M,,*54
06/13/2021,17:41:06.038,$GPGGA,174106,3241.8225,N,11709.3691,W,1,8,2.2,21,M,,M,,*54
06/13/2021,17:41:06.938,$GPGGA,174107,3241.8225,N,11709.3692,W,1,8,2.2,21,M,,M,,*56
06/13/2021,17:41:08.039,$GPGGA,174108,3241.8225,N,11709.3691,W,1,8,2.2,21,M,,M,,*5A
06/13/2021,17:41:08.938,$GPGGA,174109,3241.8225,N,11709.3692,W,1,8,2.2,21,M,,M,,*58
06/13/2021,17:41:10.039,$GPGGA,174110,3241.8225,N,11709.3691,W,1,8,2.2,21,M,,M,,*53
06/13/2021,17:41:10.938,$GPGGA,174111,3241.8225,N,11709.3692,W,1,8,2.2,20,M,,M,,*50
06/13/2021,17:41:12.039,$GPGGA,174112,3241.8225,N,11709.3691,W,1,8,2.2,20,M,,M,,*50
06/13/2021,17:41:12.939,$GPGGA,174113,3241.8225,N,11709.3692,W,1,8,2.2,20,M,,M,,*52
06/13/2021,17:41:14.039,$GPGGA,174114,3241.8225,N,11709.3691,W,1,8,2.2,20,M,,M,,*56
06/13/2021,17:41:14.939,$GPGGA,174115,3241.8225,N,11709.3692,W,1,8,2.2,20,M,,M,,*54
06/13/2021,17:41:16.039,$GPGGA,174116,3241.8225,N,11709.3691,W,1,8,2.2,20,M,,M,,*54
06/13/2021,17:41:16.939,$GPGGA,174117,3241.8225,N,11709.3692,W,1,8,2.2,20,M,,M,,*56
06/13/2021,17:41:18.039,$GPGGA,174118,3241.8225,N,11709.3692,W,1,8,2.2,20,M,,M,,*59
06/13/2021,17:41:18.939,$GPGGA,174119,3241.8224,N,11709.3692,W,1,8,2.2,20,M,,M,,*59
06/13/2021,17:41:20.039,$GPGGA,174120,3241.8224,N,11709.3692,W,1,8,2.2,20,M,,M,,*53
06/13/2021,17:41:20.939,$GPGGA,174121,3241.8224,N,11709.3692,W,1,8,2.2,20,M,,M,,*52
06/13/2021,17:41:22.039,$GPGGA,174122,3241.8224,N,11709.3692,W,1,8,2.2,20,M,,M,,*51
06/13/2021,17:41:22.939,$GPGGA,174123,3241.8224,N,11709.3691,W,1,8,2.2,20,M,,M,,*53
06/13/2021,17:41:24.039,$GPGGA,174124,3241.8223,N,11709.3692,W,1,8,2.2,20,M,,M,,*50
06/13/2021,17:41:24.939,$GPGGA,174125,3241.8224,N,11709.3692,W,1,8,2.2,19,M,,M,,*5C
06/13/2021,17:41:26.039,$GPGGA,174126,3241.8223,N,11709.3691,W,1,8,2.2,19,M,,M,,*5B
06/13/2021,17:41:26.939,$GPGGA,174127,3241.8224,N,11709.3692,W,1,8,2.2,19,M,,M,,*5E
06/13/2021,17:41:28.039,$GPGGA,174128,3241.8223,N,11709.3691,W,1,8,2.2,19,M,,M,,*55
06/13/2021,17:41:28.940,$GPGGA,174129,3241.8222,N,11709.3692,W,1,8,2.2,19,M,,M,,*56
06/13/2021,17:41:30.039,$GPGGA,174130,3241.8223,N,11709.3691,W,1,8,2.2,19,M,,M,,*5C
06/13/2021,17:41:30.939,$GPGGA,174131,3241.8222,N,11709.3692,W,1,8,2.2,19,M,,M,,*5F
06/13/2021,17:41:32.039,$GPGGA,174132,3241.8223,N,11709.3691,W,1,8,2.2,19,M,,M,,*5E
06/13/2021,17:41:32.939,$GPGGA,174133,3241.8221,N,11709.3692,W,1,8,2.2,19,M,,M,,*5E
06/13/2021,17:41:34.040,$GPGGA,174134,3241.8221,N,11709.3691,W,1,8,2.2,19,M,,M,,*5A
06/13/2021,17:41:34.939,$GPGGA,174135,3241.8221,N,11709.3692,W,1,8,2.2,19,M,,M,,*58
06/13/2021,17:41:36.039,$GPGGA,174136,3241.8221,N,11709.3691,W,1,8,2.2,19,M,,M,,*58
06/13/2021,17:41:36.939,$GPGGA,174137,3241.8221,N,11709.3692,W,1,8,2.2,19,M,,M,,*5A
06/13/2021,17:41:38.040,$GPGGA,174138,3241.8221,N,11709.3691,W,1,8,2.2,19,M,,M,,*56
06/13/2021,17:41:38.940,$GPGGA,174139,3241.8221,N,11709.3692,W,1,8,2.2,18,M,,M,,*55
06/13/2021,17:41:40.040,$GPGGA,174140,3241.8221,N,11709.3690,W,1,8,2.2,18,M,,M,,*59
06/13/2021,17:41:40.940,$GPGGA,174141,3241.8221,N,11709.3690,W,1,8,2.2,18,M,,M,,*58
06/13/2021,17:41:42.040,$GPGGA,174142,3241.8221,N,11709.3690,W,1,8,2.2,18,M,,M,,*5B
06/13/2021,17:41:42.940,$GPGGA,174143,3241.8221,N,11709.3690,W,1,8,2.2,18,M,,M,,*5A
06/13/2021,17:41:44.040,$GPGGA,174144,3241.8221,N,11709.3690,W,1,8,2.2,18,M,,M,,*5D
06/13/2021,17:41:44.940,$GPGGA,174145,3241.8221,N,11709.3690,W,1,8,2.2,18,M,,M,,*5C
06/13/2021,17:41:46.040,$GPGGA,174146,3241.8221,N,11709.3690,W,1,8,2.2,18,M,,M,,*5F
06/13/2021,17:41:46.940,$GPGGA,174147,3241.8219,N,11709.3689,W,1,8,2.2,18,M,,M,,*5D
06/13/2021,17:41:48.041,$GPGGA,174148,3241.8220,N,11709.3689,W,1,8,2.2,18,M,,M,,*58
06/13/2021,17:41:48.941,$GPGGA,174149,3241.8219,N,11709.3688,W,1,8,2.2,18,M,,M,,*52
06/13/2021,17:41:50.040,$GPGGA,174150,3241.8220,N,11709.3689,W,1,8,2.2,18,M,,M,,*51
06/13/2021,17:41:50.941,$GPGGA,174151,3241.8219,N,11709.3688,W,1,8,2.2,18,M,,M,,*5B
06/13/2021,17:41:52.041,$GPGGA,174152,3241.8220,N,11709.3689,W,1,8,2.2,18,M,,M,,*53
06/13/2021,17:41:52.941,$GPGGA,174153,3241.8219,N,11709.3688,W,1,8,2.2,18,M,,M,,*59
06/13/2021,17:41:54.041,$GPGGA,174154,3241.8218,N,11709.3689,W,1,8,2.2,18,M,,M,,*5E
06/13/2021,17:41:54.941,$GPGGA,174155,3241.8219,N,11709.3688,W,1,8,2.2,18,M,,M,,*5F
06/13/2021,17:41:56.041,$GPGGA,174156,3241.8220,N,11709.3689,W,1,8,2.2,18,M,,M,,*57
06/13/2021,17:41:56.941,$GPGGA,174157,3241.8218,N,11709.3688,W,1,8,2.2,18,M,,M,,*5C
06/13/2021,17:41:58.041,$GPGGA,174158,3241.8219,N,11709.3689,W,1,8,2.2,18,M,,M,,*53
06/13/2021,17:41:58.940,$GPGGA,174159,3241.8218,N,11709.3688,W,1,8,2.2,18,M,,M,,*52
06/13/2021,17:42:00.041,$GPGGA,174200,3241.8219,N,11709.3689,W,1,8,2.2,18,M,,M,,*5D
06/13/2021,17:42:00.941,$GPGGA,174201,3241.8218,N,11709.3688,W,1,8,2.2,18,M,,M,,*5C
06/13/2021,17:42:02.041,$GPGGA,174202,3241.8219,N,11709.3689,W,1,8,2.2,18,M,,M,,*5F
06/13/2021,17:42:02.941,$GPGGA,174203,3241.8218,N,11709.3688,W,1,8,2.2,18,M,,M,,*5E
06/13/2021,17:42:04.041,$GPGGA,174204,3241.8219,N,11709.3687,W,1,8,2.2,18,M,,M,,*57
06/13/2021,17:42:04.941,$GPGGA,174205,3241.8218,N,11709.3688,W,1,8,2.2,18,M,,M,,*58
06/13/2021,17:42:06.041,$GPGGA,174206,3241.8219,N,11709.3687,W,1,8,2.2,18,M,,M,,*55
06/13/2021,17:42:06.941,$GPGGA,174207,3241.8218,N,11709.3688,W,1,8,2.2,17,M,,M,,*55
06/13/2021,17:42:08.041,$GPGGA,174208,3241.8219,N,11709.3687,W,1,8,2.2,17,M,,M,,*54
06/13/2021,17:42:08.941,$GPGGA,174209,3241.8218,N,11709.3688,W,1,8,2.2,17,M,,M,,*5B
06/13/2021,17:42:10.041,$GPGGA,174210,3241.8219,N,11709.3687,W,1,8,2.2,17,M,,M,,*5D
06/13/2021,17:42:10.941,$GPGGA,174211,3241.8218,N,11709.3688,W,1,8,2.2,17,M,,M,,*52
06/13/2021,17:42:12.042,$GPGGA,174212,3241.8217,N,11709.3687,W,1,8,2.2,17,M,,M,,*51
06/13/2021,17:42:12.942,$GPGGA,174213,3241.8217,N,11709.3688,W,1,8,2.2,17,M,,M,,*5F
06/13/2021,17:42:14.042,$GPGGA,174214,3241.8217,N,11709.3687,W,1,8,2.2,17,M,,M,,*57
06/13/2021,17:42:14.942,$GPGGA,174215,3241.8217,N,11709.3688,W,1,8,2.2,17,M,,M,,*59
06/13/2021,17:42:16.041,$GPGGA,174216,3241.8217,N,11709.3687,W,1,8,2.2,17,M,,M,,*55
