06/13/2021,16:49:13.069,$GPGGA,164913,3241.8203,N,11709.3706,W,1,11,1.6,21,M,,M,,*6D
06/13/2021,16:49:14.170,$GPGGA,164914,3241.8203,N,11709.3705,W,1,11,1.6,21,M,,M,,*69
06/13/2021,16:49:15.070,$GPGGA,164915,3241.8203,N,11709.3704,W,1,11,1.6,21,M,,M,,*69
06/13/2021,16:49:16.169,$GPGGA,164916,3241.8203,N,11709.3704,W,1,11,1.6,21,M,,M,,*6A
06/13/2021,16:49:17.069,$GPGGA,164917,3241.8203,N,11709.3704,W,1,11,1.6,21,M,,M,,*6B
06/13/2021,16:49:18.170,$GPGGA,164918,3241.8205,N,11709.3703,W,1,11,1.6,21,M,,M,,*65
06/13/2021,16:49:19.070,$GPGGA,164919,3241.8204,N,11709.3703,W,1,11,1.6,20,M,,M,,*64
06/13/2021,16:49:20.170,$GPGGA,164920,3241.8205,N,11709.3703,W,1,11,1.6,20,M,,M,,*6F
06/13/2021,16:49:21.070,$GPGGA,164921,3241.8204,N,11709.3703,W,1,11,1.6,20,M,,M,,*6F
06/13/2021,16:49:22.170,$GPGGA,164922,3241.8206,N,11709.3702,W,1,11,1.6,20,M,,M,,*6F
06/13/2021,16:49:23.070,$GPGGA,164923,3241.8205,N,11709.3703,W,1,11,1.6,20,M,,M,,*6C
06/13/2021,16:49:24.170,$GPGGA,164924,3241.8206,N,11709.3702,W,1,11,1.6,20,M,,M,,*69
06/13/2021,16:49:25.070,$GPGGA,164925,3241.8205,N,11709.3703,W,1,11,1.6,20,M,,M,,*6A
06/13/2021,16:49:26.170,$GPGGA,164926,3241.8206,N,11709.3701,W,1,11,1.6,20,M,,M,,*68
06/13/2021,16:49:27.070,$GPGGA,164927,3241.8206,N,11709.3701,W,1,11,1.6,20,M,,M,,*69
06/13/2021,16:49:28.171,$GPGGA,164928,3241.8206,N,11709.3701,W,1,11,1.6,20,M,,M,,*66
06/13/2021,16:49:29.071,$GPGGA,164929,3241.8206,N,11709.3700,W,1,11,1.6,20,M,,M,,*66
06/13/2021,16:49:30.171,$GPGGA,164930,3241.8208,N,11709.3700,W,1,11,1.6,20,M,,M,,*60
06/13/2021,16:49:31.070,$GPGGA,164931,3241.8207,N,11709.3700,W,1,11,1.6,19,M,,M,,*64
06/13/2021,16:49:32.171,$GPGGA,164932,3241.8209,N,11709.3700,W,1,11,1.6,19,M,,M,,*69
06/13/2021,16:49:33.070,$GPGGA,164933,3241.8208,N,11709.3700,W,1,11,1.6,19,M,,M,,*69
06/13/2021,16:49:34.171,$GPGGA,164934,3241.8209,N,11709.3700,W,1,11,1.6,19,M,,M,,*6F
06/13/2021,16:49:35.070,$GPGGA,164935,3241.8210,N,11709.3699,W,1,11,1.6,19,M,,M,,*67
06/13/2021,16:49:36.171,$GPGGA,164936,3241.8210,N,11709.3699,W,1,11,1.6,19,M,,M,,*64
06/13/2021,16:49:37.071,$GPGGA,164937,3241.8210,N,11709.3699,W,1,11,1.6,19,M,,M,,*65
06/13/2021,16:49:38.171,$GPGGA,164938,3241.8210,N,11709.3699,W,1,11,1.6,19,M,,M,,*6A
06/13/2021,16:49:39.071,$GPGGA,164939,3241.8210,N,11709.3698,W,1,11,1.6,19,M,,M,,*6A
06/13/2021,16:49:40.171,$GPGGA,164940,3241.8210,N,11709.3699,W,1,11,1.6,19,M,,M,,*65
06/13/2021,16:49:41.071,$GPGGA,164941,3241.8212,N,11709.3698,W,1,11,1.6,19,M,,M,,*67
06/13/2021,16:49:42.171,$GPGGA,164942,3241.8210,N,11709.3699,W,1,11,1.6,19,M,,M,,*67
06/13/2021,16:49:43.071,$GPGGA,164943,3241.8210,N,11709.3698,W,1,11,1.6,19,M,,M,,*67
06/13/2021,16:49:44.172,$GPGGA,164944,3241.8210,N,11709.3699,W,1,11,1.6,19,M,,M,,*61
06/13/2021,16:49:45.072,$GPGGA,164945,3241.8210,N,11709.3698,W,1,11,1.6,18,M,,M,,*60
06/13/2021,16:49:46.171,$GPGGA,164946,3241.8210,N,11709.3697,W,1,11,1.6,18,M,,M,,*6C
06/13/2021,16:49:47.072,$GPGGA,164947,3241.8210,N,11709.3697,W,1,11,1.6,18,M,,M,,*6D
06/13/2021,16:49:48.172,$GPGGA,164948,3241.8210,N,11709.3697,W,1,11,1.6,18,M,,M,,*62
06/13/2021,16:49:49.071,$GPGGA,164949,3241.8210,N,11709.3697,W,1,11,1.6,18,M,,M,,*63
06/13/2021,16:49:50.172,$GPGGA,164950,3241.8210,N,11709.3697,W,1,11,1.6,18,M,,M,,*6B
06/13/2021,16:49:51.072,$GPGGA,164951,3241.8210,N,11709.3697,W,1,11,1.6,18,M,,M,,*6A
06/13/2021,16:49:52.172,$GPGGA,164952,3241.8210,N,11709.3697,W,1,11,1.6,18,M,,M,,*69
06/13/2021,16:49:53.072,$GPGGA,164953,3241.8208,N,11709.3697,W,1,11,1.6,18,M,,M,,*61
06/13/2021,16:49:54.172,$GPGGA,164954,3241.8209,N,11709.3697,W,1,11,1.6,18,M,,M,,*67
06/13/2021,16:49:55.072,$GPGGA,164955,3241.8207,N,11709.3697,W,1,11,1.6,18,M,,M,,*68
06/13/2021,16:49:56.172,$GPGGA,164956,3241.8208,N,11709.3699,W,1,11,1.6,18,M,,M,,*6A
06/13/2021,16:49:57.072,$GPGGA,164957,3241.8206,N,11709.3698,W,1,11,1.6,18,M,,M,,*64
06/13/2021,16:49:58.172,$GPGGA,164958,3241.8205,N,11709.3699,W,1,11,1.6,18,M,,M,,*69
06/13/2021,16:49:59.072,$GPGGA,164959,3241.8206,N,11709.3698,W,1,11,1.6,18,M,,M,,*6A
06/13/2021,16:50:00.173,$GPGGA,165000,3241.8204,N,11709.3699,W,1,10,1.6,18,M,,M,,*6C
06/13/2021,16:50:01.072,$GPGGA,165001,3241.8203,N,11709.3699,W,1,10,1.6,18,M,,M,,*6A
06/13/2021,16:50:02.172,$GPGGA,165002,3241.8203,N,11709.3699,W,1,10,1.6,18,M,,M,,*69
06/13/2021,16:50:03.073,$GPGGA,165003,3241.8203,N,11709.3699,W,1,10,1.6,18,M,,M,,*68
06/13/2021,16:50:04.172,$GPGGA,165004,3241.8203,N,11709.3699,W,1,10,1.6,18,M,,M,,*6F
06/13/2021,16:50:05.073,$GPGGA,165005,3241.8201,N,11709.3700,W,1,10,1.6,19,M,,M,,*6C
06/13/2021,16:50:06.172,$GPGGA,165006,3241.8202,N,11709.3700,W,1,10,1.6,19,M,,M,,*6C
06/13/2021,16:50:07.072,$GPGGA,165007,3241.8200,N,11709.3700,W,1,10,1.6,19,M,,M,,*6F
06/13/2021,16:50:08.172,$GPGGA,165008,3241.8201,N,11709.3700,W,1,10,1.6,19,M,,M,,*61
06/13/2021,16:50:09.073,$GPGGA,165009,3241.8199,N,11709.3700,W,1,10,1.6,19,M,,M,,*62
06/13/2021,16:50:10.174,$GPGGA,165010,3241.8202,N,11709.3699,W,1,11,1.6,19,M,,M,,*6B
06/13/2021,16:50:11.073,$GPGGA,165011,3241.8203,N,11709.3698,W,1,11,1.6,19,M,,M,,*6A
06/13/2021,16:50:12.172,$GPGGA,165012,3241.8203,N,11709.3697,W,1,11,1.6,19,M,,M,,*66
06/13/2021,16:50:13.073,$GPGGA,165013,3241.8205,N,11709.3696,W,1,11,1.6,19,M,,M,,*60
06/13/2021,16:50:14.173,$GPGGA,165014,3241.8206,N,11709.3695,W,1,10,1.6,19,M,,M,,*66
06/13/2021,16:50:15.073,$GPGGA,165015,3241.8208,N,11709.3694,W,1,10,1.7,19,M,,M,,*69
06/13/2021,16:50:16.173,$GPGGA,165016,3241.8210,N,11709.3692,W,1,11,1.7,19,M,,M,,*64
06/13/2021,16:50:17.073,$GPGGA,165017,3241.8210,N,11709.3691,W,1,11,1.6,19,M,,M,,*67
06/13/2021,16:50:18.173,$GPGGA,165018,3241.8212,N,11709.3690,W,1,10,1.6,19,M,,M,,*6A
06/13/2021,16:50:19.073,$GPGGA,165019,3241.8211,N,11709.3689,W,1,10,1.7,19,M,,M,,*61
06/13/2021,16:50:20.173,$GPGGA,165020,3241.8213,N,11709.3688,W,1,10,1.7,19,M,,M,,*68
06/13/2021,16:50:21.073,$GPGGA,165021,3241.8214,N,11709.3689,W,1,10,1.7,19,M,,M,,*6F
06/13/2021,16:50:22.174,$GPGGA,165022,3241.8214,N,11709.3687,W,1,10,1.7,19,M,,M,,*62
06/13/2021,16:50:23.073,$GPGGA,165023,3241.8214,N,11709.3688,W,1,10,1.7,19,M,,M,,*6C
06/13/2021,16:50:24.174,$GPGGA,165024,3241.8214,N,11709.3687,W,1,10,1.7,19,M,,M,,*64
06/13/2021,16:50:25.074,$GPGGA,165025,3241.8214,N,11709.3686,W,1,10,1.7,19,M,,M,,*64
06/13/2021,16:50:26.173,$GPGGA,165026,3241.8212,N,11709.3686,W,1,10,1.7,19,M,,M,,*61
06/13/2021,16:50:27.073,$GPGGA,165027,3241.8211,N,11709.3686,W,1,10,1.6,19,M,,M,,*62
06/13/2021,16:50:28.173,$GPGGA,165028,3241.8212,N,11709.3686,W,1,11,1.6,19,M,,M,,*6F
06/13/2021,16:50:29.064,$GPGGA,165029,3241.8210,N,11709.3688,W,1,11,1.6,19,M,,M,,*62
06/13/2021,16:50:30.173,$GPGGA,165030,3241.8208,N,11709.3687,W,1,11,1.6,19,M,,M,,*6C
06/13/2021,16:50:31.073,$GPGGA,165031,3241.8207,N,11709.3688,W,1,11,1.6,18,M,,M,,*6C
06/13/2021,16:50:32.174,$GPGGA,165032,3241.8206,N,11709.3689,W,1,11,1.6,18,M,,M,,*6F
06/13/2021,16:50:33.074,$GPGGA,165033,3241.8205,N,11709.3689,W,1,11,1.6,18,M,,M,,*6D
06/13/2021,16:50:34.173,$GPGGA,165034,3241.8204,N,11709.3689,W,1,11,1.6,18,M,,M,,*6B
06/13/2021,16:50:35.064,$GPGGA,165035,3241.8203,N,11709.3689,W,1,11,1.6,18,M,,M,,*6D
06/13/2021,16:50:36.174,$GPGGA,165036,3241.8203,N,11709.3690,W,1,11,1.6,18,M,,M,,*66
06/13/2021,16:50:37.074,$GPGGA,165037,3241.8201,N,11709.3692,W,1,11,1.6,18,M,,M,,*67
06/13/2021,16:50:38.174,$GPGGA,165038,3241.8202,N,11709.3691,W,1,11,1.6,18,M,,M,,*68
06/13/2021,16:50:39.064,$GPGGA,165039,3241.8200,N,11709.3692,W,1,11,1.6,18,M,,M,,*68
06/13/2021,16:50:40.174,$GPGGA,165040,3241.8201,N,11709.3691,W,1,11,1.6,18,M,,M,,*64
06/13/2021,16:50:41.064,$GPGGA,165041,3241.8199,N,11709.3692,W,1,11,1.6,18,M,,M,,*64
06/13/2021,16:50:42.174,$GPGGA,165042,3241.8199,N,11709.3692,W,1,11,1.6,18,M,,M,,*67
06/13/2021,16:50:43.074,$GPGGA,165043,3241.8199,N,11709.3692,W,1,11,1.6,18,M,,M,,*66
06/13/2021,16:50:44.174,$GPGGA,165044,3241.8197,N,11709.3692,W,1,11,1.6,18,M,,M,,*6F
06/13/2021,16:50:45.065,$GPGGA,165045,3241.8196,N,11709.3692,W,1,11,1.6,18,M,,M,,*6F
06/13/2021,16:50:46.174,$GPGGA,165046,3241.8196,N,11709.3692,W,1,11,1.6,18,M,,M,,*6C
06/13/2021,16:50:47.074,$GPGGA,165047,3241.8195,N,11709.3693,W,1,11,1.6,18,M,,M,,*6F
06/13/2021,16:50:48.174,$GPGGA,165048,3241.8195,N,11709.3693,W,1,11,1.6,18,M,,M,,*60
06/13/2021,16:50:49.074,$GPGGA,165049,3241.8194,N,11709.3693,W,1,11,1.6,18,M,,M,,*60
06/13/2021,16:50:50.175,$GPGGA,165050,3241.8193,N,11709.3694,W,1,11,1.6,18,M,,M,,*68
06/13/2021,16:50:51.065,$GPGGA,165051,3241.8194,N,11709.3694,W,1,11,1.6,18,M,,M,,*6E
06/13/2021,16:50:52.175,$GPGGA,165052,3241.8192,N,11709.3694,W,1,11,1.6,18,M,,M,,*6B
06/13/2021,16:50:53.065,$GPGGA,165053,3241.8192,N,11709.3696,W,1,11,1.6,18,M,,M,,*68
06/13/2021,16:50:54.175,$GPGGA,165054,3241.8192,N,11709.3695,W,1,11,1.6,18,M,,M,,*6C
06/13/2021,16:50:55.065,$GPGGA,165055,3241.8192,N,11709.3696,W,1,11,1.6,18,M,,M,,*6E
06/13/2021,16:50:56.175,$GPGGA,165056,3241.8190,N,11709.3695,W,1,11,1.6,18,M,,M,,*6C
06/13/2021,16:50:57.066,$GPGGA,165057,3241.8191,N,11709.3696,W,1,11,1.6,18,M,,M,,*6F
06/13/2021,16:50:58.165,$GPGGA,165058,3241.8190,N,11709.3696,W,1,11,1.6,18,M,,M,,*61
06/13/2021,16:50:59.066,$GPGGA,165059,3241.8191,N,11709.3696,W,1,11,1.6,18,M,,M,,*61
06/13/2021,16:51:00.166,$GPGGA,165100,3241.8192,N,11709.3695,W,1,9,1.6,18,M,,M,,*55
06/13/2021,16:51:01.065,$GPGGA,165101,3241.8194,N,11709.3694,W,1,9,1.7,18,M,,M,,*52
06/13/2021,16:51:02.165,$GPGGA,165102,3241.8195,N,11709.3694,W,1,9,1.7,18,M,,M,,*50
06/13/2021,16:51:03.066,$GPGGA,165103,3241.8195,N,11709.3693,W,1,9,1.7,18,M,,M,,*56
06/13/2021,16:51:04.165,$GPGGA,165104,3241.8196,N,11709.3693,W,1,9,1.7,18,M,,M,,*52
06/13/2021,16:51:05.065,$GPGGA,165105,3241.8196,N,11709.3693,W,1,9,1.7,18,M,,M,,*53
06/13/2021,16:51:06.165,$GPGGA,165106,3241.8198,N,11709.3692,W,1,9,1.7,18,M,,M,,*5F
06/13/2021,16:51:07.065,$GPGGA,165107,3241.8199,N,11709.3692,W,1,9,1.7,18,M,,M,,*5F
06/13/2021,16:51:08.165,$GPGGA,165108,3241.8199,N,11709.3692,W,1,9,1.7,18,M,,M,,*50
06/13/2021,16:51:09.066,$GPGGA,165109,3241.8199,N,11709.3692,W,1,9,1.7,18,M,,M,,*51
06/13/2021,16:51:10.166,$GPGGA,165110,3241.8199,N,11709.3692,W,1,9,1.7,18,M,,M,,*59
06/13/2021,16:51:11.065,$GPGGA,165111,3241.8201,N,11709.3692,W,1,9,1.7,18,M,,M,,*5A
06/13/2021,16:51:12.166,$GPGGA,165112,3241.8200,N,11709.3692,W,1,9,1.7,18,M,,M,,*58
06/13/2021,16:51:13.066,$GPGGA,165113,3241.8202,N,11709.3692,W,1,9,1.7,18,M,,M,,*5B
06/13/2021,16:51:14.166,$GPGGA,165114,3241.8201,N,11709.3692,W,1,9,1.7,18,M,,M,,*5F
06/13/2021,16:51:15.066,$GPGGA,165115,3241.8202,N,11709.3692,W,1,9,1.7,18,M,,M,,*5D
06/13/2021,16:51:16.166,$GPGGA,165116,3241.8201,N,11709.3692,W,1,9,1.7,18,M,,M,,*5D
06/13/2021,16:51:17.066,$GPGGA,165117,3241.8203,N,11709.3692,W,1,9,1.7,18,M,,M,,*5E
06/13/2021,16:51:18.166,$GPGGA,165118,3241.8203,N,11709.3692,W,1,9,1.7,18,M,,M,,*51
06/13/2021,16:51:19.066,$GPGGA,165119,3241.8203,N,11709.3692,W,1,9,1.7,18,M,,M,,*50
06/13/2021,16:51:20.167,$GPGGA,165120,3241.8203,N,11709.3692,W,1,9,1.7,18,M,,M,,*5A
06/13/2021,16:51:21.066,$GPGGA,165121,3241.8203,N,11709.3692,W,1,9,1.7,18,M,,M,,*5B
06/13/2021,16:51:22.166,$GPGGA,165122,3241.8203,N,11709.3691,W,1,9,1.7,18,M,,M,,*5B
06/13/2021,16:51:23.066,$GPGGA,165123,3241.8203,N,11709.3692,W,1,9,1.7,18,M,,M,,*59
06/13/2021,16:51:24.176,$GPGGA,165124,3241.8203,N,11709.3692,W,1,10,1.7,18,M,,M,,*66
06/13/2021,16:51:25.067,$GPGGA,165125,3241.8203,N,11709.3692,W,1,10,1.7,18,M,,M,,*67
06/13/2021,16:51:26.167,$GPGGA,165126,3241.8205,N,11709.3691,W,1,10,1.7,18,M,,M,,*61
06/13/2021,16:51:27.067,$GPGGA,165127,3241.8204,N,11709.3692,W,1,10,1.7,18,M,,M,,*62
06/13/2021,16:51:28.176,$GPGGA,165128,3241.8206,N,11709.3691,W,1,10,1.7,18,M,,M,,*6C
06/13/2021,16:51:29.067,$GPGGA,165129,3241.8205,N,11709.3692,W,1,10,1.7,18,M,,M,,*6D
06/13/2021,16:51:30.177,$GPGGA,165130,3241.8206,N,11709.3691,W,1,10,1.7,18,M,,M,,*65
06/13/2021,16:51:31.068,$GPGGA,165131,3241.8206,N,11709.3692,W,1,10,1.7,18,M,,M,,*67
06/13/2021,16:51:32.176,$GPGGA,165132,3241.8206,N,11709.3691,W,1,10,1.7,18,M,,M,,*67
06/13/2021,16:51:33.067,$GPGGA,165133,3241.8206,N,11709.3692,W,1,10,1.7,18,M,,M,,*65
06/13/2021,16:51:34.167,$GPGGA,165134,3241.8206,N,11709.3691,W,1,10,1.7,18,M,,M,,*61
06/13/2021,16:51:35.067,$GPGGA,165135,3241.8206,N,11709.3692,W,1,10,1.7,18,M,,M,,*63
06/13/2021,16:51:36.167,$GPGGA,165136,3241.8206,N,11709.3691,W,1,10,1.7,18,M,,M,,*63
06/13/2021,16:51:37.067,$GPGGA,165137,3241.8208,N,11709.3692,W,1,10,1.7,18,M,,M,,*6F
06/13/2021,16:51:38.167,$GPGGA,165138,3241.8207,N,11709.3691,W,1,10,1.7,18,M,,M,,*6C
06/13/2021,16:51:39.068,$GPGGA,165139,3241.8208,N,11709.3692,W,1,10,1.7,18,M,,M,,*61
06/13/2021,16:51:40.167,$GPGGA,165140,3241.8207,N,11709.3691,W,1,10,1.7,18,M,,M,,*63
06/13/2021,16:51:41.067,$GPGGA,165141,3241.8208,N,11709.3692,W,1,10,1.7,18,M,,M,,*6E
06/13/2021,16:51:42.167,$GPGGA,165142,3241.8207,N,11709.3691,W,1,10,1.7,18,M,,M,,*61
06/13/2021,16:51:43.067,$GPGGA,165143,3241.8209,N,11709.3692,W,1,10,1.7,18,M,,M,,*6D
06/13/2021,16:51:44.168,$GPGGA,165144,3241.8208,N,11709.3691,W,1,10,1.7,18,M,,M,,*68
06/13/2021,16:51:45.068,$GPGGA,165145,3241.8209,N,11709.3692,W,1,10,1.7,18,M,,M,,*6B
06/13/2021,16:51:46.168,$GPGGA,165146,3241.8208,N,11709.3692,W,1,10,1.7,18,M,,M,,*69
06/13/2021,16:51:47.067,$GPGGA,165147,3241.8209,N,11709.3691,W,1,10,1.7,18,M,,M,,*6A
06/13/2021,16:51:48.167,$GPGGA,165148,3241.8210,N,11709.3692,W,1,10,1.7,18,M,,M,,*6E
06/13/2021,16:51:49.068,$GPGGA,165149,3241.8210,N,11709.3692,W,1,10,1.7,19,M,,M,,*6E
06/13/2021,16:51:50.167,$GPGGA,165150,3241.8210,N,11709.3692,W,1,10,1.7,19,M,,M,,*66
06/13/2021,16:51:51.068,$GPGGA,165151,3241.8210,N,11709.3692,W,1,10,1.7,19,M,,M,,*67
06/13/2021,16:51:52.167,$GPGGA,165152,3241.8210,N,11709.3692,W,1,10,1.7,19,M,,M,,*64
06/13/2021,16:51:53.068,$GPGGA,165153,3241.8210,N,11709.3692,W,1,10,1.7,19,M,,M,,*65
06/13/2021,16:51:54.168,$GPGGA,165154,3241.8210,N,11709.3692,W,1,10,1.7,19,M,,M,,*62
06/13/2021,16:51:55.068,$GPGGA,165155,3241.8210,N,11709.3692,W,1,10,1.7,19,M,,M,,*63
06/13/2021,16:51:56.168,$GPGGA,165156,3241.8210,N,11709.3692,W,1,10,1.7,19,M,,M,,*60
06/13/2021,16:51:57.068,$GPGGA,165157,3241.8212,N,11709.3692,W,1,10,1.7,19,M,,M,,*63
06/13/2021,16:51:58.168,$GPGGA,165158,3241.8211,N,11709.3692,W,1,10,1.7,19,M,,M,,*6F
06/13/2021,16:51:59.068,$GPGGA,165159,3241.8212,N,11709.3692,W,1,10,1.7,19,M,,M,,*6D
06/13/2021,16:52:00.168,$GPGGA,165200,3241.8211,N,11709.3692,W,1,10,1.7,19,M,,M,,*61
06/13/2021,16:52:01.068,$GPGGA,165201,3241.8213,N,11709.3692,W,1,10,1.7,19,M,,M,,*62
06/13/2021,16:52:02.168,$GPGGA,165202,3241.8212,N,11709.3692,W,1,10,1.7,19,M,,M,,*60
06/13/2021,16:52:03.068,$GPGGA,165203,3241.8213,N,11709.3692,W,1,10,1.7,19,M,,M,,*60
06/13/2021,16:52:04.168,$GPGGA,165204,3241.8212,N,11709.3693,W,1,10,1.7,19,M,,M,,*67
06/13/2021,16:52:05.068,$GPGGA,165205,3241.8213,N,11709.3693,W,1,10,1.7,19,M,,M,,*67
06/13/2021,16:52:06.168,$GPGGA,165206,3241.8212,N,11709.3693,W,1,10,1.7,19,M,,M,,*65
06/13/2021,16:52:07.069,$GPGGA,165207,3241.8214,N,11709.3693,W,1,10,1.7,19,M,,M,,*62
06/13/2021,16:52:08.169,$GPGGA,165208,3241.8214,N,11709.3693,W,1,10,1.7,19,M,,M,,*6D
06/13/2021,16:52:09.069,$GPGGA,165209,3241.8214,N,11709.3693,W,1,10,1.7,19,M,,M,,*6C
06/13/2021,16:52:10.169,$GPGGA,165210,3241.8214,N,11709.3693,W,1,10,1.7,19,M,,M,,*64
06/13/2021,16:52:11.069,$GPGGA,165211,3241.8214,N,11709.3694,W,1,10,1.7,19,M,,M,,*62
06/13/2021,16:52:12.169,$GPGGA,165212,3241.8214,N,11709.3694,W,1,10,1.7,19,M,,M,,*61
06/13/2021,16:52:13.069,$GPGGA,165213,3241.8214,N,11709.3694,W,1,10,1.7,19,M,,M,,*60
06/13/2021,16:52:14.169,$GPGGA,165214,3241.8214,N,11709.3696,W,1,10,1.7,19,M,,M,,*65
06/13/2021,16:52:15.069,$GPGGA,165215,3241.8214,N,11709.3695,W,1,10,1.7,19,M,,M,,*67
06/13/2021,16:52:16.169,$GPGGA,165216,3241.8214,N,11709.3696,W,1,10,1.7,19,M,,M,,*67
06/13/2021,16:52:17.069,$GPGGA,165217,3241.8214,N,11709.3695,W,1,10,1.7,19,M,,M,,*65
06/13/2021,16:52:18.169,$GPGGA,165218,3241.8216,N,11709.3696,W,1,11,1.7,19,M,,M,,*6A
06/13/2021,16:52:19.070,$GPGGA,165219,3241.8217,N,11709.3695,W,1,11,1.6,19,M,,M,,*68
06/13/2021,16:52:20.169,$GPGGA,165220,3241.8217,N,11709.3694,W,1,11,1.6,19,M,,M,,*63
06/13/2021,16:52:21.069,$GPGGA,165221,3241.8217,N,11709.3694,W,1,11,1.6,19,M,,M,,*62
06/13/2021,16:52:22.169,$GPGGA,165222,3241.8217,N,11709.3694,W,1,11,1.6,19,M,,M,,*61
06/13/2021,16:52:23.069,$GPGGA,165223,3241.8217,N,11709.3694,W,1,11,1.6,19,M,,M,,*60
06/13/2021,16:52:24.169,$GPGGA,165224,3241.8217,N,11709.3694,W,1,11,1.6,19,M,,M,,*67
06/13/2021,16:52:25.069,$GPGGA,165225,3241.8217,N,11709.3694,W,1,11,1.6,19,M,,M,,*66
06/13/2021,16:52:26.169,$GPGGA,165226,3241.8219,N,11709.3694,W,1,11,1.6,19,M,,M,,*6B
06/13/2021,16:52:27.070,$GPGGA,165227,3241.8217,N,11709.3694,W,1,11,1.6,19,M,,M,,*64
06/13/2021,16:52:28.169,$GPGGA,165228,3241.8219,N,11709.3694,W,1,11,1.6,19,M,,M,,*65
06/13/2021,16:52:29.069,$GPGGA,165229,3241.8218,N,11709.3694,W,1,11,1.6,19,M,,M,,*65
06/13/2021,16:52:30.169,$GPGGA,165230,3241.8219,N,11709.3694,W,1,11,1.6,19,M,,M,,*6C
06/13/2021,16:52:31.070,$GPGGA,165231,3241.8218,N,11709.3694,W,1,11,1.6,19,M,,M,,*6C
06/13/2021,16:52:32.170,$GPGGA,165232,3241.8219,N,11709.3696,W,1,11,1.6,19,M,,M,,*6C
06/13/2021,16:52:33.070,$GPGGA,165233,3241.8218,N,11709.3695,W,1,11,1.6,19,M,,M,,*6F
06/13/2021,16:52:34.170,$GPGGA,165234,3241.8219,N,11709.3696,W,1,11,1.6,19,M,,M,,*6A
06/13/2021,16:52:35.071,$GPGGA,165235,3241.8218,N,11709.3695,W,1,11,1.6,20,M,,M,,*63
06/13/2021,16:52:36.170,$GPGGA,165236,3241.8217,N,11709.3696,W,1,11,1.6,20,M,,M,,*6C
06/13/2021,16:52:37.070,$GPGGA,165237,3241.8217,N,11709.3695,W,1,11,1.6,20,M,,M,,*6E
06/13/2021,16:52:38.170,$GPGGA,165238,3241.8219,N,11709.3696,W,1,11,1.6,20,M,,M,,*6C
06/13/2021,16:52:39.071,$GPGGA,165239,3241.8218,N,11709.3696,W,1,11,1.6,20,M,,M,,*6C
06/13/2021,16:52:40.170,$GPGGA,165240,3241.8219,N,11709.3696,W,1,11,1.6,20,M,,M,,*63
06/13/2021,16:52:41.070,$GPGGA,165241,3241.8218,N,11709.3696,W,1,11,1.6,20,M,,M,,*63
06/13/2021,16:52:42.172,$GPGGA,165242,3241.8219,N,11709.3697,W,1,11,1.6,20,M,,M,,*60
06/13/2021,16:52:43.071,$GPGGA,165243,3241.8218,N,11709.3697,W,1,11,1.6,20,M,,M,,*60
06/13/2021,16:52:44.170,$GPGGA,165244,3241.8219,N,11709.3696,W,1,11,1.6,20,M,,M,,*67
06/13/2021,16:52:45.070,$GPGGA,165245,3241.8218,N,11709.3696,W,1,11,1.6,20,M,,M,,*67
06/13/2021,16:52:46.171,$GPGGA,165246,3241.8219,N,11709.3697,W,1,11,1.6,20,M,,M,,*64
06/13/2021,16:52:47.071,$GPGGA,165247,3241.8218,N,11709.3697,W,1,11,1.6,20,M,,M,,*64
06/13/2021,16:52:48.170,$GPGGA,165248,3241.8219,N,11709.3697,W,1,11,1.6,20,M,,M,,*6A
06/13/2021,16:52:49.070,$GPGGA,165249,3241.8218,N,11709.3697,W,1,11,1.6,21,M,,M,,*6B
06/13/2021,16:52:50.170,$GPGGA,165250,3241.8219,N,11709.3696,W,1,11,1.6,21,M,,M,,*63
06/13/2021,16:52:51.071,$GPGGA,165251,3241.8218,N,11709.3696,W,1,11,1.6,21,M,,M,,*63
06/13/2021,16:52:52.171,$GPGGA,165252,3241.8219,N,11709.3696,W,1,11,1.6,21,M,,M,,*61
06/13/2021,16:52:53.071,$GPGGA,165253,3241.8218,N,11709.3696,W,1,11,1.6,21,M,,M,,*61
06/13/2021,16:52:54.171,$GPGGA,165254,3241.8219,N,11709.3696,W,1,11,1.6,21,M,,M,,*67
06/13/2021,16:52:55.071,$GPGGA,165255,3241.8218,N,11709.3696,W,1,11,1.6,21,M,,M,,*67
06/13/2021,16:52:56.171,$GPGGA,165256,3241.8220,N,11709.3696,W,1,11,1.6,21,M,,M,,*6F
06/13/2021,16:52:57.071,$GPGGA,165257,3241.8218,N,11709.3696,W,1,11,1.6,21,M,,M,,*65
06/13/2021,16:52:58.171,$GPGGA,165258,3241.8219,N,11709.3696,W,1,11,1.6,21,M,,M,,*6B
06/13/2021,16:52:59.071,$GPGGA,165259,3241.8220,N,11709.3696,W,1,11,1.6,21,M,,M,,*60
06/13/2021,16:53:00.171,$GPGGA,165300,3241.8219,N,11709.3697,W,1,11,1.6,21,M,,M,,*66
06/13/2021,16:53:01.072,$GPGGA,165301,3241.8220,N,11709.3697,W,1,11,1.6,21,M,,M,,*6D
06/13/2021,16:53:02.171,$GPGGA,165302,3241.8219,N,11709.3697,W,1,11,1.6,21,M,,M,,*64
06/13/2021,16:53:03.071,$GPGGA,165303,3241.8220,N,11709.3696,W,1,11,1.6,21,M,,M,,*6E
06/13/2021,16:53:04.171,$GPGGA,165304,3241.8219,N,11709.3696,W,1,10,1.6,21,M,,M,,*62
06/13/2021,16:53:05.071,$GPGGA,165305,3241.8220,N,11709.3696,W,1,10,1.6,21,M,,M,,*69
06/13/2021,16:53:06.171,$GPGGA,165306,3241.8219,N,11709.3696,W,1,10,1.6,21,M,,M,,*60
06/13/2021,16:53:07.071,$GPGGA,165307,3241.8220,N,11709.3696,W,1,10,1.6,21,M,,M,,*6B
06/13/2021,16:53:08.172,$GPGGA,165308,3241.8219,N,11709.3696,W,1,10,1.6,21,M,,M,,*6E
06/13/2021,16:53:09.072,$GPGGA,165309,3241.8220,N,11709.3696,W,1,10,1.6,21,M,,M,,*65
06/13/2021,16:53:10.171,$GPGGA,165310,3241.8221,N,11709.3696,W,1,10,1.6,21,M,,M,,*6C
06/13/2021,16:53:11.072,$GPGGA,165311,3241.8221,N,11709.3696,W,1,10,1.6,21,M,,M,,*6D
06/13/2021,16:53:12.172,$GPGGA,165312,3241.8221,N,11709.3696,W,1,10,1.6,21,M,,M,,*6E
06/13/2021,16:53:13.073,$GPGGA,165313,3241.8221,N,11709.3696,W,1,10,1.6,21,M,,M,,*6F
06/13/2021,16:53:14.172,$GPGGA,165314,3241.8221,N,11709.3696,W,1,10,1.6,21,M,,M,,*68
06/13/2021,16:53:15.072,$GPGGA,165315,3241.8221,N,11709.3696,W,1,10,1.6,21,M,,M,,*69
06/13/2021,16:53:16.174,$GPGGA,165316,3241.8221,N,11709.3696,W,1,10,1.6,21,M,,M,,*6A
06/13/2021,16:53:17.072,$GPGGA,165317,3241.8221,N,11709.3696,W,1,10,1.6,20,M,,M,,*6A
06/13/2021,16:53:18.172,$GPGGA,165318,3241.8221,N,11709.3696,W,1,10,1.6,20,M,,M,,*65
06/13/2021,16:53:19.072,$GPGGA,165319,3241.8221,N,11709.3696,W,1,10,1.6,20,M,,M,,*64
06/13/2021,16:53:20.173,$GPGGA,165320,3241.8221,N,11709.3696,W,1,10,1.6,20,M,,M,,*6E
06/13/2021,16:53:21.072,$GPGGA,165321,3241.8221,N,11709.3696,W,1,10,1.6,20,M,,M,,*6F
06/13/2021,16:53:22.172,$GPGGA,165322,3241.8221,N,11709.3696,W,1,10,1.6,20,M,,M,,*6C
06/13/2021,16:53:23.073,$GPGGA,165323,3241.8221,N,11709.3696,W,1,10,1.6,20,M,,M,,*6D
06/13/2021,16:53:24.173,$GPGGA,165324,3241.8221,N,11709.3697,W,1,10,1.6,20,M,,M,,*6B
06/13/2021,16:53:25.072,$GPGGA,165325,3241.8221,N,11709.3696,W,1,10,1.6,20,M,,M,,*6B
06/13/2021,16:53:26.173,$GPGGA,165326,3241.8221,N,11709.3697,W,1,10,1.6,20,M,,M,,*69
06/13/2021,16:53:27.072,$GPGGA,165327,3241.8221,N,11709.3697,W,1,10,1.6,20,M,,M,,*68
06/13/2021,16:53:28.173,$GPGGA,165328,3241.8221,N,11709.3697,W,1,10,1.6,20,M,,M,,*67
06/13/2021,16:53:29.072,$GPGGA,165329,3241.8221,N,11709.3696,W,1,10,1.6,20,M,,M,,*67
06/13/2021,16:53:30.173,$GPGGA,165330,3241.8221,N,11709.3696,W,1,10,1.6,20,M,,M,,*6F
06/13/2021,16:53:31.073,$GPGGA,165331,3241.8221,N,11709.3696,W,1,10,1.6,20,M,,M,,*6E
06/13/2021,16:53:32.173,$GPGGA,165332,3241.8221,N,11709.3696,W,1,10,1.6,20,M,,M,,*6D
06/13/2021,16:53:33.073,$GPGGA,165333,3241.8221,N,11709.3696,W,1,10,1.6,20,M,,M,,*6C
06/13/2021,16:53:34.173,$GPGGA,165334,3241.8221,N,11709.3696,W,1,10,1.6,20,M,,M,,*6B
06/13/2021,16:53:35.074,$GPGGA,165335,3241.8221,N,11709.3696,W,1,10,1.6,20,M,,M,,*6A
06/13/2021,16:53:36.174,$GPGGA,165336,3241.8221,N,11709.3696,W,1,10,1.6,20,M,,M,,*69
06/13/2021,16:53:37.074,$GPGGA,165337,3241.8221,N,11709.3696,W,1,10,1.6,20,M,,M,,*68
06/13/2021,16:53:38.173,$GPGGA,165338,3241.8221,N,11709.3696,W,1,10,1.6,20,M,,M,,*67
06/13/2021,16:53:39.074,$GPGGA,165339,3241.8221,N,11709.3695,W,1,10,1.6,20,M,,M,,*65
06/13/2021,16:53:40.173,$GPGGA,165340,3241.8221,N,11709.3696,W,1,10,1.6,20,M,,M,,*68
06/13/2021,16:53:41.074,$GPGGA,165341,3241.8221,N,11709.3695,W,1,10,1.6,20,M,,M,,*6A
06/13/2021,16:53:42.174,$GPGGA,165342,3241.8221,N,11709.3696,W,1,10,1.6,20,M,,M,,*6A
06/13/2021,16:53:43.074,$GPGGA,165343,3241.8221,N,11709.3695,W,1,10,1.6,20,M,,M,,*68
06/13/2021,16:53:44.174,$GPGGA,165344,3241.8221,N,11709.3696,W,1,10,1.6,20,M,,M,,*6C
06/13/2021,16:53:45.073,$GPGGA,165345,3241.8221,N,11709.3695,W,1,10,1.6,20,M,,M,,*6E
06/13/2021,16:53:46.173,$GPGGA,165346,3241.8221,N,11709.3694,W,1,10,1.6,20,M,,M,,*6C
06/13/2021,16:53:47.073,$GPGGA,165347,3241.8221,N,11709.3694,W,1,10,1.6,20,M,,M,,*6D
06/13/2021,16:53:48.174,$GPGGA,165348,3241.8219,N,11709.3694,W,1,10,1.6,20,M,,M,,*69
06/13/2021,16:53:49.073,$GPGGA,165349,3241.8220,N,11709.3694,W,1,10,1.6,20,M,,M,,*62
06/13/2021,16:53:50.174,$GPGGA,165350,3241.8219,N,11709.3694,W,1,10,1.6,20,M,,M,,*60
06/13/2021,16:53:51.074,$GPGGA,165351,3241.8220,N,11709.3694,W,1,10,1.6,20,M,,M,,*6B
06/13/2021,16:53:52.174,$GPGGA,165352,3241.8219,N,11709.3694,W,1,10,1.6,20,M,,M,,*62
06/13/2021,16:53:53.074,$GPGGA,165353,3241.8220,N,11709.3693,W,1,10,1.6,20,M,,M,,*6E
06/13/2021,16:53:54.174,$GPGGA,165354,3241.8218,N,11709.3693,W,1,10,1.6,20,M,,M,,*62
06/13/2021,16:53:55.074,$GPGGA,165355,3241.8219,N,11709.3693,W,1,10,1.6,20,M,,M,,*62
06/13/2021,16:53:56.175,$GPGGA,165356,3241.8218,N,11709.3693,W,1,10,1.6,20,M,,M,,*60
06/13/2021,16:53:57.074,$GPGGA,165357,3241.8219,N,11709.3693,W,1,10,1.6,20,M,,M,,*60
06/13/2021,16:53:58.174,$GPGGA,165358,3241.8218,N,11709.3693,W,1,10,1.6,20,M,,M,,*6E
06/13/2021,16:53:59.074,$GPGGA,165359,3241.8217,N,11709.3693,W,1,10,1.6,20,M,,M,,*60
06/13/2021,16:54:00.174,$GPGGA,165400,3241.8217,N,11709.3692,W,1,10,1.6,20,M,,M,,*6A
06/13/2021,16:54:01.075,$GPGGA,165401,3241.8217,N,11709.3692,W,1,10,1.6,20,M,,M,,*6B
06/13/2021,16:54:02.174,$GPGGA,165402,3241.8217,N,11709.3692,W,1,10,1.6,20,M,,M,,*68
06/13/2021,16:54:03.074,$GPGGA,165403,3241.8217,N,11709.3692,W,1,10,1.6,20,M,,M,,*69
06/13/2021,16:54:04.175,$GPGGA,165404,3241.8217,N,11709.3692,W,1,10,1.6,20,M,,M,,*6E
06/13/2021,16:54:05.075,$GPGGA,165405,3241.8217,N,11709.3692,W,1,10,1.6,20,M,,M,,*6F
06/13/2021,16:54:06.175,$GPGGA,165406,3241.8217,N,11709.3692,W,1,10,1.6,20,M,,M,,*6C
06/13/2021,16:54:07.075,$GPGGA,165407,3241.8217,N,11709.3692,W,1,10,1.6,20,M,,M,,*6D
06/13/2021,16:54:08.175,$GPGGA,165408,3241.8217,N,11709.3691,W,1,10,1.6,20,M,,M,,*61
06/13/2021,16:54:09.075,$GPGGA,165409,3241.8217,N,11709.3692,W,1,10,1.6,20,M,,M,,*63
06/13/2021,16:54:10.175,$GPGGA,165410,3241.8217,N,11709.3691,W,1,11,1.6,20,M,,M,,*69
06/13/2021,16:54:11.075,$GPGGA,165411,3241.8217,N,11709.3692,W,1,11,1.6,20,M,,M,,*6B
06/13/2021,16:54:12.175,$GPGGA,165412,3241.8215,N,11709.3691,W,1,11,1.6,20,M,,M,,*69
06/13/2021,16:54:13.075,$GPGGA,165413,3241.8214,N,11709.3692,W,1,11,1.6,20,M,,M,,*6A
06/13/2021,16:54:14.175,$GPGGA,165414,3241.8214,N,11709.3691,W,1,11,1.6,20,M,,M,,*6E
06/13/2021,16:54:15.075,$GPGGA,165415,3241.8214,N,11709.3692,W,1,11,1.6,20,M,,M,,*6C
06/13/2021,16:54:16.175,$GPGGA,165416,3241.8214,N,11709.3690,W,1,11,1.6,20,M,,M,,*6D
06/13/2021,16:54:17.075,$GPGGA,165417,3241.8214,N,11709.3692,W,1,11,1.6,19,M,,M,,*64
06/13/2021,16:54:18.176,$GPGGA,165418,3241.8214,N,11709.3690,W,1,11,1.6,19,M,,M,,*69
06/13/2021,16:54:19.075,$GPGGA,165419,3241.8212,N,11709.3690,W,1,11,1.6,19,M,,M,,*6E
06/13/2021,16:54:20.175,$GPGGA,165420,3241.8213,N,11709.3690,W,1,11,1.6,19,M,,M,,*65
06/13/2021,16:54:21.076,$GPGGA,165421,3241.8212,N,11709.3690,W,1,11,1.6,19,M,,M,,*65
06/13/2021,16:54:22.177,$GPGGA,165422,3241.8213,N,11709.3690,W,1,11,1.6,19,M,,M,,*67
06/13/2021,16:54:23.075,$GPGGA,165423,3241.8212,N,11709.3690,W,1,11,1.6,19,M,,M,,*67
06/13/2021,16:54:24.175,$GPGGA,165424,3241.8213,N,11709.3690,W,1,11,1.6,19,M,,M,,*61
06/13/2021,16:54:25.075,$GPGGA,165425,3241.8212,N,11709.3690,W,1,11,1.6,19,M,,M,,*61
06/13/2021,16:54:26.176,$GPGGA,165426,3241.8213,N,11709.3690,W,1,11,1.6,19,M,,M,,*63
06/13/2021,16:54:27.076,$GPGGA,165427,3241.8212,N,11709.3690,W,1,11,1.6,18,M,,M,,*62
06/13/2021,16:54:28.176,$GPGGA,165428,3241.8213,N,11709.3690,W,1,11,1.6,18,M,,M,,*6C
06/13/2021,16:54:29.076,$GPGGA,165429,3241.8212,N,11709.3690,W,1,11,1.6,18,M,,M,,*6C
06/13/2021,16:54:30.176,$GPGGA,165430,3241.8213,N,11709.3690,W,1,11,1.6,18,M,,M,,*65
06/13/2021,16:54:31.076,$GPGGA,165431,3241.8212,N,11709.3690,W,1,11,1.6,18,M,,M,,*65
06/13/2021,16:54:32.176,$GPGGA,165432,3241.8213,N,11709.3690,W,1,11,1.6,18,M,,M,,*67
06/13/2021,16:54:33.076,$GPGGA,165433,3241.8212,N,11709.3690,W,1,11,1.6,18,M,,M,,*67
06/13/2021,16:54:34.176,$GPGGA,165434,3241.8214,N,11709.3690,W,1,11,1.6,18,M,,M,,*66
06/13/2021,16:54:35.077,$GPGGA,165435,3241.8214,N,11709.3690,W,1,11,1.6,17,M,,M,,*68
06/13/2021,16:54:36.176,$GPGGA,165436,3241.8214,N,11709.3690,W,1,11,1.6,17,M,,M,,*6B
06/13/2021,16:54:37.076,$GPGGA,165437,3241.8214,N,11709.3690,W,1,11,1.6,17,M,,M,,*6A
06/13/2021,16:54:38.178,$GPGGA,165438,3241.8214,N,11709.3690,W,1,10,1.6,17,M,,M,,*64
06/13/2021,16:54:39.076,$GPGGA,165439,3241.8214,N,11709.3692,W,1,10,1.6,17,M,,M,,*67
06/13/2021,16:54:40.177,$GPGGA,165440,3241.8216,N,11709.3691,W,1,10,1.6,17,M,,M,,*68
06/13/2021,16:54:41.077,$GPGGA,165441,3241.8215,N,11709.3692,W,1,10,1.6,17,M,,M,,*69
06/13/2021,16:54:42.177,$GPGGA,165442,3241.8216,N,11709.3691,W,1,11,1.6,17,M,,M,,*6B
06/13/2021,16:54:43.077,$GPGGA,165443,3241.8215,N,11709.3692,W,1,11,1.6,17,M,,M,,*6A
06/13/2021,16:54:44.177,$GPGGA,165444,3241.8216,N,11709.3691,W,1,11,1.6,17,M,,M,,*6D
06/13/2021,16:54:45.077,$GPGGA,165445,3241.8215,N,11709.3692,W,1,11,1.6,17,M,,M,,*6C
06/13/2021,16:54:46.176,$GPGGA,165446,3241.8217,N,11709.3692,W,1,11,1.6,17,M,,M,,*6D
06/13/2021,16:54:47.077,$GPGGA,165447,3241.8217,N,11709.3692,W,1,11,1.6,17,M,,M,,*6C
06/13/2021,16:54:48.176,$GPGGA,165448,3241.8217,N,11709.3692,W,1,11,1.6,17,M,,M,,*63
06/13/2021,16:54:49.077,$GPGGA,165449,3241.8217,N,11709.3692,W,1,11,1.6,17,M,,M,,*62
06/13/2021,16:54:50.177,$GPGGA,165450,3241.8217,N,11709.3692,W,1,11,1.6,17,M,,M,,*6A
06/13/2021,16:54:51.077,$GPGGA,165451,3241.8217,N,11709.3692,W,1,11,1.6,17,M,,M,,*6B
06/13/2021,16:54:52.177,$GPGGA,165452,3241.8217,N,11709.3692,W,1,11,1.6,17,M,,M,,*68
06/13/2021,16:54:53.077,$GPGGA,165453,3241.8217,N,11709.3692,W,1,11,1.6,17,M,,M,,*69
06/13/2021,16:54:54.178,$GPGGA,165454,3241.8217,N,11709.3692,W,1,11,1.6,17,M,,M,,*6E
06/13/2021,16:54:55.077,$GPGGA,165455,3241.8217,N,11709.3692,W,1,11,1.6,17,M,,M,,*6F
06/13/2021,16:54:56.177,$GPGGA,165456,3241.8217,N,11709.3692,W,1,11,1.6,17,M,,M,,*6C
06/13/2021,16:54:57.078,$GPGGA,165457,3241.8217,N,11709.3692,W,1,11,1.6,17,M,,M,,*6D
06/13/2021,16:54:58.177,$GPGGA,165458,3241.8217,N,11709.3692,W,1,11,1.6,17,M,,M,,*62
06/13/2021,16:54:59.077,$GPGGA,165459,3241.8217,N,11709.3692,W,1,11,1.6,17,M,,M,,*63
06/13/2021,16:55:00.178,$GPGGA,165500,3241.8217,N,11709.3692,W,1,11,1.6,17,M,,M,,*6E
06/13/2021,16:55:01.077,$GPGGA,165501,3241.8217,N,11709.3692,W,1,11,1.6,17,M,,M,,*6F
06/13/2021,16:55:02.178,$GPGGA,165502,3241.8217,N,11709.3692,W,1,11,1.6,17,M,,M,,*6C
06/13/2021,16:55:03.077,$GPGGA,165503,3241.8217,N,11709.3692,W,1,11,1.6,17,M,,M,,*6D
06/13/2021,16:55:04.178,$GPGGA,165504,3241.8217,N,11709.3692,W,1,11,1.6,17,M,,M,,*6A
06/13/2021,16:55:05.078,$GPGGA,165505,3241.8217,N,11709.3692,W,1,11,1.6,17,M,,M,,*6B
06/13/2021,16:55:06.178,$GPGGA,165506,3241.8217,N,11709.3692,W,1,11,1.6,17,M,,M,,*68
06/13/2021,16:55:07.078,$GPGGA,165507,3241.8217,N,11709.3691,W,1,11,1.6,17,M,,M,,*6A
06/13/2021,16:55:08.178,$GPGGA,165508,3241.8217,N,11709.3692,W,1,11,1.6,17,M,,M,,*66
06/13/2021,16:55:09.078,$GPGGA,165509,3241.8217,N,11709.3691,W,1,11,1.6,17,M,,M,,*64
06/13/2021,16:55:10.178,$GPGGA,165510,3241.8217,N,11709.3692,W,1,10,1.6,17,M,,M,,*6E
06/13/2021,16:55:11.078,$GPGGA,165511,3241.8217,N,11709.3691,W,1,10,1.6,17,M,,M,,*6C
06/13/2021,16:55:12.178,$GPGGA,165512,3241.8217,N,11709.3692,W,1,10,1.6,17,M,,M,,*6C
06/13/2021,16:55:13.078,$GPGGA,165513,3241.8215,N,11709.3690,W,1,10,1.6,17,M,,M,,*6D
06/13/2021,16:55:14.178,$GPGGA,165514,3241.8214,N,11709.3689,W,1,9,1.6,17,M,,M,,*5B
06/13/2021,16:55:15.078,$GPGGA,165515,3241.8214,N,11709.3689,W,1,9,1.9,17,M,,M,,*55
06/13/2021,16:55:16.178,$GPGGA,165516,3241.8212,N,11709.3688,W,1,9,1.9,17,M,,M,,*51
06/13/2021,16:55:17.078,$GPGGA,165517,3241.8213,N,11709.3687,W,1,9,1.9,16,M,,M,,*5F
06/13/2021,16:55:18.179,$GPGGA,165518,3241.8211,N,11709.3688,W,1,9,1.9,16,M,,M,,*5D
06/13/2021,16:55:19.078,$GPGGA,165519,3241.8210,N,11709.3686,W,1,9,1.9,16,M,,M,,*53
06/13/2021,16:55:20.179,$GPGGA,165520,3241.8210,N,11709.3686,W,1,9,1.9,16,M,,M,,*59
06/13/2021,16:55:21.079,$GPGGA,165521,3241.8210,N,11709.3686,W,1,9,2.3,15,M,,M,,*52
06/13/2021,16:55:22.179,$GPGGA,165522,3241.8208,N,11709.3686,W,1,9,2.3,15,M,,M,,*58
06/13/2021,16:55:23.078,$GPGGA,165523,3241.8209,N,11709.3686,W,1,9,1.9,15,M,,M,,*51
06/13/2021,16:55:24.178,$GPGGA,165524,3241.8207,N,11709.3686,W,1,9,1.9,15,M,,M,,*58
06/13/2021,16:55:25.078,$GPGGA,165525,3241.8208,N,11709.3685,W,1,9,1.9,15,M,,M,,*55
06/13/2021,16:55:26.179,$GPGGA,165526,3241.8207,N,11709.3685,W,1,9,1.9,15,M,,M,,*59
06/13/2021,16:55:27.078,$GPGGA,165527,3241.8208,N,11709.3685,W,1,9,1.9,14,M,,M,,*56
06/13/2021,16:55:28.179,$GPGGA,165528,3241.8207,N,11709.3685,W,1,9,1.9,14,M,,M,,*56
06/13/2021,16:55:29.079,$GPGGA,165529,3241.8208,N,11709.3684,W,1,9,1.9,14,M,,M,,*59
06/13/2021,16:55:30.179,$GPGGA,165530,3241.8207,N,11709.3685,W,1,9,1.9,14,M,,M,,*5F
06/13/2021,16:55:31.079,$GPGGA,165531,3241.8206,N,11709.3684,W,1,9,1.9,13,M,,M,,*59
06/13/2021,16:55:32.179,$GPGGA,165532,3241.8205,N,11709.3685,W,1,10,1.9,13,M,,M,,*60
06/13/2021,16:55:33.080,$GPGGA,165533,3241.8206,N,11709.3684,W,1,10,1.8,13,M,,M,,*62
06/13/2021,16:55:34.179,$GPGGA,165534,3241.8205,N,11709.3683,W,1,10,1.8,13,M,,M,,*61
06/13/2021,16:55:35.079,$GPGGA,165535,3241.8206,N,11709.3683,W,1,10,1.8,13,M,,M,,*63
06/13/2021,16:55:36.179,$GPGGA,165536,3241.8206,N,11709.3683,W,1,10,1.8,13,M,,M,,*60
06/13/2021,16:55:37.079,$GPGGA,165537,3241.8206,N,11709.3683,W,1,10,1.8,12,M,,M,,*60
06/13/2021,16:55:38.179,$GPGGA,165538,3241.8208,N,11709.3682,W,1,10,1.8,12,M,,M,,*60
06/13/2021,16:55:39.080,$GPGGA,165539,3241.8207,N,11709.3682,W,1,10,1.8,12,M,,M,,*6E
06/13/2021,16:55:40.130,$GPGGA,165540,3241.8208,N,11709.3682,W,1,10,1.8,12,M,,M,,*6F
06/13/2021,16:55:41.029,$GPGGA,165541,3241.8207,N,11709.3682,W,1,10,1.8,12,M,,M,,*61
06/13/2021,16:55:42.130,$GPGGA,165542,3241.8208,N,11709.3682,W,1,10,1.8,12,M,,M,,*6D
06/13/2021,16:55:43.030,$GPGGA,165543,3241.8207,N,11709.3682,W,1,10,1.8,12,M,,M,,*63
06/13/2021,16:55:44.130,$GPGGA,165544,3241.8209,N,11709.3682,W,1,10,1.8,12,M,,M,,*6A
06/13/2021,16:55:45.030,$GPGGA,165545,3241.8208,N,11709.3682,W,1,10,1.8,12,M,,M,,*6A
06/13/2021,16:55:46.130,$GPGGA,165546,3241.8209,N,11709.3682,W,1,10,1.8,12,M,,M,,*68
06/13/2021,16:55:47.030,$GPGGA,165547,3241.8208,N,11709.3682,W,1,10,1.8,12,M,,M,,*68
06/13/2021,16:55:48.131,$GPGGA,165548,3241.8209,N,11709.3682,W,1,10,1.8,12,M,,M,,*66
06/13/2021,16:55:49.031,$GPGGA,165549,3241.8208,N,11709.3682,W,1,10,1.8,12,M,,M,,*66
06/13/2021,16:55:50.130,$GPGGA,165550,3241.8209,N,11709.3682,W,1,10,1.8,12,M,,M,,*6F
06/13/2021,16:55:51.030,$GPGGA,165551,3241.8208,N,11709.3682,W,1,10,1.8,12,M,,M,,*6F
06/13/2021,16:55:52.130,$GPGGA,165552,3241.8209,N,11709.3682,W,1,10,1.8,12,M,,M,,*6D
06/13/2021,16:55:53.030,$GPGGA,165553,3241.8208,N,11709.3683,W,1,10,1.8,12,M,,M,,*6C
06/13/2021,16:55:54.130,$GPGGA,165554,3241.8209,N,11709.3683,W,1,10,1.8,12,M,,M,,*6A
06/13/2021,16:55:55.030,$GPGGA,165555,3241.8208,N,11709.3683,W,1,10,1.8,12,M,,M,,*6A
06/13/2021,16:55:56.130,$GPGGA,165556,3241.8209,N,11709.3683,W,1,10,1.8,12,M,,M,,*68
06/13/2021,16:55:57.030,$GPGGA,165557,3241.8208,N,11709.3683,W,1,10,1.8,12,M,,M,,*68
06/13/2021,16:55:58.131,$GPGGA,165558,3241.8209,N,11709.3683,W,1,10,1.8,12,M,,M,,*66
06/13/2021,16:55:59.030,$GPGGA,165559,3241.8208,N,11709.3683,W,1,10,1.8,12,M,,M,,*66
06/13/2021,16:56:00.131,$GPGGA,165600,3241.8209,N,11709.3683,W,1,10,1.8,12,M,,M,,*68
06/13/2021,16:56:01.031,$GPGGA,165601,3241.8208,N,11709.3685,W,1,10,1.8,12,M,,M,,*6E
06/13/2021,16:56:02.131,$GPGGA,165602,3241.8207,N,11709.3684,W,1,10,1.8,12,M,,M,,*63
06/13/2021,16:56:03.031,$GPGGA,165603,3241.8208,N,11709.3685,W,1,10,1.8,12,M,,M,,*6C
06/13/2021,16:56:04.131,$GPGGA,165604,3241.8207,N,11709.3684,W,1,10,1.8,12,M,,M,,*65
06/13/2021,16:56:05.031,$GPGGA,165605,3241.8208,N,11709.3685,W,1,10,1.8,12,M,,M,,*6A
06/13/2021,16:56:06.131,$GPGGA,165606,3241.8209,N,11709.3684,W,1,9,1.8,12,M,,M,,*51
06/13/2021,16:56:07.031,$GPGGA,165607,3241.8207,N,11709.3685,W,1,9,1.8,13,M,,M,,*5E
06/13/2021,16:56:08.131,$GPGGA,165608,3241.8209,N,11709.3685,W,1,9,1.8,13,M,,M,,*5F
06/13/2021,16:56:09.031,$GPGGA,165609,3241.8210,N,11709.3685,W,1,9,1.9,13,M,,M,,*57
06/13/2021,16:56:10.131,$GPGGA,165610,3241.8208,N,11709.3685,W,1,10,1.9,13,M,,M,,*6E
06/13/2021,16:56:11.031,$GPGGA,165611,3241.8210,N,11709.3685,W,1,10,1.9,13,M,,M,,*66
06/13/2021,16:56:12.131,$GPGGA,165612,3241.8210,N,11709.3685,W,1,9,1.9,13,M,,M,,*5D
06/13/2021,16:56:13.031,$GPGGA,165613,3241.8210,N,11709.3685,W,1,9,1.9,13,M,,M,,*5C
06/13/2021,16:56:14.132,$GPGGA,165614,3241.8210,N,11709.3685,W,1,9,1.9,13,M,,M,,*5B
06/13/2021,16:56:15.031,$GPGGA,165615,3241.8212,N,11709.3686,W,1,9,1.9,13,M,,M,,*5B
06/13/2021,16:56:16.132,$GPGGA,165616,3241.8211,N,11709.3686,W,1,9,1.9,13,M,,M,,*5B
06/13/2021,16:56:17.031,$GPGGA,165617,3241.8212,N,11709.3686,W,1,9,1.9,14,M,,M,,*5E
06/13/2021,16:56:18.131,$GPGGA,165618,3241.8213,N,11709.3686,W,1,9,1.9,14,M,,M,,*50
06/13/2021,16:56:19.031,$GPGGA,165619,3241.8212,N,11709.3686,W,1,9,1.9,14,M,,M,,*50
06/13/2021,16:56:20.131,$GPGGA,165620,3241.8213,N,11709.3686,W,1,9,1.9,14,M,,M,,*5B
06/13/2021,16:56:21.031,$GPGGA,165621,3241.8214,N,11709.3686,W,1,9,1.9,14,M,,M,,*5D
06/13/2021,16:56:22.132,$GPGGA,165622,3241.8214,N,11709.3686,W,1,9,1.9,14,M,,M,,*5E
06/13/2021,16:56:23.032,$GPGGA,165623,3241.8214,N,11709.3686,W,1,9,1.9,14,M,,M,,*5F
06/13/2021,16:56:24.132,$GPGGA,165624,3241.8214,N,11709.3686,W,1,9,1.9,14,M,,M,,*58
06/13/2021,16:56:25.031,$GPGGA,165625,3241.8214,N,11709.3686,W,1,9,1.9,15,M,,M,,*58
06/13/2021,16:56:26.132,$GPGGA,165626,3241.8214,N,11709.3686,W,1,9,1.9,15,M,,M,,*5B
06/13/2021,16:56:27.032,$GPGGA,165627,3241.8214,N,11709.3686,W,1,9,1.9,15,M,,M,,*5A
06/13/2021,16:56:28.132,$GPGGA,165628,3241.8214,N,11709.3686,W,1,9,1.9,15,M,,M,,*55
06/13/2021,16:56:29.032,$GPGGA,165629,3241.8214,N,11709.3686,W,1,9,1.9,15,M,,M,,*54
06/13/2021,16:56:30.132,$GPGGA,165630,3241.8214,N,11709.3686,W,1,9,1.9,15,M,,M,,*5C
06/13/2021,16:56:31.032,$GPGGA,165631,3241.8214,N,11709.3688,W,1,9,1.7,15,M,,M,,*5D
06/13/2021,16:56:32.132,$GPGGA,165632,3241.8212,N,11709.3687,W,1,10,1.7,15,M,,M,,*6F
06/13/2021,16:56:33.033,$GPGGA,165633,3241.8213,N,11709.3688,W,1,10,1.7,15,M,,M,,*60
06/13/2021,16:56:34.132,$GPGGA,165634,3241.8211,N,11709.3687,W,1,10,1.7,15,M,,M,,*6A
06/13/2021,16:56:35.032,$GPGGA,165635,3241.8212,N,11709.3688,W,1,10,1.7,15,M,,M,,*67
06/13/2021,16:56:36.132,$GPGGA,165636,3241.8210,N,11709.3687,W,1,10,1.7,15,M,,M,,*69
06/13/2021,16:56:37.032,$GPGGA,165637,3241.8210,N,11709.3688,W,1,10,1.7,15,M,,M,,*67
06/13/2021,16:56:38.132,$GPGGA,165638,3241.8210,N,11709.3687,W,1,10,1.7,15,M,,M,,*67
06/13/2021,16:56:39.032,$GPGGA,165639,3241.8210,N,11709.3688,W,1,10,1.7,15,M,,M,,*69
06/13/2021,16:56:40.132,$GPGGA,165640,3241.8210,N,11709.3687,W,1,10,1.7,15,M,,M,,*68
06/13/2021,16:56:41.032,$GPGGA,165641,3241.8210,N,11709.3688,W,1,10,1.7,15,M,,M,,*66
06/13/2021,16:56:42.133,$GPGGA,165642,3241.8210,N,11709.3687,W,1,10,1.7,15,M,,M,,*6A
06/13/2021,16:56:43.032,$GPGGA,165643,3241.8208,N,11709.3688,W,1,10,1.9,15,M,,M,,*63
06/13/2021,16:56:44.133,$GPGGA,165644,3241.8209,N,11709.3687,W,1,9,1.9,15,M,,M,,*52
06/13/2021,16:56:45.023,$GPGGA,165645,3241.8208,N,11709.3689,W,1,9,1.9,15,M,,M,,*5C
06/13/2021,16:56:46.133,$GPGGA,165646,3241.8207,N,11709.3688,W,1,9,1.9,15,M,,M,,*51
06/13/2021,16:56:47.023,$GPGGA,165647,3241.8208,N,11709.3689,W,1,9,1.7,15,M,,M,,*50
06/13/2021,16:56:48.129,$GPGGA,165648,3241.8207,N,11709.3688,W,1,9,1.7,15,M,,M,,*51
06/13/2021,16:56:49.022,$GPGGA,165649,3241.8209,N,11709.3689,W,1,9,1.9,15,M,,M,,*51
06/13/2021,16:56:50.119,$GPGGA,165650,3241.8208,N,11709.3688,W,1,9,1.9,15,M,,M,,*59
06/13/2021,16:56:51.018,$GPGGA,165651,3241.8210,N,11709.3687,W,1,9,1.7,15,M,,M,,*50
06/13/2021,16:56:52.118,$GPGGA,165652,3241.8210,N,11709.3686,W,1,10,1.7,15,M,,M,,*6A
06/13/2021,16:56:53.019,$GPGGA,165653,3241.8210,N,11709.3686,W,1,10,1.7,15,M,,M,,*6B
06/13/2021,16:56:54.119,$GPGGA,165654,3241.8210,N,11709.3685,W,1,10,1.7,15,M,,M,,*6F
06/13/2021,16:56:55.019,$GPGGA,165655,3241.8212,N,11709.3685,W,1,10,1.7,15,M,,M,,*6C
06/13/2021,16:56:56.119,$GPGGA,165656,3241.8211,N,11709.3685,W,1,10,1.7,15,M,,M,,*6C
06/13/2021,16:56:57.018,$GPGGA,165657,3241.8212,N,11709.3685,W,1,10,1.7,15,M,,M,,*6E
06/13/2021,16:56:58.119,$GPGGA,165658,3241.8213,N,11709.3685,W,1,10,1.7,15,M,,M,,*60
06/13/2021,16:56:59.019,$GPGGA,165659,3241.8212,N,11709.3685,W,1,10,1.7,15,M,,M,,*60
06/13/2021,16:57:00.119,$GPGGA,165700,3241.8213,N,11709.3685,W,1,10,1.7,15,M,,M,,*6C
06/13/2021,16:57:01.019,$GPGGA,165701,3241.8212,N,11709.3685,W,1,10,1.7,15,M,,M,,*6C
06/13/2021,16:57:02.120,$GPGGA,165702,3241.8214,N,11709.3685,W,1,10,1.7,15,M,,M,,*69
06/13/2021,16:57:03.019,$GPGGA,165703,3241.8214,N,11709.3685,W,1,10,1.7,15,M,,M,,*68
06/13/2021,16:57:04.119,$GPGGA,165704,3241.8214,N,11709.3685,W,1,10,1.7,15,M,,M,,*6F
06/13/2021,16:57:05.020,$GPGGA,165705,3241.8214,N,11709.3685,W,1,10,1.7,15,M,,M,,*6E
06/13/2021,16:57:06.120,$GPGGA,165706,3241.8214,N,11709.3685,W,1,10,1.7,15,M,,M,,*6D
06/13/2021,16:57:07.019,$GPGGA,165707,3241.8214,N,11709.3685,W,1,10,1.7,15,M,,M,,*6C
06/13/2021,16:57:08.119,$GPGGA,165708,3241.8214,N,11709.3685,W,1,10,1.7,15,M,,M,,*63
06/13/2021,16:57:09.020,$GPGGA,165709,3241.8214,N,11709.3685,W,1,10,1.7,15,M,,M,,*62
06/13/2021,16:57:10.119,$GPGGA,165710,3241.8214,N,11709.3685,W,1,9,1.7,15,M,,M,,*52
06/13/2021,16:57:11.009,$GPGGA,165711,3241.8216,N,11709.3685,W,1,9,1.8,16,M,,M,,*5D
06/13/2021,16:57:12.119,$GPGGA,165712,3241.8215,N,11709.3685,W,1,9,1.8,16,M,,M,,*5D
06/13/2021,16:57:13.009,$GPGGA,165713,3241.8216,N,11709.3685,W,1,9,1.8,16,M,,M,,*5F
06/13/2021,16:57:14.119,$GPGGA,165714,3241.8217,N,11709.3685,W,1,9,1.8,16,M,,M,,*59
06/13/2021,16:57:15.010,$GPGGA,165715,3241.8217,N,11709.3686,W,1,9,1.8,16,M,,M,,*5B
06/13/2021,16:57:16.110,$GPGGA,165716,3241.8217,N,11709.3686,W,1,9,1.8,16,M,,M,,*58
06/13/2021,16:57:17.010,$GPGGA,165717,3241.8217,N,11709.3686,W,1,9,1.8,16,M,,M,,*59
06/13/2021,16:57:18.120,$GPGGA,165718,3241.8219,N,11709.3686,W,1,9,1.8,16,M,,M,,*58
06/13/2021,16:57:19.010,$GPGGA,165719,3241.8218,N,11709.3688,W,1,9,1.8,17,M,,M,,*57
06/13/2021,16:57:20.110,$GPGGA,165720,3241.8219,N,11709.3686,W,1,9,1.8,17,M,,M,,*52
06/13/2021,16:57:21.010,$GPGGA,165721,3241.8218,N,11709.3688,W,1,9,1.8,17,M,,M,,*5C
06/13/2021,16:57:22.110,$GPGGA,165722,3241.8220,N,11709.3687,W,1,9,1.8,17,M,,M,,*5B
06/13/2021,16:57:23.011,$GPGGA,165723,3241.8219,N,11709.3688,W,1,9,1.8,17,M,,M,,*5F
06/13/2021,16:57:24.111,$GPGGA,165724,3241.8220,N,11709.3687,W,1,9,1.8,17,M,,M,,*5D
06/13/2021,16:57:25.010,$GPGGA,165725,3241.8219,N,11709.3689,W,1,9,1.8,17,M,,M,,*58
06/13/2021,16:57:26.110,$GPGGA,165726,3241.8221,N,11709.3688,W,1,9,1.8,17,M,,M,,*51
06/13/2021,16:57:27.010,$GPGGA,165727,3241.8221,N,11709.3689,W,1,9,1.7,18,M,,M,,*51
06/13/2021,16:57:28.120,$GPGGA,165728,3241.8221,N,11709.3688,W,1,10,1.7,18,M,,M,,*67
06/13/2021,16:57:29.021,$GPGGA,165729,3241.8221,N,11709.3689,W,1,10,1.7,18,M,,M,,*67
06/13/2021,16:57:30.120,$GPGGA,165730,3241.8221,N,11709.3689,W,1,10,1.7,18,M,,M,,*6F
06/13/2021,16:57:31.020,$GPGGA,165731,3241.8221,N,11709.3689,W,1,10,1.7,18,M,,M,,*6E
06/13/2021,16:57:32.120,$GPGGA,165732,3241.8221,N,11709.3689,W,1,10,1.7,18,M,,M,,*6D
06/13/2021,16:57:33.021,$GPGGA,165733,3241.8221,N,11709.3689,W,1,10,1.7,18,M,,M,,*6C
06/13/2021,16:57:34.121,$GPGGA,165734,3241.8221,N,11709.3689,W,1,10,1.7,18,M,,M,,*6B
06/13/2021,16:57:35.021,$GPGGA,165735,3241.8221,N,11709.3689,W,1,10,1.7,19,M,,M,,*6B
06/13/2021,16:57:36.121,$GPGGA,165736,3241.8221,N,11709.3689,W,1,10,1.7,19,M,,M,,*68
06/13/2021,16:57:37.020,$GPGGA,165737,3241.8221,N,11709.3689,W,1,10,1.7,19,M,,M,,*69
06/13/2021,16:57:38.121,$GPGGA,165738,3241.8221,N,11709.3690,W,1,10,1.7,19,M,,M,,*6E
06/13/2021,16:57:39.021,$GPGGA,165739,3241.8221,N,11709.3690,W,1,10,1.7,19,M,,M,,*6F
06/13/2021,16:57:40.121,$GPGGA,165740,3241.8221,N,11709.3690,W,1,10,1.7,19,M,,M,,*61
06/13/2021,16:57:41.021,$GPGGA,165741,3241.8221,N,11709.3690,W,1,10,1.7,19,M,,M,,*60
06/13/2021,16:57:42.121,$GPGGA,165742,3241.8221,N,11709.3690,W,1,10,1.7,19,M,,M,,*63
06/13/2021,16:57:43.021,$GPGGA,165743,3241.8221,N,11709.3690,W,1,10,1.7,19,M,,M,,*62
06/13/2021,16:57:44.121,$GPGGA,165744,3241.8221,N,11709.3690,W,1,10,1.7,19,M,,M,,*65
06/13/2021,16:57:45.021,$GPGGA,165745,3241.8221,N,11709.3690,W,1,10,1.7,20,M,,M,,*6E
06/13/2021,16:57:46.121,$GPGGA,165746,3241.8221,N,11709.3690,W,1,10,1.7,20,M,,M,,*6D
06/13/2021,16:57:47.021,$GPGGA,165747,3241.8221,N,11709.3690,W,1,10,1.7,20,M,,M,,*6C
06/13/2021,16:57:48.122,$GPGGA,165748,3241.8221,N,11709.3690,W,1,10,1.7,20,M,,M,,*63
06/13/2021,16:57:49.022,$GPGGA,165749,3241.8221,N,11709.3690,W,1,10,1.7,20,M,,M,,*62
06/13/2021,16:57:50.121,$GPGGA,165750,3241.8221,N,11709.3690,W,1,10,1.7,20,M,,M,,*6A
06/13/2021,16:57:51.022,$GPGGA,165751,3241.8221,N,11709.3690,W,1,10,1.7,20,M,,M,,*6B
06/13/2021,16:57:52.121,$GPGGA,165752,3241.8221,N,11709.3690,W,1,10,1.7,20,M,,M,,*68
06/13/2021,16:57:53.021,$GPGGA,165753,3241.8223,N,11709.3690,W,1,10,1.7,20,M,,M,,*6B
06/13/2021,16:57:54.122,$GPGGA,165754,3241.8222,N,11709.3690,W,1,10,1.7,20,M,,M,,*6D
06/13/2021,16:57:55.021,$GPGGA,165755,3241.8223,N,11709.3690,W,1,10,1.7,21,M,,M,,*6C
06/13/2021,16:57:56.122,$GPGGA,165756,3241.8222,N,11709.3690,W,1,10,1.7,21,M,,M,,*6E
06/13/2021,16:57:57.022,$GPGGA,165757,3241.8223,N,11709.3690,W,1,10,1.7,21,M,,M,,*6E
06/13/2021,16:57:58.122,$GPGGA,165758,3241.8222,N,11709.3690,W,1,10,1.7,21,M,,M,,*60
06/13/2021,16:57:59.022,$GPGGA,165759,3241.8223,N,11709.3690,W,1,10,1.7,21,M,,M,,*60
06/13/2021,16:58:00.122,$GPGGA,165800,3241.8222,N,11709.3690,W,1,10,1.7,21,M,,M,,*62
06/13/2021,16:58:01.022,$GPGGA,165801,3241.8223,N,11709.3690,W,1,10,1.7,21,M,,M,,*62
06/13/2021,16:58:02.122,$GPGGA,165802,3241.8222,N,11709.3690,W,1,10,1.7,21,M,,M,,*60
06/13/2021,16:58:03.022,$GPGGA,165803,3241.8223,N,11709.3690,W,1,10,1.7,21,M,,M,,*60
06/13/2021,16:58:04.123,$GPGGA,165804,3241.8224,N,11709.3690,W,1,10,1.7,21,M,,M,,*60
06/13/2021,16:58:05.022,$GPGGA,165805,3241.8223,N,11709.3690,W,1,10,1.7,21,M,,M,,*66
06/13/2021,16:58:06.122,$GPGGA,165806,3241.8224,N,11709.3690,W,1,10,1.7,21,M,,M,,*62
06/13/2021,16:58:07.022,$GPGGA,165807,3241.8224,N,11709.3690,W,1,10,1.8,21,M,,M,,*6C
06/13/2021,16:58:08.113,$GPGGA,165808,3241.8224,N,11709.3690,W,1,8,1.8,21,M,,M,,*5A
06/13/2021,16:58:09.014,$GPGGA,165809,3241.8224,N,11709.3690,W,1,8,1.9,22,M,,M,,*59
06/13/2021,16:58:10.112,$GPGGA,165810,3241.8225,N,11709.3692,W,1,8,1.9,22,M,,M,,*52
06/13/2021,16:58:11.012,$GPGGA,165811,3241.8225,N,11709.3691,W,1,8,1.9,22,M,,M,,*50
06/13/2021,16:58:12.112,$GPGGA,165812,3241.8225,N,11709.3692,W,1,8,1.9,22,M,,M,,*50
06/13/2021,16:58:13.013,$GPGGA,165813,3241.8225,N,11709.3691,W,1,8,1.9,22,M,,M,,*52
06/13/2021,16:58:14.112,$GPGGA,165814,3241.8225,N,11709.3692,W,1,8,1.9,22,M,,M,,*56
06/13/2021,16:58:15.012,$GPGGA,165815,3241.8227,N,11709.3691,W,1,8,1.9,22,M,,M,,*56
06/13/2021,16:58:16.112,$GPGGA,165816,3241.8226,N,11709.3692,W,1,8,1.9,22,M,,M,,*57
06/13/2021,16:58:17.013,$GPGGA,165817,3241.8227,N,11709.3691,W,1,8,1.9,22,M,,M,,*54
06/13/2021,16:58:18.123,$GPGGA,165818,3241.8226,N,11709.3692,W,1,10,1.9,22,M,,M,,*60
06/13/2021,16:58:19.013,$GPGGA,165819,3241.8227,N,11709.3690,W,1,10,1.7,22,M,,M,,*6C
06/13/2021,16:58:20.123,$GPGGA,165820,3241.8226,N,11709.3692,W,1,10,1.7,22,M,,M,,*65
06/13/2021,16:58:21.014,$GPGGA,165821,3241.8227,N,11709.3691,W,1,10,1.7,22,M,,M,,*66
06/13/2021,16:58:22.124,$GPGGA,165822,3241.8226,N,11709.3692,W,1,10,1.7,22,M,,M,,*67
06/13/2021,16:58:23.023,$GPGGA,165823,3241.8227,N,11709.3690,W,1,10,1.7,22,M,,M,,*65
06/13/2021,16:58:24.123,$GPGGA,165824,3241.8226,N,11709.3690,W,1,10,1.7,22,M,,M,,*63
06/13/2021,16:58:25.014,$GPGGA,165825,3241.8227,N,11709.3690,W,1,10,1.7,22,M,,M,,*63
06/13/2021,16:58:26.123,$GPGGA,165826,3241.8226,N,11709.3690,W,1,10,1.7,22,M,,M,,*61
06/13/2021,16:58:27.023,$GPGGA,165827,3241.8227,N,11709.3690,W,1,10,1.7,22,M,,M,,*61
06/13/2021,16:58:28.123,$GPGGA,165828,3241.8226,N,11709.3690,W,1,10,1.7,22,M,,M,,*6F
06/13/2021,16:58:29.014,$GPGGA,165829,3241.8227,N,11709.3690,W,1,10,1.7,22,M,,M,,*6F
06/13/2021,16:58:30.123,$GPGGA,165830,3241.8226,N,11709.3690,W,1,10,1.7,22,M,,M,,*66
06/13/2021,16:58:31.014,$GPGGA,165831,3241.8225,N,11709.3689,W,1,10,1.7,22,M,,M,,*6C
06/13/2021,16:58:32.124,$GPGGA,165832,3241.8225,N,11709.3689,W,1,10,1.7,22,M,,M,,*6F
06/13/2021,16:58:33.014,$GPGGA,165833,3241.8225,N,11709.3689,W,1,10,1.7,22,M,,M,,*6E
06/13/2021,16:58:34.114,$GPGGA,165834,3241.8225,N,11709.3689,W,1,10,1.7,22,M,,M,,*69
06/13/2021,16:58:35.014,$GPGGA,165835,3241.8225,N,11709.3688,W,1,10,1.7,22,M,,M,,*69
06/13/2021,16:58:36.114,$GPGGA,165836,3241.8224,N,11709.3689,W,1,10,1.7,22,M,,M,,*6A
06/13/2021,16:58:37.024,$GPGGA,165837,3241.8224,N,11709.3688,W,1,10,1.7,22,M,,M,,*6A
06/13/2021,16:58:38.125,$GPGGA,165838,3241.8224,N,11709.3689,W,1,10,1.7,22,M,,M,,*64
06/13/2021,16:58:39.015,$GPGGA,165839,3241.8223,N,11709.3688,W,1,10,1.7,22,M,,M,,*63
06/13/2021,16:58:40.124,$GPGGA,165840,3241.8224,N,11709.3689,W,1,10,1.7,22,M,,M,,*6B
06/13/2021,16:58:41.025,$GPGGA,165841,3241.8223,N,11709.3688,W,1,10,1.7,22,M,,M,,*6C
06/13/2021,16:58:42.124,$GPGGA,165842,3241.8224,N,11709.3689,W,1,10,1.7,22,M,,M,,*69
06/13/2021,16:58:43.024,$GPGGA,165843,3241.8223,N,11709.3687,W,1,10,1.7,21,M,,M,,*62
06/13/2021,16:58:44.124,$GPGGA,165844,3241.8224,N,11709.3688,W,1,10,1.7,21,M,,M,,*6D
06/13/2021,16:58:45.014,$GPGGA,165845,3241.8223,N,11709.3687,W,1,10,1.7,21,M,,M,,*64
06/13/2021,16:58:46.115,$GPGGA,165846,3241.8224,N,11709.3688,W,1,10,1.7,21,M,,M,,*6F
06/13/2021,16:58:47.014,$GPGGA,165847,3241.8223,N,11709.3687,W,1,10,1.7,21,M,,M,,*66
06/13/2021,16:58:48.124,$GPGGA,165848,3241.8224,N,11709.3688,W,1,10,1.7,21,M,,M,,*61
06/13/2021,16:58:49.014,$GPGGA,165849,3241.8223,N,11709.3687,W,1,10,1.7,21,M,,M,,*68
06/13/2021,16:58:50.115,$GPGGA,165850,3241.8224,N,11709.3688,W,1,10,1.7,21,M,,M,,*68
06/13/2021,16:58:51.015,$GPGGA,165851,3241.8224,N,11709.3687,W,1,10,1.7,21,M,,M,,*66
06/13/2021,16:58:52.124,$GPGGA,165852,3241.8224,N,11709.3688,W,1,10,1.7,21,M,,M,,*6A
06/13/2021,16:58:53.014,$GPGGA,165853,3241.8224,N,11709.3687,W,1,10,1.7,21,M,,M,,*64
06/13/2021,16:58:54.116,$GPGGA,165854,3241.8224,N,11709.3688,W,1,10,1.7,21,M,,M,,*6C
06/13/2021,16:58:55.015,$GPGGA,165855,3241.8224,N,11709.3686,W,1,10,1.7,21,M,,M,,*63
06/13/2021,16:58:56.124,$GPGGA,165856,3241.8224,N,11709.3686,W,1,10,1.7,21,M,,M,,*60
06/13/2021,16:58:57.015,$GPGGA,165857,3241.8224,N,11709.3686,W,1,10,1.7,21,M,,M,,*61
06/13/2021,16:58:58.115,$GPGGA,165858,3241.8224,N,11709.3686,W,1,10,1.7,21,M,,M,,*6E
06/13/2021,16:58:59.016,$GPGGA,165859,3241.8224,N,11709.3686,W,1,10,1.7,21,M,,M,,*6F
06/13/2021,16:59:00.125,$GPGGA,165900,3241.8224,N,11709.3686,W,1,10,1.7,21,M,,M,,*62
06/13/2021,16:59:01.015,$GPGGA,165901,3241.8224,N,11709.3685,W,1,10,1.7,21,M,,M,,*60
06/13/2021,16:59:02.115,$GPGGA,165902,3241.8225,N,11709.3685,W,1,10,1.7,21,M,,M,,*62
06/13/2021,16:59:03.015,$GPGGA,165903,3241.8225,N,11709.3685,W,1,10,1.7,20,M,,M,,*62
06/13/2021,16:59:04.125,$GPGGA,165904,3241.8225,N,11709.3685,W,1,10,1.7,20,M,,M,,*65
06/13/2021,16:59:05.016,$GPGGA,165905,3241.8225,N,11709.3685,W,1,10,1.7,20,M,,M,,*64
06/13/2021,16:59:06.125,$GPGGA,165906,3241.8225,N,11709.3684,W,1,10,1.7,20,M,,M,,*66
06/13/2021,16:59:07.015,$GPGGA,165907,3241.8225,N,11709.3685,W,1,10,1.7,20,M,,M,,*66
06/13/2021,16:59:08.115,$GPGGA,165908,3241.8225,N,11709.3684,W,1,10,1.7,20,M,,M,,*68
06/13/2021,16:59:09.015,$GPGGA,165909,3241.8227,N,11709.3685,W,1,10,1.7,20,M,,M,,*6A
06/13/2021,16:59:10.115,$GPGGA,165910,3241.8226,N,11709.3684,W,1,10,1.7,20,M,,M,,*62
06/13/2021,16:59:11.015,$GPGGA,165911,3241.8227,N,11709.3683,W,1,10,1.7,20,M,,M,,*65
06/13/2021,16:59:12.116,$GPGGA,165912,3241.8226,N,11709.3683,W,1,10,1.7,20,M,,M,,*67
06/13/2021,16:59:13.016,$GPGGA,165913,3241.8228,N,11709.3683,W,1,10,1.7,20,M,,M,,*68
06/13/2021,16:59:14.115,$GPGGA,165914,3241.8228,N,11709.3683,W,1,10,1.7,20,M,,M,,*6F
06/13/2021,16:59:15.016,$GPGGA,165915,3241.8228,N,11709.3683,W,1,10,1.7,20,M,,M,,*6E
06/13/2021,16:59:16.116,$GPGGA,165916,3241.8228,N,11709.3683,W,1,10,1.7,20,M,,M,,*6D
06/13/2021,16:59:17.016,$GPGGA,165917,3241.8228,N,11709.3683,W,1,10,1.7,20,M,,M,,*6C
06/13/2021,16:59:18.116,$GPGGA,165918,3241.8228,N,11709.3683,W,1,10,1.7,20,M,,M,,*63
06/13/2021,16:59:19.016,$GPGGA,165919,3241.8228,N,11709.3683,W,1,10,1.7,20,M,,M,,*62
06/13/2021,16:59:20.116,$GPGGA,165920,3241.8230,N,11709.3683,W,1,10,1.7,20,M,,M,,*61
06/13/2021,16:59:21.017,$GPGGA,165921,3241.8229,N,11709.3683,W,1,10,1.7,20,M,,M,,*68
06/13/2021,16:59:22.116,$GPGGA,165922,3241.8230,N,11709.3683,W,1,10,1.7,20,M,,M,,*63
06/13/2021,16:59:23.016,$GPGGA,165923,3241.8231,N,11709.3683,W,1,10,1.7,20,M,,M,,*63
06/13/2021,16:59:24.117,$GPGGA,165924,3241.8230,N,11709.3683,W,1,10,1.7,20,M,,M,,*65
06/13/2021,16:59:25.017,$GPGGA,165925,3241.8231,N,11709.3683,W,1,10,1.7,20,M,,M,,*65
06/13/2021,16:59:26.117,$GPGGA,165926,3241.8230,N,11709.3683,W,1,10,1.7,20,M,,M,,*67
06/13/2021,16:59:27.017,$GPGGA,165927,3241.8231,N,11709.3683,W,1,10,1.7,20,M,,M,,*67
06/13/2021,16:59:28.116,$GPGGA,165928,3241.8232,N,11709.3685,W,1,10,1.7,20,M,,M,,*6D
06/13/2021,16:59:29.016,$GPGGA,165929,3241.8232,N,11709.3684,W,1,10,1.7,20,M,,M,,*6D
06/13/2021,16:59:30.116,$GPGGA,165930,3241.8232,N,11709.3685,W,1,10,1.7,20,M,,M,,*64
06/13/2021,16:59:31.016,$GPGGA,165931,3241.8232,N,11709.3684,W,1,10,1.7,20,M,,M,,*64
06/13/2021,16:59:32.116,$GPGGA,165932,3241.8232,N,11709.3685,W,1,10,1.7,20,M,,M,,*66
06/13/2021,16:59:33.016,$GPGGA,165933,3241.8232,N,11709.3684,W,1,10,1.7,20,M,,M,,*66
06/13/2021,16:59:34.117,$GPGGA,165934,3241.8232,N,11709.3685,W,1,10,1.7,20,M,,M,,*60
06/13/2021,16:59:35.017,$GPGGA,165935,3241.8232,N,11709.3684,W,1,10,1.7,20,M,,M,,*60
06/13/2021,16:59:36.117,$GPGGA,165936,3241.8232,N,11709.3685,W,1,9,1.7,20,M,,M,,*5A
06/13/2021,16:59:37.017,$GPGGA,165937,3241.8232,N,11709.3684,W,1,9,1.8,19,M,,M,,*5F
06/13/2021,16:59:38.117,$GPGGA,165938,3241.8232,N,11709.3685,W,1,9,1.8,19,M,,M,,*51
06/13/2021,16:59:39.017,$GPGGA,165939,3241.8232,N,11709.3684,W,1,9,1.8,19,M,,M,,*51
06/13/2021,16:59:40.117,$GPGGA,165940,3241.8232,N,11709.3685,W,1,9,1.8,19,M,,M,,*5E
06/13/2021,16:59:41.018,$GPGGA,165941,3241.8232,N,11709.3685,W,1,9,1.8,19,M,,M,,*5F
06/13/2021,16:59:42.117,$GPGGA,165942,3241.8232,N,11709.3685,W,1,9,1.8,19,M,,M,,*5C
06/13/2021,16:59:43.018,$GPGGA,165943,3241.8232,N,11709.3684,W,1,9,1.8,19,M,,M,,*5C
06/13/2021,16:59:44.117,$GPGGA,165944,3241.8232,N,11709.3685,W,1,9,1.8,19,M,,M,,*5A
06/13/2021,16:59:45.018,$GPGGA,165945,3241.8232,N,11709.3684,W,1,9,1.7,19,M,,M,,*55
06/13/2021,16:59:46.118,$GPGGA,165946,3241.8232,N,11709.3683,W,1,10,1.7,19,M,,M,,*69
06/13/2021,16:59:47.018,$GPGGA,165947,3241.8232,N,11709.3683,W,1,10,1.7,19,M,,M,,*68
06/13/2021,16:59:48.118,$GPGGA,165948,3241.8232,N,11709.3683,W,1,10,1.7,19,M,,M,,*67
06/13/2021,16:59:49.018,$GPGGA,165949,3241.8232,N,11709.3682,W,1,10,1.7,19,M,,M,,*67
06/13/2021,16:59:50.118,$GPGGA,165950,3241.8232,N,11709.3682,W,1,10,1.7,19,M,,M,,*6F
06/13/2021,16:59:51.018,$GPGGA,165951,3241.8232,N,11709.3681,W,1,10,1.7,19,M,,M,,*6D
06/13/2021,16:59:52.118,$GPGGA,165952,3241.8232,N,11709.3681,W,1,10,1.7,19,M,,M,,*6E
06/13/2021,16:59:53.018,$GPGGA,165953,3241.8232,N,11709.3681,W,1,10,1.7,19,M,,M,,*6F
06/13/2021,16:59:54.118,$GPGGA,165954,3241.8232,N,11709.3681,W,1,10,1.7,19,M,,M,,*68
06/13/2021,16:59:55.018,$GPGGA,165955,3241.8232,N,11709.3680,W,1,10,1.7,19,M,,M,,*68
06/13/2021,16:59:56.117,$GPGGA,165956,3241.8232,N,11709.3681,W,1,10,1.7,19,M,,M,,*6A
06/13/2021,16:59:57.018,$GPGGA,165957,3241.8232,N,11709.3680,W,1,10,1.7,19,M,,M,,*6A
06/13/2021,16:59:58.118,$GPGGA,165958,3241.8232,N,11709.3681,W,1,10,1.7,19,M,,M,,*64
06/13/2021,16:59:59.018,$GPGGA,165959,3241.8232,N,11709.3679,W,1,10,1.7,19,M,,M,,*62
06/13/2021,17:00:00.118,$GPGGA,170000,3241.8232,N,11709.3679,W,1,10,1.7,19,M,,M,,*63
06/13/2021,17:00:01.019,$GPGGA,170001,3241.8232,N,11709.3679,W,1,10,1.7,19,M,,M,,*62
06/13/2021,17:00:02.118,$GPGGA,170002,3241.8232,N,11709.3678,W,1,10,1.7,19,M,,M,,*60
06/13/2021,17:00:03.018,$GPGGA,170003,3241.8232,N,11709.3677,W,1,10,1.7,19,M,,M,,*6E
06/13/2021,17:00:04.118,$GPGGA,170004,3241.8232,N,11709.3678,W,1,10,1.7,19,M,,M,,*66
06/13/2021,17:00:05.018,$GPGGA,170005,3241.8232,N,11709.3677,W,1,10,1.7,19,M,,M,,*68
