06/13/2021,18:15:46.100,$GPGGA,181546,3241.7928,N,11709.4451,W,1,9,2.0,21,M,,M,,*5D
06/13/2021,18:15:47.000,$GPGGA,181547,3241.7923,N,11709.4454,W,1,9,1.4,21,M,,M,,*55
06/13/2021,18:15:48.096,$GPGGA,181548,3241.7918,N,11709.4456,W,1,9,1.4,21,M,,M,,*50
06/13/2021,18:15:48.989,$GPGGA,181549,3241.7914,N,11709.4459,W,1,9,1.4,21,M,,M,,*52
06/13/2021,18:15:50.086,$GPGGA,181550,3241.7910,N,11709.4462,W,1,9,1.4,21,M,,M,,*56
06/13/2021,18:15:50.985,$GPGGA,181551,3241.7904,N,11709.4465,W,1,9,1.4,22,M,,M,,*56
06/13/2021,18:15:52.086,$GPGGA,181552,3241.7900,N,11709.4467,W,1,9,1.4,22,M,,M,,*53
06/13/2021,18:15:52.985,$GPGGA,181553,3241.7896,N,11709.4470,W,1,9,1.4,22,M,,M,,*5A
06/13/2021,18:15:54.086,$GPGGA,181554,3241.7892,N,11709.4473,W,1,9,1.4,22,M,,M,,*5A
06/13/2021,18:15:54.986,$GPGGA,181555,3241.7886,N,11709.4474,W,1,9,1.4,22,M,,M,,*59
06/13/2021,18:15:56.085,$GPGGA,181556,3241.7882,N,11709.4477,W,1,9,1.4,22,M,,M,,*5D
06/13/2021,18:15:56.986,$GPGGA,181557,3241.7878,N,11709.4480,W,1,9,1.4,22,M,,M,,*51
06/13/2021,18:15:58.085,$GPGGA,181558,3241.7874,N,11709.4481,W,1,9,1.4,22,M,,M,,*53
06/13/2021,18:15:58.986,$GPGGA,181559,3241.7869,N,11709.4484,W,1,9,2.0,22,M,,M,,*5C
06/13/2021,18:16:00.086,$GPGGA,181600,3241.7864,N,11709.4487,W,1,9,2.0,22,M,,M,,*5D
06/13/2021,18:16:00.986,$GPGGA,181601,3241.7860,N,11709.4488,W,1,9,1.4,22,M,,M,,*50
06/13/2021,18:16:02.086,$GPGGA,181602,3241.7856,N,11709.4491,W,1,9,1.4,22,M,,M,,*5E
06/13/2021,18:16:02.986,$GPGGA,181603,3241.7852,N,11709.4494,W,1,9,1.4,22,M,,M,,*5E
06/13/2021,18:16:04.086,$GPGGA,181604,3241.7847,N,11709.4495,W,1,9,1.4,22,M,,M,,*5C
06/13/2021,18:16:04.986,$GPGGA,181605,3241.7842,N,11709.4496,W,1,9,1.4,22,M,,M,,*5B
06/13/2021,18:16:06.086,$GPGGA,181606,3241.7838,N,11709.4498,W,1,9,1.4,22,M,,M,,*5B
06/13/2021,18:16:06.986,$GPGGA,181607,3241.7832,N,11709.4499,W,1,9,2.0,22,M,,M,,*56
06/13/2021,18:16:08.086,$GPGGA,181608,3241.7828,N,11709.4501,W,1,8,2.0,22,M,,M,,*53
06/13/2021,18:16:08.986,$GPGGA,181609,3241.7823,N,11709.4501,W,1,8,2.0,22,M,,M,,*59
06/13/2021,18:16:10.086,$GPGGA,181610,3241.7818,N,11709.4501,W,1,9,2.0,22,M,,M,,*58
06/13/2021,18:16:10.987,$GPGGA,181611,3241.7813,N,11709.4502,W,1,9,1.4,22,M,,M,,*56
06/13/2021,18:16:12.086,$GPGGA,181612,3241.7809,N,11709.4502,W,1,9,1.4,22,M,,M,,*5E
06/13/2021,18:16:12.986,$GPGGA,181613,3241.7803,N,11709.4502,W,1,9,1.4,22,M,,M,,*55
06/13/2021,18:16:14.087,$GPGGA,181614,3241.7798,N,11709.4502,W,1,9,1.4,22,M,,M,,*5F
06/13/2021,18:16:14.987,$GPGGA,181615,3241.7794,N,11709.4501,W,1,9,1.5,22,M,,M,,*50
06/13/2021,18:16:16.086,$GPGGA,181616,3241.7789,N,11709.4501,W,1,9,1.5,22,M,,M,,*5F
06/13/2021,18:16:16.986,$GPGGA,181617,3241.7785,N,11709.4502,W,1,9,2.0,22,M,,M,,*57
06/13/2021,18:16:18.086,$GPGGA,181618,3241.7780,N,11709.4500,W,1,9,2.0,22,M,,M,,*5F
06/13/2021,18:16:18.986,$GPGGA,181619,3241.7773,N,11709.4498,W,1,9,1.5,22,M,,M,,*54
06/13/2021,18:16:20.086,$GPGGA,181620,3241.7768,N,11709.4497,W,1,9,1.5,22,M,,M,,*5B
06/13/2021,18:16:20.987,$GPGGA,181621,3241.7763,N,11709.4496,W,1,9,1.5,22,M,,M,,*50
06/13/2021,18:16:22.087,$GPGGA,181622,3241.7758,N,11709.4495,W,1,9,1.5,22,M,,M,,*58
06/13/2021,18:16:22.987,$GPGGA,181623,3241.7755,N,11709.4495,W,1,9,1.5,22,M,,M,,*54
06/13/2021,18:16:24.087,$GPGGA,181624,3241.7749,N,11709.4495,W,1,9,1.5,22,M,,M,,*5E
06/13/2021,18:16:24.987,$GPGGA,181625,3241.7745,N,11709.4495,W,1,9,1.5,23,M,,M,,*52
06/13/2021,18:16:26.087,$GPGGA,181626,3241.7740,N,11709.4494,W,1,9,1.5,23,M,,M,,*55
06/13/2021,18:16:26.987,$GPGGA,181627,3241.7735,N,11709.4494,W,1,9,1.5,23,M,,M,,*56
06/13/2021,18:16:28.087,$GPGGA,181628,3241.7731,N,11709.4494,W,1,9,1.5,23,M,,M,,*5D
06/13/2021,18:16:28.988,$GPGGA,181629,3241.7726,N,11709.4493,W,1,9,1.5,23,M,,M,,*5D
06/13/2021,18:16:30.087,$GPGGA,181630,3241.7721,N,11709.4494,W,1,9,1.5,23,M,,M,,*55
06/13/2021,18:16:30.988,$GPGGA,181631,3241.7717,N,11709.4492,W,1,9,1.5,23,M,,M,,*57
06/13/2021,18:16:32.087,$GPGGA,181632,3241.7712,N,11709.4491,W,1,9,1.5,23,M,,M,,*52
06/13/2021,18:16:32.987,$GPGGA,181633,3241.7708,N,11709.4491,W,1,9,1.5,23,M,,M,,*58
06/13/2021,18:16:34.088,$GPGGA,181634,3241.7704,N,11709.4490,W,1,9,1.5,23,M,,M,,*52
06/13/2021,18:16:34.987,$GPGGA,181635,3241.7699,N,11709.4489,W,1,9,1.5,23,M,,M,,*5E
06/13/2021,18:16:36.088,$GPGGA,181636,3241.7694,N,11709.4488,W,1,9,1.5,23,M,,M,,*51
06/13/2021,18:16:36.987,$GPGGA,181637,3241.7690,N,11709.4488,W,1,9,1.5,23,M,,M,,*54
06/13/2021,18:16:38.088,$GPGGA,181638,3241.7686,N,11709.4487,W,1,9,1.5,23,M,,M,,*53
06/13/2021,18:16:38.988,$GPGGA,181639,3241.7680,N,11709.4486,W,1,9,1.5,23,M,,M,,*55
06/13/2021,18:16:40.087,$GPGGA,181640,3241.7676,N,11709.4484,W,1,9,1.5,23,M,,M,,*50
06/13/2021,18:16:40.988,$GPGGA,181641,3241.7672,N,11709.4483,W,1,9,1.5,23,M,,M,,*52
06/13/2021,18:16:42.088,$GPGGA,181642,3241.7668,N,11709.4482,W,1,8,1.5,23,M,,M,,*5A
06/13/2021,18:16:42.987,$GPGGA,181643,3241.7661,N,11709.4483,W,1,8,1.5,23,M,,M,,*53
06/13/2021,18:16:44.088,$GPGGA,181644,3241.7655,N,11709.4481,W,1,9,1.5,23,M,,M,,*50
06/13/2021,18:16:44.988,$GPGGA,181645,3241.7650,N,11709.4479,W,1,9,1.5,23,M,,M,,*53
06/13/2021,18:16:46.088,$GPGGA,181646,3241.7646,N,11709.4477,W,1,8,1.5,23,M,,M,,*58
06/13/2021,18:16:46.988,$GPGGA,181647,3241.7643,N,11709.4475,W,1,8,1.5,22,M,,M,,*5F
06/13/2021,18:16:48.088,$GPGGA,181648,3241.7639,N,11709.4474,W,1,9,1.5,22,M,,M,,*5D
06/13/2021,18:16:48.988,$GPGGA,181649,3241.7634,N,11709.4472,W,1,9,1.5,22,M,,M,,*57
06/13/2021,18:16:50.088,$GPGGA,181650,3241.7630,N,11709.4471,W,1,8,1.5,22,M,,M,,*59
06/13/2021,18:16:50.988,$GPGGA,181651,3241.7627,N,11709.4468,W,1,8,1.8,22,M,,M,,*5B
06/13/2021,18:16:52.089,$GPGGA,181652,3241.7623,N,11709.4467,W,1,9,1.8,22,M,,M,,*52
06/13/2021,18:16:52.989,$GPGGA,181653,3241.7619,N,11709.4464,W,1,9,1.5,22,M,,M,,*54
06/13/2021,18:16:54.089,$GPGGA,181654,3241.7616,N,11709.4462,W,1,9,1.5,22,M,,M,,*5A
06/13/2021,18:16:54.989,$GPGGA,181655,3241.7614,N,11709.4459,W,1,9,1.8,22,M,,M,,*5C
06/13/2021,18:16:56.089,$GPGGA,181656,3241.7610,N,11709.4456,W,1,7,1.8,22,M,,M,,*5A
06/13/2021,18:16:56.988,$GPGGA,181657,3241.7608,N,11709.4453,W,1,7,1.8,22,M,,M,,*57
06/13/2021,18:16:58.089,$GPGGA,181658,3241.7605,N,11709.4451,W,1,8,1.8,22,M,,M,,*58
06/13/2021,18:16:58.989,$GPGGA,181659,3241.7603,N,11709.4449,W,1,8,1.5,21,M,,M,,*58
06/13/2021,18:17:00.089,$GPGGA,181700,3241.7601,N,11709.4445,W,1,9,1.5,21,M,,M,,*5A
06/13/2021,18:17:00.988,$GPGGA,181701,3241.7599,N,11709.4442,W,1,9,1.5,21,M,,M,,*5E
06/13/2021,18:17:02.089,$GPGGA,181702,3241.7597,N,11709.4439,W,1,8,1.5,21,M,,M,,*5E
06/13/2021,18:17:02.988,$GPGGA,181703,3241.7593,N,11709.4438,W,1,8,1.5,22,M,,M,,*59
06/13/2021,18:17:04.089,$GPGGA,181704,3241.7590,N,11709.4436,W,1,9,1.5,22,M,,M,,*52
06/13/2021,18:17:04.989,$GPGGA,181705,3241.7587,N,11709.4433,W,1,9,1.5,22,M,,M,,*50
06/13/2021,18:17:06.089,$GPGGA,181706,3241.7585,N,11709.4431,W,1,8,1.5,22,M,,M,,*52
06/13/2021,18:17:06.989,$GPGGA,181707,3241.7581,N,11709.4428,W,1,8,1.5,22,M,,M,,*5F
06/13/2021,18:17:08.089,$GPGGA,181708,3241.7578,N,11709.4425,W,1,8,1.5,22,M,,M,,*5B
06/13/2021,18:17:08.989,$GPGGA,181709,3241.7575,N,11709.4422,W,1,8,1.5,22,M,,M,,*50
06/13/2021,18:17:10.089,$GPGGA,181710,3241.7574,N,11709.4418,W,1,9,1.5,22,M,,M,,*51
06/13/2021,18:17:10.990,$GPGGA,181711,3241.7570,N,11709.4414,W,1,9,1.5,22,M,,M,,*58
06/13/2021,18:17:12.089,$GPGGA,181712,3241.7568,N,11709.4410,W,1,9,1.5,22,M,,M,,*56
06/13/2021,18:17:12.990,$GPGGA,181713,3241.7565,N,11709.4407,W,1,9,1.5,22,M,,M,,*5C
06/13/2021,18:17:14.090,$GPGGA,181714,3241.7563,N,11709.4403,W,1,9,1.5,22,M,,M,,*59
06/13/2021,18:17:14.990,$GPGGA,181715,3241.7560,N,11709.4400,W,1,9,1.5,22,M,,M,,*58
06/13/2021,18:17:16.090,$GPGGA,181716,3241.7556,N,11709.4397,W,1,9,1.5,22,M,,M,,*57
06/13/2021,18:17:16.990,$GPGGA,181717,3241.7553,N,11709.4394,W,1,9,1.5,22,M,,M,,*50
06/13/2021,18:17:18.089,$GPGGA,181718,3241.7550,N,11709.4391,W,1,9,1.5,22,M,,M,,*59
06/13/2021,18:17:18.990,$GPGGA,181719,3241.7546,N,11709.4388,W,1,9,1.5,22,M,,M,,*57
06/13/2021,18:17:20.089,$GPGGA,181720,3241.7543,N,11709.4385,W,1,9,1.5,22,M,,M,,*55
06/13/2021,18:17:20.989,$GPGGA,181721,3241.7540,N,11709.4383,W,1,9,1.5,22,M,,M,,*51
06/13/2021,18:17:22.090,$GPGGA,181722,3241.7536,N,11709.4380,W,1,9,1.5,22,M,,M,,*50
06/13/2021,18:17:22.990,$GPGGA,181723,3241.7533,N,11709.4377,W,1,9,1.5,22,M,,M,,*5C
06/13/2021,18:17:24.090,$GPGGA,181724,3241.7531,N,11709.4374,W,1,9,1.5,22,M,,M,,*5A
06/13/2021,18:17:24.990,$GPGGA,181725,3241.7527,N,11709.4371,W,1,9,1.5,22,M,,M,,*59
06/13/2021,18:17:26.091,$GPGGA,181726,3241.7523,N,11709.4369,W,1,9,1.5,22,M,,M,,*57
06/13/2021,18:17:26.990,$GPGGA,181727,3241.7520,N,11709.4366,W,1,9,1.5,22,M,,M,,*5A
06/13/2021,18:17:28.090,$GPGGA,181728,3241.7517,N,11709.4364,W,1,9,1.5,22,M,,M,,*53
06/13/2021,18:17:28.990,$GPGGA,181729,3241.7514,N,11709.4361,W,1,9,1.5,22,M,,M,,*54
06/13/2021,18:17:30.090,$GPGGA,181730,3241.7511,N,11709.4358,W,1,9,1.5,22,M,,M,,*53
06/13/2021,18:17:30.990,$GPGGA,181731,3241.7509,N,11709.4355,W,1,9,1.5,22,M,,M,,*56
06/13/2021,18:17:32.090,$GPGGA,181732,3241.7505,N,11709.4353,W,1,9,1.5,22,M,,M,,*5F
06/13/2021,18:17:32.990,$GPGGA,181733,3241.7502,N,11709.4350,W,1,9,1.5,21,M,,M,,*59
06/13/2021,18:17:34.091,$GPGGA,181734,3241.7498,N,11709.4347,W,1,9,1.5,21,M,,M,,*5A
06/13/2021,18:17:34.990,$GPGGA,181735,3241.7495,N,11709.4345,W,1,9,1.5,21,M,,M,,*54
06/13/2021,18:17:36.091,$GPGGA,181736,3241.7492,N,11709.4342,W,1,9,1.5,21,M,,M,,*57
06/13/2021,18:17:36.990,$GPGGA,181737,3241.7489,N,11709.4339,W,1,9,1.5,21,M,,M,,*50
06/13/2021,18:17:38.090,$GPGGA,181738,3241.7486,N,11709.4337,W,1,9,1.5,21,M,,M,,*5E
06/13/2021,18:17:38.990,$GPGGA,181739,3241.7484,N,11709.4334,W,1,9,1.5,21,M,,M,,*5E
06/13/2021,18:17:40.091,$GPGGA,181740,3241.7481,N,11709.4331,W,1,9,1.5,21,M,,M,,*50
06/13/2021,18:17:40.991,$GPGGA,181741,3241.7478,N,11709.4329,W,1,9,1.5,21,M,,M,,*5E
06/13/2021,18:17:42.091,$GPGGA,181742,3241.7475,N,11709.4326,W,1,9,1.5,21,M,,M,,*5F
06/13/2021,18:17:42.991,$GPGGA,181743,3241.7473,N,11709.4323,W,1,9,1.5,21,M,,M,,*5D
06/13/2021,18:17:44.091,$GPGGA,181744,3241.7470,N,11709.4321,W,1,9,1.5,21,M,,M,,*5B
06/13/2021,18:17:44.991,$GPGGA,181745,3241.7467,N,11709.4318,W,1,9,1.5,21,M,,M,,*56
06/13/2021,18:17:46.091,$GPGGA,181746,3241.7466,N,11709.4316,W,1,9,1.5,21,M,,M,,*5A
06/13/2021,18:17:46.991,$GPGGA,181747,3241.7462,N,11709.4314,W,1,9,1.5,21,M,,M,,*5D
06/13/2021,18:17:48.091,$GPGGA,181748,3241.7460,N,11709.4311,W,1,9,1.5,21,M,,M,,*55
06/13/2021,18:17:48.991,$GPGGA,181749,3241.7457,N,11709.4309,W,1,9,1.5,21,M,,M,,*59
06/13/2021,18:17:50.091,$GPGGA,181750,3241.7455,N,11709.4306,W,1,9,1.5,21,M,,M,,*5C
06/13/2021,18:17:50.992,$GPGGA,181751,3241.7453,N,11709.4304,W,1,9,1.5,21,M,,M,,*59
06/13/2021,18:17:52.091,$GPGGA,181752,3241.7450,N,11709.4302,W,1,9,1.5,21,M,,M,,*5F
06/13/2021,18:17:52.991,$GPGGA,181753,3241.7448,N,11709.4300,W,1,9,1.5,21,M,,M,,*55
06/13/2021,18:17:54.091,$GPGGA,181754,3241.7446,N,11709.4297,W,1,9,1.5,21,M,,M,,*53
06/13/2021,18:17:54.992,$GPGGA,181755,3241.7444,N,11709.4295,W,1,9,1.5,21,M,,M,,*52
06/13/2021,18:17:56.091,$GPGGA,181756,3241.7442,N,11709.4293,W,1,9,1.5,21,M,,M,,*51
06/13/2021,18:17:56.991,$GPGGA,181757,3241.7440,N,11709.4292,W,1,9,1.5,21,M,,M,,*53
06/13/2021,18:17:58.091,$GPGGA,181758,3241.7438,N,11709.4290,W,1,9,1.5,21,M,,M,,*51
06/13/2021,18:17:58.991,$GPGGA,181759,3241.7437,N,11709.4288,W,1,9,1.5,21,M,,M,,*56
06/13/2021,18:18:00.092,$GPGGA,181800,3241.7435,N,11709.4287,W,1,9,1.5,21,M,,M,,*58
06/13/2021,18:18:00.991,$GPGGA,181801,3241.7433,N,11709.4285,W,1,9,1.5,21,M,,M,,*5D
06/13/2021,18:18:02.092,$GPGGA,181802,3241.7432,N,11709.4283,W,1,9,1.5,21,M,,M,,*59
06/13/2021,18:18:02.992,$GPGGA,181803,3241.7430,N,11709.4282,W,1,9,1.5,21,M,,M,,*5B
06/13/2021,18:18:04.092,$GPGGA,181804,3241.7430,N,11709.4281,W,1,9,1.5,21,M,,M,,*5F
06/13/2021,18:18:04.992,$GPGGA,181805,3241.7427,N,11709.4279,W,1,9,1.5,21,M,,M,,*5F
06/13/2021,18:18:06.092,$GPGGA,181806,3241.7426,N,11709.4277,W,1,9,1.5,21,M,,M,,*53
06/13/2021,18:18:06.992,$GPGGA,181807,3241.7426,N,11709.4276,W,1,9,1.5,21,M,,M,,*53
06/13/2021,18:18:08.092,$GPGGA,181808,3241.7424,N,11709.4275,W,1,9,1.5,21,M,,M,,*5D
06/13/2021,18:18:08.993,$GPGGA,181809,3241.7423,N,11709.4273,W,1,9,1.5,21,M,,M,,*5D
06/13/2021,18:18:10.093,$GPGGA,181810,3241.7422,N,11709.4272,W,1,9,1.5,21,M,,M,,*55
06/13/2021,18:18:10.992,$GPGGA,181811,3241.7421,N,11709.4270,W,1,9,1.5,21,M,,M,,*55
06/13/2021,18:18:12.092,$GPGGA,181812,3241.7419,N,11709.4269,W,1,9,1.5,21,M,,M,,*55
06/13/2021,18:18:12.993,$GPGGA,181813,3241.7419,N,11709.4268,W,1,9,1.5,21,M,,M,,*55
06/13/2021,18:18:14.092,$GPGGA,181814,3241.7417,N,11709.4266,W,1,9,1.5,21,M,,M,,*52
06/13/2021,18:18:14.993,$GPGGA,181815,3241.7416,N,11709.4265,W,1,9,1.5,21,M,,M,,*51
06/13/2021,18:18:16.093,$GPGGA,181816,3241.7415,N,11709.4263,W,1,9,1.5,21,M,,M,,*57
06/13/2021,18:18:16.993,$GPGGA,181817,3241.7415,N,11709.4262,W,1,9,1.5,21,M,,M,,*57
06/13/2021,18:18:18.093,$GPGGA,181818,3241.7413,N,11709.4260,W,1,9,1.5,21,M,,M,,*5C
06/13/2021,18:18:18.993,$GPGGA,181819,3241.7412,N,11709.4259,W,1,9,1.5,20,M,,M,,*57
06/13/2021,18:18:20.093,$GPGGA,181820,3241.7411,N,11709.4257,W,1,9,1.5,20,M,,M,,*50
06/13/2021,18:18:20.993,$GPGGA,181821,3241.7410,N,11709.4255,W,1,9,1.5,20,M,,M,,*52
06/13/2021,18:18:22.093,$GPGGA,181822,3241.7409,N,11709.4254,W,1,9,1.5,20,M,,M,,*58
06/13/2021,18:18:22.993,$GPGGA,181823,3241.7408,N,11709.4253,W,1,9,1.5,20,M,,M,,*5F
06/13/2021,18:18:24.093,$GPGGA,181824,3241.7408,N,11709.4251,W,1,9,1.5,20,M,,M,,*5A
06/13/2021,18:18:24.993,$GPGGA,181825,3241.7406,N,11709.4250,W,1,9,1.5,20,M,,M,,*54
06/13/2021,18:18:26.093,$GPGGA,181826,3241.7405,N,11709.4249,W,1,9,1.5,20,M,,M,,*5C
06/13/2021,18:18:26.993,$GPGGA,181827,3241.7404,N,11709.4248,W,1,9,1.5,20,M,,M,,*5D
06/13/2021,18:18:28.094,$GPGGA,181828,3241.7403,N,11709.4247,W,1,9,1.5,20,M,,M,,*5A
06/13/2021,18:18:28.993,$GPGGA,181829,3241.7404,N,11709.4246,W,1,9,1.5,20,M,,M,,*5D
06/13/2021,18:18:30.093,$GPGGA,181830,3241.7402,N,11709.4244,W,1,9,1.5,20,M,,M,,*51
06/13/2021,18:18:30.993,$GPGGA,181831,3241.7401,N,11709.4243,W,1,9,1.5,20,M,,M,,*54
06/13/2021,18:18:32.093,$GPGGA,181832,3241.7401,N,11709.4241,W,1,9,1.5,20,M,,M,,*55
06/13/2021,18:18:32.994,$GPGGA,181833,3241.7399,N,11709.4240,W,1,9,1.5,20,M,,M,,*53
06/13/2021,18:18:34.093,$GPGGA,181834,3241.7400,N,11709.4238,W,1,9,1.5,20,M,,M,,*5C
06/13/2021,18:18:34.994,$GPGGA,181835,3241.7398,N,11709.4237,W,1,9,1.5,19,M,,M,,*5E
06/13/2021,18:18:36.094,$GPGGA,181836,3241.7397,N,11709.4235,W,1,9,1.5,19,M,,M,,*50
06/13/2021,18:18:36.994,$GPGGA,181837,3241.7397,N,11709.4234,W,1,9,1.5,19,M,,M,,*50
06/13/2021,18:18:38.093,$GPGGA,181838,3241.7395,N,11709.4232,W,1,8,1.5,19,M,,M,,*5A
06/13/2021,18:18:38.994,$GPGGA,181839,3241.7394,N,11709.4231,W,1,8,1.8,19,M,,M,,*54
06/13/2021,18:18:40.094,$GPGGA,181840,3241.7393,N,11709.4230,W,1,8,1.8,19,M,,M,,*5C
06/13/2021,18:18:40.994,$GPGGA,181841,3241.7392,N,11709.4229,W,1,8,1.8,19,M,,M,,*54
06/13/2021,18:18:42.094,$GPGGA,181842,3241.7393,N,11709.4227,W,1,8,1.8,19,M,,M,,*58
06/13/2021,18:18:42.994,$GPGGA,181843,3241.7391,N,11709.4226,W,1,8,1.8,19,M,,M,,*5A
06/13/2021,18:18:44.094,$GPGGA,181844,3241.7392,N,11709.4225,W,1,8,1.8,19,M,,M,,*5D
06/13/2021,18:18:44.994,$GPGGA,181845,3241.7390,N,11709.4223,W,1,8,1.8,19,M,,M,,*58
06/13/2021,18:18:46.094,$GPGGA,181846,3241.7390,N,11709.4222,W,1,8,1.8,19,M,,M,,*5A
06/13/2021,18:18:46.994,$GPGGA,181847,3241.7390,N,11709.4221,W,1,8,1.8,18,M,,M,,*59
06/13/2021,18:18:48.094,$GPGGA,181848,3241.7390,N,11709.4220,W,1,8,1.8,18,M,,M,,*57
06/13/2021,18:18:48.994,$GPGGA,181849,3241.7390,N,11709.4219,W,1,8,1.8,18,M,,M,,*5C
06/13/2021,18:18:50.095,$GPGGA,181850,3241.7388,N,11709.4218,W,1,8,1.8,18,M,,M,,*5C
06/13/2021,18:18:50.994,$GPGGA,181851,3241.7389,N,11709.4217,W,1,8,1.8,18,M,,M,,*53
06/13/2021,18:18:52.095,$GPGGA,181852,3241.7387,N,11709.4216,W,1,8,1.8,18,M,,M,,*5F
06/13/2021,18:18:52.995,$GPGGA,181853,3241.7388,N,11709.4216,W,1,8,1.8,18,M,,M,,*51
06/13/2021,18:18:54.094,$GPGGA,181854,3241.7387,N,11709.4215,W,1,8,1.8,18,M,,M,,*5A
06/13/2021,18:18:54.994,$GPGGA,181855,3241.7388,N,11709.4216,W,1,8,1.8,18,M,,M,,*57
06/13/2021,18:18:56.094,$GPGGA,181856,3241.7387,N,11709.4215,W,1,8,1.8,18,M,,M,,*58
06/13/2021,18:18:56.995,$GPGGA,181857,3241.7388,N,11709.4214,W,1,8,1.8,18,M,,M,,*57
06/13/2021,18:18:58.094,$GPGGA,181858,3241.7387,N,11709.4214,W,1,8,1.8,18,M,,M,,*57
06/13/2021,18:18:58.995,$GPGGA,181859,3241.7388,N,11709.4214,W,1,8,1.8,18,M,,M,,*59
06/13/2021,18:19:00.095,$GPGGA,181900,3241.7387,N,11709.4214,W,1,8,1.8,18,M,,M,,*5B
06/13/2021,18:19:00.995,$GPGGA,181901,3241.7388,N,11709.4216,W,1,8,1.8,17,M,,M,,*58
06/13/2021,18:19:02.095,$GPGGA,181902,3241.7387,N,11709.4216,W,1,8,1.8,17,M,,M,,*54
06/13/2021,18:19:02.995,$GPGGA,181903,3241.7389,N,11709.4216,W,1,8,1.8,17,M,,M,,*5B
06/13/2021,18:19:04.095,$GPGGA,181904,3241.7388,N,11709.4217,W,1,8,1.8,17,M,,M,,*5C
06/13/2021,18:19:04.996,$GPGGA,181905,3241.7390,N,11709.4219,W,1,8,1.8,17,M,,M,,*5A
06/13/2021,18:19:06.095,$GPGGA,181906,3241.7390,N,11709.4220,W,1,8,1.8,17,M,,M,,*53
06/13/2021,18:19:06.995,$GPGGA,181907,3241.7390,N,11709.4220,W,1,8,1.8,17,M,,M,,*52
06/13/2021,18:19:08.095,$GPGGA,181908,3241.7392,N,11709.4221,W,1,8,1.8,17,M,,M,,*5E
06/13/2021,18:19:08.996,$GPGGA,181909,3241.7393,N,11709.4223,W,1,8,1.8,17,M,,M,,*5C
06/13/2021,18:19:10.095,$GPGGA,181910,3241.7393,N,11709.4224,W,1,8,1.8,17,M,,M,,*53
06/13/2021,18:19:10.996,$GPGGA,181911,3241.7394,N,11709.4225,W,1,8,1.8,17,M,,M,,*54
06/13/2021,18:19:12.095,$GPGGA,181912,3241.7396,N,11709.4227,W,1,8,1.8,17,M,,M,,*57
06/13/2021,18:19:12.995,$GPGGA,181913,3241.7397,N,11709.4228,W,1,8,1.8,17,M,,M,,*58
06/13/2021,18:19:14.095,$GPGGA,181914,3241.7397,N,11709.4230,W,1,8,1.8,17,M,,M,,*56
06/13/2021,18:19:14.995,$GPGGA,181915,3241.7399,N,11709.4232,W,1,8,1.8,17,M,,M,,*5B
06/13/2021,18:19:16.096,$GPGGA,181916,3241.7401,N,11709.4234,W,1,9,1.8,17,M,,M,,*59
06/13/2021,18:19:16.996,$GPGGA,181917,3241.7404,N,11709.4235,W,1,9,1.5,17,M,,M,,*51
06/13/2021,18:19:18.096,$GPGGA,181918,3241.7407,N,11709.4238,W,1,9,1.5,17,M,,M,,*50
06/13/2021,18:19:18.996,$GPGGA,181919,3241.7410,N,11709.4238,W,1,9,1.5,17,M,,M,,*57
06/13/2021,18:19:20.096,$GPGGA,181920,3241.7412,N,11709.4241,W,1,9,1.5,17,M,,M,,*51
06/13/2021,18:19:20.995,$GPGGA,181921,3241.7415,N,11709.4243,W,1,9,1.5,17,M,,M,,*55
06/13/2021,18:19:22.096,$GPGGA,181922,3241.7418,N,11709.4245,W,1,9,1.5,17,M,,M,,*5D
06/13/2021,18:19:22.996,$GPGGA,181923,3241.7421,N,11709.4248,W,1,9,1.5,17,M,,M,,*5B
06/13/2021,18:19:24.096,$GPGGA,181924,3241.7424,N,11709.4249,W,1,9,1.5,17,M,,M,,*58
06/13/2021,18:19:24.996,$GPGGA,181925,3241.7426,N,11709.4252,W,1,9,1.5,17,M,,M,,*51
06/13/2021,18:19:26.096,$GPGGA,181926,3241.7429,N,11709.4254,W,1,9,1.5,17,M,,M,,*5B
06/13/2021,18:19:26.997,$GPGGA,181927,3241.7432,N,11709.4257,W,1,9,1.5,17,M,,M,,*53
06/13/2021,18:19:28.097,$GPGGA,181928,3241.7435,N,11709.4261,W,1,9,1.5,17,M,,M,,*5E
06/13/2021,18:19:28.996,$GPGGA,181929,3241.7437,N,11709.4264,W,1,9,1.5,17,M,,M,,*58
06/13/2021,18:19:30.096,$GPGGA,181930,3241.7440,N,11709.4267,W,1,9,1.5,17,M,,M,,*53
06/13/2021,18:19:30.996,$GPGGA,181931,3241.7444,N,11709.4270,W,1,9,1.5,17,M,,M,,*50
06/13/2021,18:19:32.097,$GPGGA,181932,3241.7446,N,11709.4274,W,1,9,1.5,17,M,,M,,*55
06/13/2021,18:19:32.997,$GPGGA,181933,3241.7448,N,11709.4277,W,1,9,1.5,17,M,,M,,*59
06/13/2021,18:19:34.097,$GPGGA,181934,3241.7451,N,11709.4281,W,1,9,1.5,17,M,,M,,*5F
06/13/2021,18:19:34.996,$GPGGA,181935,3241.7455,N,11709.4285,W,1,9,1.5,17,M,,M,,*5E
06/13/2021,18:19:36.097,$GPGGA,181936,3241.7457,N,11709.4289,W,1,9,1.5,17,M,,M,,*53
06/13/2021,18:19:36.997,$GPGGA,181937,3241.7459,N,11709.4292,W,1,9,1.5,18,M,,M,,*59
06/13/2021,18:19:38.096,$GPGGA,181938,3241.7462,N,11709.4296,W,1,9,1.5,18,M,,M,,*5A
06/13/2021,18:19:38.997,$GPGGA,181939,3241.7465,N,11709.4301,W,1,9,1.5,18,M,,M,,*53
06/13/2021,18:19:40.097,$GPGGA,181940,3241.7466,N,11709.4306,W,1,9,1.5,18,M,,M,,*59
06/13/2021,18:19:40.997,$GPGGA,181941,3241.7469,N,11709.4310,W,1,9,1.5,18,M,,M,,*50
06/13/2021,18:19:42.097,$GPGGA,181942,3241.7472,N,11709.4314,W,1,9,1.5,18,M,,M,,*5D
06/13/2021,18:19:42.997,$GPGGA,181943,3241.7475,N,11709.4319,W,1,9,1.6,18,M,,M,,*55
06/13/2021,18:19:44.097,$GPGGA,181944,3241.7476,N,11709.4324,W,1,7,1.6,18,M,,M,,*51
06/13/2021,18:19:44.997,$GPGGA,181945,3241.7477,N,11709.4328,W,1,7,1.8,18,M,,M,,*53
06/13/2021,18:19:46.097,$GPGGA,181946,3241.7479,N,11709.4332,W,1,7,1.8,18,M,,M,,*55
06/13/2021,18:19:46.997,$GPGGA,181947,3241.7480,N,11709.4339,W,1,7,1.9,18,M,,M,,*58
06/13/2021,18:19:48.097,$GPGGA,181948,3241.7482,N,11709.4343,W,1,7,1.9,18,M,,M,,*58
06/13/2021,18:19:48.997,$GPGGA,181949,3241.7484,N,11709.4350,W,1,7,1.8,18,M,,M,,*5C
06/13/2021,18:19:50.098,$GPGGA,181950,3241.7486,N,11709.4354,W,1,7,1.8,18,M,,M,,*52
06/13/2021,18:19:50.997,$GPGGA,181951,3241.7487,N,11709.4361,W,1,7,1.9,18,M,,M,,*55
06/13/2021,18:19:52.097,$GPGGA,181952,3241.7491,N,11709.4365,W,1,7,1.9,18,M,,M,,*55
06/13/2021,18:19:52.998,$GPGGA,181953,3241.7493,N,11709.4371,W,1,7,1.9,18,M,,M,,*53
06/13/2021,18:19:54.098,$GPGGA,181954,3241.7495,N,11709.4376,W,1,7,1.9,18,M,,M,,*55
06/13/2021,18:19:54.998,$GPGGA,181955,3241.7498,N,11709.4382,W,1,7,1.9,18,M,,M,,*52
06/13/2021,18:19:56.098,$GPGGA,181956,3241.7502,N,11709.4389,W,1,8,1.9,18,M,,M,,*57
06/13/2021,18:19:56.998,$GPGGA,181957,3241.7505,N,11709.4394,W,1,8,1.8,18,M,,M,,*5C
06/13/2021,18:19:58.098,$GPGGA,181958,3241.7508,N,11709.4400,W,1,8,1.8,18,M,,M,,*54
06/13/2021,18:19:58.998,$GPGGA,181959,3241.7511,N,11709.4407,W,1,8,1.8,17,M,,M,,*55
06/13/2021,18:20:00.098,$GPGGA,182000,3241.7513,N,11709.4412,W,1,8,1.8,17,M,,M,,*55
06/13/2021,18:20:00.998,$GPGGA,182001,3241.7516,N,11709.4418,W,1,8,1.8,17,M,,M,,*5B
06/13/2021,18:20:02.098,$GPGGA,182002,3241.7520,N,11709.4425,W,1,8,1.8,17,M,,M,,*53
06/13/2021,18:20:02.998,$GPGGA,182003,3241.7526,N,11709.4429,W,1,8,1.5,17,M,,M,,*55
06/13/2021,18:20:04.098,$GPGGA,182004,3241.7531,N,11709.4436,W,1,9,1.5,17,M,,M,,*5B
06/13/2021,18:20:04.998,$GPGGA,182005,3241.7534,N,11709.4440,W,1,9,1.5,18,M,,M,,*51
06/13/2021,18:20:06.098,$GPGGA,182006,3241.7540,N,11709.4445,W,1,9,1.5,18,M,,M,,*54
06/13/2021,18:20:06.998,$GPGGA,182007,3241.7545,N,11709.4451,W,1,9,1.5,18,M,,M,,*55
06/13/2021,18:20:08.098,$GPGGA,182008,3241.7549,N,11709.4456,W,1,9,1.5,18,M,,M,,*51
06/13/2021,18:20:08.998,$GPGGA,182009,3241.7552,N,11709.4462,W,1,9,1.8,18,M,,M,,*50
06/13/2021,18:20:10.098,$GPGGA,182010,3241.7556,N,11709.4469,W,1,8,1.8,18,M,,M,,*56
06/13/2021,18:20:10.998,$GPGGA,182011,3241.7560,N,11709.4476,W,1,8,1.8,17,M,,M,,*53
06/13/2021,18:20:12.098,$GPGGA,182012,3241.7563,N,11709.4481,W,1,8,1.8,17,M,,M,,*5B
06/13/2021,18:20:12.998,$GPGGA,182013,3241.7567,N,11709.4488,W,1,8,1.8,17,M,,M,,*57
06/13/2021,18:20:14.098,$GPGGA,182014,3241.7570,N,11709.4494,W,1,8,1.8,17,M,,M,,*5B
06/13/2021,18:20:14.999,$GPGGA,182015,3241.7574,N,11709.4501,W,1,8,1.8,17,M,,M,,*53
06/13/2021,18:20:16.099,$GPGGA,182016,3241.7578,N,11709.4509,W,1,8,1.8,17,M,,M,,*54
06/13/2021,18:20:16.999,$GPGGA,182017,3241.7581,N,11709.4516,W,1,8,1.8,17,M,,M,,*5D
06/13/2021,18:20:18.098,$GPGGA,182018,3241.7585,N,11709.4523,W,1,9,1.8,17,M,,M,,*51
06/13/2021,18:20:18.998,$GPGGA,182019,3241.7591,N,11709.4530,W,1,9,1.8,17,M,,M,,*57
06/13/2021,18:20:20.099,$GPGGA,182020,3241.7595,N,11709.4537,W,1,8,1.8,17,M,,M,,*5F
06/13/2021,18:20:20.999,$GPGGA,182021,3241.7599,N,11709.4545,W,1,8,1.8,17,M,,M,,*57
06/13/2021,18:20:22.100,$GPGGA,182022,3241.7603,N,11709.4552,W,1,8,1.8,17,M,,M,,*52
06/13/2021,18:20:22.999,$GPGGA,182023,3241.7609,N,11709.4559,W,1,8,1.8,17,M,,M,,*52
06/13/2021,18:20:24.099,$GPGGA,182024,3241.7614,N,11709.4567,W,1,8,1.8,17,M,,M,,*54
06/13/2021,18:20:24.999,$GPGGA,182025,3241.7618,N,11709.4575,W,1,8,1.8,16,M,,M,,*5B
06/13/2021,18:20:26.100,$GPGGA,182026,3241.7624,N,11709.4584,W,1,8,1.8,16,M,,M,,*59
06/13/2021,18:20:26.999,$GPGGA,182027,3241.7628,N,11709.4592,W,1,8,1.8,16,M,,M,,*53
06/13/2021,18:20:28.100,$GPGGA,182028,3241.7634,N,11709.4600,W,1,8,1.8,16,M,,M,,*59
06/13/2021,18:20:28.999,$GPGGA,182029,3241.7639,N,11709.4608,W,1,8,1.8,16,M,,M,,*5D
06/13/2021,18:20:30.099,$GPGGA,182030,3241.7645,N,11709.4617,W,1,8,1.8,16,M,,M,,*50
06/13/2021,18:20:31.000,$GPGGA,182031,3241.7650,N,11709.4626,W,1,8,1.8,16,M,,M,,*57
06/13/2021,18:20:32.099,$GPGGA,182032,3241.7656,N,11709.4635,W,1,8,1.8,16,M,,M,,*50
06/13/2021,18:20:33.000,$GPGGA,182033,3241.7661,N,11709.4644,W,1,8,1.8,16,M,,M,,*53
06/13/2021,18:20:34.100,$GPGGA,182034,3241.7668,N,11709.4653,W,1,9,1.8,16,M,,M,,*5A
06/13/2021,18:20:35.000,$GPGGA,182035,3241.7675,N,11709.4661,W,1,9,1.5,16,M,,M,,*5B
06/13/2021,18:20:36.099,$GPGGA,182036,3241.7682,N,11709.4671,W,1,9,1.5,16,M,,M,,*51
06/13/2021,18:20:37.000,$GPGGA,182037,3241.7689,N,11709.4680,W,1,9,1.8,16,M,,M,,*58
06/13/2021,18:20:38.100,$GPGGA,182038,3241.7697,N,11709.4689,W,1,9,1.8,16,M,,M,,*51
06/13/2021,18:20:39.000,$GPGGA,182039,3241.7704,N,11709.4697,W,1,9,1.5,16,M,,M,,*59
06/13/2021,18:20:40.100,$GPGGA,182040,3241.7712,N,11709.4707,W,1,9,1.5,16,M,,M,,*58
06/13/2021,18:20:41.000,$GPGGA,182041,3241.7721,N,11709.4716,W,1,9,1.5,16,M,,M,,*59
06/13/2021,18:20:42.100,$GPGGA,182042,3241.7729,N,11709.4726,W,1,9,1.5,16,M,,M,,*51
06/13/2021,18:20:43.001,$GPGGA,182043,3241.7736,N,11709.4736,W,1,9,1.5,16,M,,M,,*5F
06/13/2021,18:20:44.101,$GPGGA,182044,3241.7744,N,11709.4747,W,1,9,1.5,16,M,,M,,*5B
06/13/2021,18:20:45.000,$GPGGA,182045,3241.7751,N,11709.4756,W,1,9,1.5,16,M,,M,,*5E
06/13/2021,18:20:46.100,$GPGGA,182046,3241.7758,N,11709.4766,W,1,9,1.5,16,M,,M,,*57
06/13/2021,18:20:47.000,$GPGGA,182047,3241.7765,N,11709.4777,W,1,9,1.5,17,M,,M,,*59
06/13/2021,18:20:48.101,$GPGGA,182048,3241.7772,N,11709.4787,W,1,9,1.5,17,M,,M,,*5F
06/13/2021,18:20:49.001,$GPGGA,182049,3241.7779,N,11709.4798,W,1,9,1.5,17,M,,M,,*5B
06/13/2021,18:20:50.100,$GPGGA,182050,3241.7787,N,11709.4809,W,1,9,1.5,17,M,,M,,*55
06/13/2021,18:20:51.001,$GPGGA,182051,3241.7794,N,11709.4819,W,1,9,1.5,17,M,,M,,*57
06/13/2021,18:20:52.101,$GPGGA,182052,3241.7802,N,11709.4830,W,1,9,1.5,17,M,,M,,*5F
06/13/2021,18:20:53.001,$GPGGA,182053,3241.7809,N,11709.4841,W,1,9,1.5,17,M,,M,,*53
06/13/2021,18:20:54.100,$GPGGA,182054,3241.7816,N,11709.4852,W,1,9,1.5,17,M,,M,,*58
06/13/2021,18:20:55.000,$GPGGA,182055,3241.7823,N,11709.4863,W,1,9,1.5,17,M,,M,,*5D
06/13/2021,18:20:56.101,$GPGGA,182056,3241.7831,N,11709.4874,W,1,9,1.5,17,M,,M,,*5B
06/13/2021,18:20:57.001,$GPGGA,182057,3241.7836,N,11709.4886,W,1,9,1.7,18,M,,M,,*5D
06/13/2021,18:20:58.101,$GPGGA,182058,3241.7841,N,11709.4899,W,1,8,1.7,18,M,,M,,*5D
06/13/2021,18:20:59.001,$GPGGA,182059,3241.7848,N,11709.4910,W,1,8,1.7,18,M,,M,,*55
06/13/2021,18:21:00.101,$GPGGA,182100,3241.7854,N,11709.4922,W,1,8,1.7,18,M,,M,,*54
06/13/2021,18:21:01.001,$GPGGA,182101,3241.7859,N,11709.4935,W,1,8,1.7,18,M,,M,,*5E
06/13/2021,18:21:02.101,$GPGGA,182102,3241.7867,N,11709.4947,W,1,8,1.7,18,M,,M,,*55
06/13/2021,18:21:03.002,$GPGGA,182103,3241.7874,N,11709.4960,W,1,8,1.7,18,M,,M,,*53
06/13/2021,18:21:04.101,$GPGGA,182104,3241.7880,N,11709.4971,W,1,8,1.7,18,M,,M,,*5F
06/13/2021,18:21:05.002,$GPGGA,182105,3241.7887,N,11709.4985,W,1,8,1.7,18,M,,M,,*52
06/13/2021,18:21:06.101,$GPGGA,182106,3241.7894,N,11709.4996,W,1,8,1.7,18,M,,M,,*51
06/13/2021,18:21:07.001,$GPGGA,182107,3241.7901,N,11709.5009,W,1,8,1.7,18,M,,M,,*53
06/13/2021,18:21:08.101,$GPGGA,182108,3241.7907,N,11709.5022,W,1,8,1.7,18,M,,M,,*53
06/13/2021,18:21:09.001,$GPGGA,182109,3241.7916,N,11709.5034,W,1,8,1.7,18,M,,M,,*55
06/13/2021,18:21:10.101,$GPGGA,182110,3241.7923,N,11709.5047,W,1,8,1.7,18,M,,M,,*5F
06/13/2021,18:21:11.002,$GPGGA,182111,3241.7930,N,11709.5061,W,1,8,1.7,18,M,,M,,*58
06/13/2021,18:21:12.102,$GPGGA,182112,3241.7938,N,11709.5073,W,1,8,1.7,18,M,,M,,*50
06/13/2021,18:21:13.002,$GPGGA,182113,3241.7945,N,11709.5087,W,1,8,1.7,18,M,,M,,*50
06/13/2021,18:21:14.102,$GPGGA,182114,3241.7953,N,11709.5099,W,1,8,1.7,18,M,,M,,*5F
06/13/2021,18:21:15.001,$GPGGA,182115,3241.7961,N,11709.5112,W,1,8,1.7,18,M,,M,,*5D
06/13/2021,18:21:16.101,$GPGGA,182116,3241.7968,N,11709.5126,W,1,8,1.7,18,M,,M,,*50
06/13/2021,18:21:17.002,$GPGGA,182117,3241.7977,N,11709.5138,W,1,8,1.7,18,M,,M,,*50
06/13/2021,18:21:18.102,$GPGGA,182118,3241.7985,N,11709.5152,W,1,8,1.7,18,M,,M,,*5E
06/13/2021,18:21:19.002,$GPGGA,182119,3241.7993,N,11709.5164,W,1,8,1.7,18,M,,M,,*5D
06/13/2021,18:21:20.102,$GPGGA,182120,3241.8000,N,11709.5178,W,1,8,1.7,18,M,,M,,*56
06/13/2021,18:21:21.002,$GPGGA,182121,3241.8008,N,11709.5192,W,1,8,1.7,18,M,,M,,*5B
06/13/2021,18:21:22.102,$GPGGA,182122,3241.8017,N,11709.5206,W,1,8,1.7,18,M,,M,,*58
06/13/2021,18:21:23.002,$GPGGA,182123,3241.8025,N,11709.5220,W,1,8,1.7,18,M,,M,,*5C
06/13/2021,18:21:24.102,$GPGGA,182124,3241.8033,N,11709.5233,W,1,8,1.7,18,M,,M,,*5E
06/13/2021,18:21:25.002,$GPGGA,182125,3241.8040,N,11709.5247,W,1,8,1.7,18,M,,M,,*58
06/13/2021,18:21:26.102,$GPGGA,182126,3241.8050,N,11709.5261,W,1,8,1.7,18,M,,M,,*5E
06/13/2021,18:21:27.002,$GPGGA,182127,3241.8058,N,11709.5275,W,1,8,1.7,18,M,,M,,*52
06/13/2021,18:21:28.102,$GPGGA,182128,3241.8066,N,11709.5289,W,1,8,1.7,18,M,,M,,*53
06/13/2021,18:21:29.002,$GPGGA,182129,3241.8075,N,11709.5303,W,1,8,1.7,18,M,,M,,*53
06/13/2021,18:21:30.103,$GPGGA,182130,3241.8083,N,11709.5316,W,1,8,1.7,18,M,,M,,*56
06/13/2021,18:21:31.002,$GPGGA,182131,3241.8093,N,11709.5330,W,1,8,1.7,18,M,,M,,*52
06/13/2021,18:21:32.102,$GPGGA,182132,3241.8101,N,11709.5344,W,1,8,1.7,18,M,,M,,*58
06/13/2021,18:21:33.003,$GPGGA,182133,3241.8109,N,11709.5358,W,1,8,1.7,18,M,,M,,*5C
06/13/2021,18:21:34.103,$GPGGA,182134,3241.8118,N,11709.5372,W,1,8,1.7,18,M,,M,,*53
06/13/2021,18:21:35.003,$GPGGA,182135,3241.8127,N,11709.5387,W,1,8,1.7,18,M,,M,,*54
06/13/2021,18:21:36.102,$GPGGA,182136,3241.8134,N,11709.5401,W,1,8,1.7,18,M,,M,,*5C
06/13/2021,18:21:37.003,$GPGGA,182137,3241.8144,N,11709.5415,W,1,8,1.7,18,M,,M,,*5F
06/13/2021,18:21:38.103,$GPGGA,182138,3241.8152,N,11709.5430,W,1,8,1.7,18,M,,M,,*50
06/13/2021,18:21:39.003,$GPGGA,182139,3241.8161,N,11709.5444,W,1,8,1.7,18,M,,M,,*52
06/13/2021,18:21:40.103,$GPGGA,182140,3241.8169,N,11709.5459,W,1,8,1.7,18,M,,M,,*58
06/13/2021,18:21:41.004,$GPGGA,182141,3241.8177,N,11709.5473,W,1,8,1.7,18,M,,M,,*5E
06/13/2021,18:21:42.104,$GPGGA,182142,3241.8185,N,11709.5488,W,1,8,1.7,18,M,,M,,*54
06/13/2021,18:21:43.004,$GPGGA,182143,3241.8195,N,11709.5502,W,1,8,1.7,18,M,,M,,*57
06/13/2021,18:21:44.104,$GPGGA,182144,3241.8203,N,11709.5517,W,1,8,1.7,18,M,,M,,*58
06/13/2021,18:21:45.004,$GPGGA,182145,3241.8213,N,11709.5532,W,1,8,1.7,18,M,,M,,*5F
06/13/2021,18:21:46.103,$GPGGA,182146,3241.8221,N,11709.5546,W,1,8,1.7,18,M,,M,,*5E
06/13/2021,18:21:47.003,$GPGGA,182147,3241.8230,N,11709.5561,W,1,8,1.7,18,M,,M,,*5A
06/13/2021,18:21:48.103,$GPGGA,182148,3241.8239,N,11709.5576,W,1,8,1.7,18,M,,M,,*5A
06/13/2021,18:21:49.003,$GPGGA,182149,3241.8248,N,11709.5592,W,1,8,1.7,18,M,,M,,*57
06/13/2021,18:21:50.103,$GPGGA,182150,3241.8257,N,11709.5607,W,1,8,1.7,18,M,,M,,*5E
06/13/2021,18:21:51.004,$GPGGA,182151,3241.8266,N,11709.5621,W,1,8,1.7,18,M,,M,,*59
06/13/2021,18:21:52.104,$GPGGA,182152,3241.8275,N,11709.5636,W,1,8,1.7,18,M,,M,,*5E
06/13/2021,18:21:53.004,$GPGGA,182153,3241.8284,N,11709.5651,W,1,8,1.7,18,M,,M,,*50
06/13/2021,18:21:54.104,$GPGGA,182154,3241.8293,N,11709.5666,W,1,8,1.7,18,M,,M,,*55
06/13/2021,18:21:55.004,$GPGGA,182155,3241.8302,N,11709.5681,W,1,8,1.7,18,M,,M,,*54
06/13/2021,18:21:56.104,$GPGGA,182156,3241.8311,N,11709.5697,W,1,8,1.7,18,M,,M,,*52
06/13/2021,18:21:57.004,$GPGGA,182157,3241.8320,N,11709.5712,W,1,8,1.7,18,M,,M,,*5D
06/13/2021,18:21:58.104,$GPGGA,182158,3241.8329,N,11709.5727,W,1,8,1.7,18,M,,M,,*5D
06/13/2021,18:21:59.004,$GPGGA,182159,3241.8337,N,11709.5742,W,1,8,1.7,18,M,,M,,*50
06/13/2021,18:22:00.104,$GPGGA,182200,3241.8347,N,11709.5758,W,1,8,1.7,18,M,,M,,*53
06/13/2021,18:22:01.004,$GPGGA,182201,3241.8355,N,11709.5773,W,1,8,1.7,18,M,,M,,*58
06/13/2021,18:22:02.104,$GPGGA,182202,3241.8365,N,11709.5788,W,1,8,1.7,18,M,,M,,*5C
06/13/2021,18:22:03.005,$GPGGA,182203,3241.8373,N,11709.5803,W,1,8,1.7,18,M,,M,,*56
06/13/2021,18:22:04.104,$GPGGA,182204,3241.8383,N,11709.5820,W,1,8,1.7,18,M,,M,,*5F
06/13/2021,18:22:05.005,$GPGGA,182205,3241.8393,N,11709.5835,W,1,8,1.7,18,M,,M,,*5B
06/13/2021,18:22:06.104,$GPGGA,182206,3241.8401,N,11709.5850,W,1,8,1.7,18,M,,M,,*57
06/13/2021,18:22:07.004,$GPGGA,182207,3241.8411,N,11709.5865,W,1,8,1.7,18,M,,M,,*51
06/13/2021,18:22:08.105,$GPGGA,182208,3241.8419,N,11709.5882,W,1,8,1.7,18,M,,M,,*5F
06/13/2021,18:22:09.005,$GPGGA,182209,3241.8430,N,11709.5897,W,1,8,1.7,18,M,,M,,*51
06/13/2021,18:22:10.104,$GPGGA,182210,3241.8437,N,11709.5914,W,1,9,1.7,18,M,,M,,*55
06/13/2021,18:22:11.004,$GPGGA,182211,3241.8448,N,11709.5929,W,1,9,1.5,18,M,,M,,*50
06/13/2021,18:22:12.105,$GPGGA,182212,3241.8456,N,11709.5946,W,1,8,1.5,18,M,,M,,*54
06/13/2021,18:22:13.004,$GPGGA,182213,3241.8466,N,11709.5961,W,1,8,1.7,18,M,,M,,*51
06/13/2021,18:22:14.104,$GPGGA,182214,3241.8477,N,11709.5977,W,1,8,1.7,18,M,,M,,*51
06/13/2021,18:22:15.005,$GPGGA,182215,3241.8485,N,11709.5993,W,1,8,1.7,18,M,,M,,*57
06/13/2021,18:22:16.105,$GPGGA,182216,3241.8495,N,11709.6009,W,1,8,1.7,18,M,,M,,*5C
06/13/2021,18:22:17.005,$GPGGA,182217,3241.8505,N,11709.6026,W,1,8,1.7,18,M,,M,,*58
06/13/2021,18:22:18.105,$GPGGA,182218,3241.8514,N,11709.6041,W,1,8,1.7,18,M,,M,,*56
06/13/2021,18:22:19.005,$GPGGA,182219,3241.8524,N,11709.6058,W,1,8,1.7,18,M,,M,,*5C
06/13/2021,18:22:20.105,$GPGGA,182220,3241.8534,N,11709.6073,W,1,8,1.7,18,M,,M,,*5E
06/13/2021,18:22:21.005,$GPGGA,182221,3241.8542,N,11709.6089,W,1,8,1.7,18,M,,M,,*5B
06/13/2021,18:22:22.105,$GPGGA,182222,3241.8553,N,11709.6106,W,1,8,1.7,18,M,,M,,*5E
06/13/2021,18:22:23.005,$GPGGA,182223,3241.8561,N,11709.6123,W,1,8,1.7,18,M,,M,,*59
06/13/2021,18:22:24.105,$GPGGA,182224,3241.8571,N,11709.6138,W,1,8,1.7,18,M,,M,,*55
06/13/2021,18:22:25.005,$GPGGA,182225,3241.8581,N,11709.6154,W,1,8,1.7,18,M,,M,,*51
06/13/2021,18:22:26.105,$GPGGA,182226,3241.8589,N,11709.6171,W,1,8,1.7,18,M,,M,,*5D
06/13/2021,18:22:27.005,$GPGGA,182227,3241.8600,N,11709.6188,W,1,8,1.7,17,M,,M,,*57
06/13/2021,18:22:28.106,$GPGGA,182228,3241.8610,N,11709.6203,W,1,8,1.7,17,M,,M,,*59
06/13/2021,18:22:29.006,$GPGGA,182229,3241.8618,N,11709.6219,W,1,8,1.7,17,M,,M,,*5B
06/13/2021,18:22:30.105,$GPGGA,182230,3241.8629,N,11709.6236,W,1,8,1.7,17,M,,M,,*5C
06/13/2021,18:22:31.006,$GPGGA,182231,3241.8638,N,11709.6253,W,1,8,1.7,17,M,,M,,*5E
06/13/2021,18:22:32.105,$GPGGA,182232,3241.8647,N,11709.6268,W,1,8,1.7,17,M,,M,,*5D
06/13/2021,18:22:33.005,$GPGGA,182233,3241.8657,N,11709.6284,W,1,8,1.7,17,M,,M,,*5F
06/13/2021,18:22:34.106,$GPGGA,182234,3241.8667,N,11709.6301,W,1,8,1.7,17,M,,M,,*57
06/13/2021,18:22:35.006,$GPGGA,182235,3241.8676,N,11709.6316,W,1,8,1.7,17,M,,M,,*50
06/13/2021,18:22:36.106,$GPGGA,182236,3241.8686,N,11709.6333,W,1,8,1.7,17,M,,M,,*5B
06/13/2021,18:22:37.006,$GPGGA,182237,3241.8696,N,11709.6349,W,1,8,1.7,17,M,,M,,*56
06/13/2021,18:22:38.106,$GPGGA,182238,3241.8705,N,11709.6366,W,1,8,1.7,17,M,,M,,*5F
06/13/2021,18:22:39.006,$GPGGA,182239,3241.8715,N,11709.6383,W,1,8,1.7,17,M,,M,,*54
06/13/2021,18:22:40.106,$GPGGA,182240,3241.8725,N,11709.6398,W,1,8,1.7,17,M,,M,,*53
06/13/2021,18:22:41.006,$GPGGA,182241,3241.8734,N,11709.6416,W,1,8,1.7,17,M,,M,,*53
06/13/2021,18:22:42.106,$GPGGA,182242,3241.8745,N,11709.6431,W,1,8,1.7,17,M,,M,,*53
06/13/2021,18:22:43.006,$GPGGA,182243,3241.8754,N,11709.6449,W,1,8,1.7,17,M,,M,,*5D
06/13/2021,18:22:44.107,$GPGGA,182244,3241.8765,N,11709.6464,W,1,8,1.7,17,M,,M,,*57
06/13/2021,18:22:44.997,$GPGGA,182245,3241.8774,N,11709.6481,W,1,8,1.7,17,M,,M,,*5D
06/13/2021,18:22:46.107,$GPGGA,182246,3241.8784,N,11709.6497,W,1,8,1.7,17,M,,M,,*56
06/13/2021,18:22:47.007,$GPGGA,182247,3241.8794,N,11709.6514,W,1,8,1.7,17,M,,M,,*5C
06/13/2021,18:22:48.107,$GPGGA,182248,3241.8803,N,11709.6530,W,1,8,1.7,17,M,,M,,*54
06/13/2021,18:22:49.006,$GPGGA,182249,3241.8813,N,11709.6547,W,1,8,1.7,17,M,,M,,*54
06/13/2021,18:22:50.107,$GPGGA,182250,3241.8823,N,11709.6564,W,1,8,1.7,17,M,,M,,*5E
06/13/2021,18:22:51.006,$GPGGA,182251,3241.8833,N,11709.6580,W,1,8,1.7,17,M,,M,,*54
06/13/2021,18:22:52.106,$GPGGA,182252,3241.8842,N,11709.6597,W,1,8,1.7,17,M,,M,,*57
06/13/2021,18:22:53.007,$GPGGA,182253,3241.8853,N,11709.6613,W,1,8,1.7,16,M,,M,,*58
06/13/2021,18:22:54.107,$GPGGA,182254,3241.8863,N,11709.6629,W,1,8,1.7,16,M,,M,,*55
06/13/2021,18:22:55.006,$GPGGA,182255,3241.8873,N,11709.6647,W,1,8,1.7,16,M,,M,,*5D
06/13/2021,18:22:56.106,$GPGGA,182256,3241.8882,N,11709.6662,W,1,8,1.7,16,M,,M,,*57
06/13/2021,18:22:56.997,$GPGGA,182257,3241.8893,N,11709.6678,W,1,8,1.7,16,M,,M,,*5D
06/13/2021,18:22:58.107,$GPGGA,182258,3241.8904,N,11709.6695,W,1,8,1.7,16,M,,M,,*5E
06/13/2021,18:22:59.007,$GPGGA,182259,3241.8914,N,11709.6712,W,1,8,1.7,16,M,,M,,*50
06/13/2021,18:23:00.107,$GPGGA,182300,3241.8924,N,11709.6728,W,1,8,1.7,16,M,,M,,*57
06/13/2021,18:23:01.007,$GPGGA,182301,3241.8933,N,11709.6745,W,1,8,1.7,16,M,,M,,*5B
06/13/2021,18:23:02.107,$GPGGA,182302,3241.8943,N,11709.6763,W,1,8,1.7,16,M,,M,,*5B
06/13/2021,18:23:02.997,$GPGGA,182303,3241.8954,N,11709.6779,W,1,8,1.7,16,M,,M,,*57
06/13/2021,18:23:04.107,$GPGGA,182304,3241.8964,N,11709.6796,W,1,8,1.7,16,M,,M,,*52
06/13/2021,18:23:04.997,$GPGGA,182305,3241.8974,N,11709.6813,W,1,8,1.7,16,M,,M,,*50
06/13/2021,18:23:06.108,$GPGGA,182306,3241.8983,N,11709.6829,W,1,8,1.7,16,M,,M,,*52
06/13/2021,18:23:07.007,$GPGGA,182307,3241.8994,N,11709.6846,W,1,8,1.7,16,M,,M,,*5C
06/13/2021,18:23:08.108,$GPGGA,182308,3241.9004,N,11709.6864,W,1,8,1.7,16,M,,M,,*52
06/13/2021,18:23:08.998,$GPGGA,182309,3241.9014,N,11709.6880,W,1,8,1.7,16,M,,M,,*58
06/13/2021,18:23:10.157,$GPGGA,182310,3241.9023,N,11709.6897,W,1,8,1.7,16,M,,M,,*52
06/13/2021,18:23:11.057,$GPGGA,182311,3241.9034,N,11709.6915,W,1,8,1.7,16,M,,M,,*5E
06/13/2021,18:23:12.157,$GPGGA,182312,3241.9044,N,11709.6931,W,1,8,1.7,16,M,,M,,*5C
06/13/2021,18:23:13.048,$GPGGA,182313,3241.9055,N,11709.6949,W,1,8,1.7,16,M,,M,,*52
06/13/2021,18:23:14.158,$GPGGA,182314,3241.9066,N,11709.6966,W,1,8,1.7,16,M,,M,,*58
06/13/2021,18:23:15.048,$GPGGA,182315,3241.9076,N,11709.6984,W,1,8,1.7,16,M,,M,,*54
06/13/2021,18:23:16.148,$GPGGA,182316,3241.9086,N,11709.7001,W,1,8,1.7,16,M,,M,,*5D
06/13/2021,18:23:17.048,$GPGGA,182317,3241.9097,N,11709.7020,W,1,8,1.7,16,M,,M,,*5F
06/13/2021,18:23:18.158,$GPGGA,182318,3241.9106,N,11709.7037,W,1,8,1.7,16,M,,M,,*5F
06/13/2021,18:23:19.048,$GPGGA,182319,3241.9117,N,11709.7055,W,1,8,1.7,16,M,,M,,*5A
06/13/2021,18:23:20.158,$GPGGA,182320,3241.9128,N,11709.7072,W,1,8,1.7,16,M,,M,,*59
06/13/2021,18:23:21.048,$GPGGA,182321,3241.9139,N,11709.7089,W,1,8,1.7,16,M,,M,,*5C
06/13/2021,18:23:22.158,$GPGGA,182322,3241.9151,N,11709.7107,W,1,8,1.7,16,M,,M,,*56
06/13/2021,18:23:23.049,$GPGGA,182323,3241.9162,N,11709.7125,W,1,8,1.7,16,M,,M,,*57
06/13/2021,18:23:24.158,$GPGGA,182324,3241.9173,N,11709.7144,W,1,8,1.7,16,M,,M,,*57
06/13/2021,18:23:25.048,$GPGGA,182325,3241.9184,N,11709.7162,W,1,8,1.7,16,M,,M,,*5A
06/13/2021,18:23:26.149,$GPGGA,182326,3241.9195,N,11709.7182,W,1,8,1.7,16,M,,M,,*57
06/13/2021,18:23:27.049,$GPGGA,182327,3241.9206,N,11709.7200,W,1,8,1.7,16,M,,M,,*56
06/13/2021,18:23:28.152,$GPGGA,182328,3241.9218,N,11709.7218,W,1,8,1.7,16,M,,M,,*5F
06/13/2021,18:23:29.048,$GPGGA,182329,3241.9229,N,11709.7236,W,1,8,1.7,16,M,,M,,*50
06/13/2021,18:23:30.159,$GPGGA,182330,3241.9240,N,11709.7255,W,1,8,1.7,16,M,,M,,*52
06/13/2021,18:23:31.048,$GPGGA,182331,3241.9251,N,11709.7276,W,1,8,1.7,16,M,,M,,*52
06/13/2021,18:23:32.149,$GPGGA,182332,3241.9264,N,11709.7294,W,1,8,1.7,16,M,,M,,*5B
06/13/2021,18:23:33.049,$GPGGA,182333,3241.9276,N,11709.7313,W,1,8,1.7,16,M,,M,,*57
06/13/2021,18:23:34.149,$GPGGA,182334,3241.9287,N,11709.7332,W,1,8,1.7,16,M,,M,,*5D
06/13/2021,18:23:35.049,$GPGGA,182335,3241.9300,N,11709.7352,W,1,8,1.7,16,M,,M,,*54
06/13/2021,18:23:36.149,$GPGGA,182336,3241.9312,N,11709.7371,W,1,9,1.7,16,M,,M,,*54
06/13/2021,18:23:37.049,$GPGGA,182337,3241.9326,N,11709.7392,W,1,9,1.5,16,M,,M,,*5D
06/13/2021,18:23:38.149,$GPGGA,182338,3241.9340,N,11709.7410,W,1,9,1.5,16,M,,M,,*5F
06/13/2021,18:23:39.049,$GPGGA,182339,3241.9352,N,11709.7431,W,1,9,1.7,16,M,,M,,*5C
06/13/2021,18:23:40.150,$GPGGA,182340,3241.9363,N,11709.7450,W,1,8,1.7,16,M,,M,,*56
06/13/2021,18:23:41.049,$GPGGA,182341,3241.9376,N,11709.7471,W,1,8,1.7,16,M,,M,,*50
06/13/2021,18:23:42.149,$GPGGA,182342,3241.9388,N,11709.7491,W,1,8,1.7,16,M,,M,,*5C
06/13/2021,18:23:43.050,$GPGGA,182343,3241.9399,N,11709.7511,W,1,8,1.7,16,M,,M,,*54
06/13/2021,18:23:44.149,$GPGGA,182344,3241.9412,N,11709.7533,W,1,8,1.7,16,M,,M,,*57
06/13/2021,18:23:45.049,$GPGGA,182345,3241.9424,N,11709.7554,W,1,8,1.7,16,M,,M,,*52
06/13/2021,18:23:46.149,$GPGGA,182346,3241.9437,N,11709.7573,W,1,8,1.7,16,M,,M,,*56
06/13/2021,18:23:47.049,$GPGGA,182347,3241.9449,N,11709.7594,W,1,8,1.7,16,M,,M,,*57
06/13/2021,18:23:48.150,$GPGGA,182348,3241.9462,N,11709.7615,W,1,8,1.7,16,M,,M,,*5B
06/13/2021,18:23:49.050,$GPGGA,182349,3241.9474,N,11709.7635,W,1,8,1.7,16,M,,M,,*5F
06/13/2021,18:23:50.150,$GPGGA,182350,3241.9487,N,11709.7656,W,1,8,1.7,16,M,,M,,*5E
06/13/2021,18:23:51.050,$GPGGA,182351,3241.9499,N,11709.7677,W,1,8,1.7,16,M,,M,,*53
06/13/2021,18:23:52.150,$GPGGA,182352,3241.9511,N,11709.7697,W,1,8,1.7,16,M,,M,,*5F
06/13/2021,18:23:53.050,$GPGGA,182353,3241.9524,N,11709.7720,W,1,8,1.7,16,M,,M,,*55
06/13/2021,18:23:54.150,$GPGGA,182354,3241.9536,N,11709.7740,W,1,8,1.7,16,M,,M,,*57
06/13/2021,18:23:55.050,$GPGGA,182355,3241.9549,N,11709.7761,W,1,8,1.7,16,M,,M,,*5D
06/13/2021,18:23:56.150,$GPGGA,182356,3241.9561,N,11709.7783,W,1,8,1.7,16,M,,M,,*58
06/13/2021,18:23:57.050,$GPGGA,182357,3241.9575,N,11709.7804,W,1,8,1.7,16,M,,M,,*5C
06/13/2021,18:23:58.150,$GPGGA,182358,3241.9587,N,11709.7826,W,1,8,1.7,16,M,,M,,*5E
06/13/2021,18:23:59.050,$GPGGA,182359,3241.9600,N,11709.7847,W,1,8,1.7,16,M,,M,,*54
06/13/2021,18:24:00.150,$GPGGA,182400,3241.9612,N,11709.7868,W,1,8,1.7,16,M,,M,,*51
06/13/2021,18:24:01.050,$GPGGA,182401,3241.9626,N,11709.7890,W,1,8,1.7,16,M,,M,,*50
06/13/2021,18:24:02.150,$GPGGA,182402,3241.9639,N,11709.7912,W,1,8,1.7,16,M,,M,,*56
06/13/2021,18:24:03.050,$GPGGA,182403,3241.9651,N,11709.7934,W,1,8,1.7,16,M,,M,,*5D
06/13/2021,18:24:04.150,$GPGGA,182404,3241.9665,N,11709.7955,W,1,8,1.7,16,M,,M,,*5A
06/13/2021,18:24:05.050,$GPGGA,182405,3241.9677,N,11709.7977,W,1,8,1.7,16,M,,M,,*58
06/13/2021,18:24:06.150,$GPGGA,182406,3241.9691,N,11709.7999,W,1,8,1.7,16,M,,M,,*53
06/13/2021,18:24:07.051,$GPGGA,182407,3241.9705,N,11709.8021,W,1,8,1.7,16,M,,M,,*5B
06/13/2021,18:24:08.151,$GPGGA,182408,3241.9717,N,11709.8043,W,1,8,1.7,16,M,,M,,*53
06/13/2021,18:24:09.050,$GPGGA,182409,3241.9731,N,11709.8065,W,1,8,1.7,16,M,,M,,*52
06/13/2021,18:24:10.151,$GPGGA,182410,3241.9745,N,11709.8087,W,1,8,1.7,16,M,,M,,*55
06/13/2021,18:24:11.050,$GPGGA,182411,3241.9759,N,11709.8111,W,1,8,1.7,16,M,,M,,*57
06/13/2021,18:24:12.151,$GPGGA,182412,3241.9771,N,11709.8132,W,1,8,1.7,16,M,,M,,*5F
06/13/2021,18:24:13.051,$GPGGA,182413,3241.9785,N,11709.8155,W,1,8,1.7,16,M,,M,,*54
06/13/2021,18:24:14.150,$GPGGA,182414,3241.9799,N,11709.8177,W,1,8,1.7,16,M,,M,,*5E
06/13/2021,18:24:15.051,$GPGGA,182415,3241.9814,N,11709.8199,W,1,8,1.7,16,M,,M,,*55
06/13/2021,18:24:16.151,$GPGGA,182416,3241.9827,N,11709.8223,W,1,8,1.7,16,M,,M,,*54
06/13/2021,18:24:17.051,$GPGGA,182417,3241.9841,N,11709.8244,W,1,8,1.7,16,M,,M,,*54
06/13/2021,18:24:18.151,$GPGGA,182418,3241.9854,N,11709.8266,W,1,8,1.7,16,M,,M,,*5F
06/13/2021,18:24:19.051,$GPGGA,182419,3241.9868,N,11709.8289,W,1,8,1.7,16,M,,M,,*50
06/13/2021,18:24:20.151,$GPGGA,182420,3241.9883,N,11709.8313,W,1,8,1.7,16,M,,M,,*5D
06/13/2021,18:24:21.051,$GPGGA,182421,3241.9897,N,11709.8335,W,1,8,1.7,16,M,,M,,*5D
06/13/2021,18:24:22.151,$GPGGA,182422,3241.9911,N,11709.8357,W,1,8,1.7,16,M,,M,,*55
06/13/2021,18:24:23.052,$GPGGA,182423,3241.9925,N,11709.8381,W,1,8,1.7,16,M,,M,,*58
06/13/2021,18:24:24.151,$GPGGA,182424,3241.9939,N,11709.8403,W,1,8,1.7,16,M,,M,,*5F
06/13/2021,18:24:25.051,$GPGGA,182425,3241.9953,N,11709.8425,W,1,8,1.7,16,M,,M,,*56
06/13/2021,18:24:26.151,$GPGGA,182426,3241.9966,N,11709.8448,W,1,8,1.7,16,M,,M,,*58
06/13/2021,18:24:27.051,$GPGGA,182427,3241.9980,N,11709.8470,W,1,8,1.7,16,M,,M,,*5A
06/13/2021,18:24:28.151,$GPGGA,182428,3241.9995,N,11709.8493,W,1,8,1.7,16,M,,M,,*5C
06/13/2021,18:24:29.051,$GPGGA,182429,3242.0009,N,11709.8515,W,1,8,1.7,16,M,,M,,*54
06/13/2021,18:24:30.151,$GPGGA,182430,3242.0023,N,11709.8538,W,1,8,1.7,16,M,,M,,*5B
06/13/2021,18:24:31.052,$GPGGA,182431,3242.0038,N,11709.8562,W,1,8,1.7,16,M,,M,,*5F
06/13/2021,18:24:32.152,$GPGGA,182432,3242.0052,N,11709.8584,W,1,8,1.7,16,M,,M,,*58
06/13/2021,18:24:33.052,$GPGGA,182433,3242.0066,N,11709.8607,W,1,8,1.7,16,M,,M,,*56
06/13/2021,18:24:34.152,$GPGGA,182434,3242.0080,N,11709.8631,W,1,8,1.7,16,M,,M,,*5C
06/13/2021,18:24:35.052,$GPGGA,182435,3242.0094,N,11709.8653,W,1,8,1.7,16,M,,M,,*5C
06/13/2021,18:24:36.152,$GPGGA,182436,3242.0109,N,11709.8676,W,1,8,1.7,16,M,,M,,*5D
06/13/2021,18:24:37.052,$GPGGA,182437,3242.0123,N,11709.8700,W,1,8,1.7,16,M,,M,,*54
06/13/2021,18:24:38.152,$GPGGA,182438,3242.0136,N,11709.8723,W,1,8,1.7,16,M,,M,,*5E
06/13/2021,18:24:39.052,$GPGGA,182439,3242.0152,N,11709.8747,W,1,8,1.7,16,M,,M,,*5F
06/13/2021,18:24:40.152,$GPGGA,182440,3242.0165,N,11709.8770,W,1,8,1.7,16,M,,M,,*51
06/13/2021,18:24:41.052,$GPGGA,182441,3242.0181,N,11709.8794,W,1,8,1.7,16,M,,M,,*50
06/13/2021,18:24:42.152,$GPGGA,182442,3242.0195,N,11709.8818,W,1,8,1.7,16,M,,M,,*5D
06/13/2021,18:24:43.053,$GPGGA,182443,3242.0210,N,11709.8840,W,1,8,1.7,16,M,,M,,*5F
06/13/2021,18:24:44.153,$GPGGA,182444,3242.0224,N,11709.8863,W,1,8,1.7,16,M,,M,,*5E
06/13/2021,18:24:45.053,$GPGGA,182445,3242.0239,N,11709.8887,W,1,8,1.7,16,M,,M,,*59
06/13/2021,18:24:46.152,$GPGGA,182446,3242.0253,N,11709.8912,W,1,8,1.7,16,M,,M,,*5B
06/13/2021,18:24:47.052,$GPGGA,182447,3242.0268,N,11709.8934,W,1,8,1.7,16,M,,M,,*56
06/13/2021,18:24:48.153,$GPGGA,182448,3242.0282,N,11709.8959,W,1,8,1.7,16,M,,M,,*56
06/13/2021,18:24:49.053,$GPGGA,182449,3242.0295,N,11709.8982,W,1,8,1.7,16,M,,M,,*57
06/13/2021,18:24:50.153,$GPGGA,182450,3242.0311,N,11709.9007,W,1,8,1.7,16,M,,M,,*57
06/13/2021,18:24:51.053,$GPGGA,182451,3242.0324,N,11709.9030,W,1,8,1.7,16,M,,M,,*54
06/13/2021,18:24:52.153,$GPGGA,182452,3242.0338,N,11709.9053,W,1,8,1.7,16,M,,M,,*5F
06/13/2021,18:24:53.052,$GPGGA,182453,3242.0352,N,11709.9077,W,1,8,1.7,16,M,,M,,*54
06/13/2021,18:24:54.153,$GPGGA,182454,3242.0367,N,11709.9101,W,1,8,1.7,16,M,,M,,*55
06/13/2021,18:24:55.053,$GPGGA,182455,3242.0381,N,11709.9126,W,1,8,1.7,16,M,,M,,*59
06/13/2021,18:24:56.153,$GPGGA,182456,3242.0396,N,11709.9149,W,1,8,1.7,16,M,,M,,*55
06/13/2021,18:24:57.058,$GPGGA,182457,3242.0410,N,11709.9173,W,1,8,1.7,16,M,,M,,*54
06/13/2021,18:24:58.154,$GPGGA,182458,3242.0425,N,11709.9196,W,1,8,1.7,16,M,,M,,*56
06/13/2021,18:24:59.053,$GPGGA,182459,3242.0439,N,11709.9220,W,1,8,1.7,16,M,,M,,*54
06/13/2021,18:25:00.154,$GPGGA,182500,3242.0453,N,11709.9245,W,1,8,1.7,16,M,,M,,*56
06/13/2021,18:25:01.054,$GPGGA,182501,3242.0468,N,11709.9270,W,1,8,1.9,16,M,,M,,*57
06/13/2021,18:25:02.104,$GPGGA,182502,3242.0482,N,11709.9293,W,1,7,1.9,16,M,,M,,*52
06/13/2021,18:25:03.003,$GPGGA,182503,3242.0497,N,11709.9317,W,1,7,1.9,16,M,,M,,*5A
06/13/2021,18:25:04.103,$GPGGA,182504,3242.0511,N,11709.9342,W,1,7,1.9,16,M,,M,,*52
06/13/2021,18:25:05.004,$GPGGA,182505,3242.0526,N,11709.9366,W,1,7,1.9,16,M,,M,,*51
06/13/2021,18:25:06.153,$GPGGA,182506,3242.0540,N,11709.9391,W,1,8,1.9,16,M,,M,,*55
06/13/2021,18:25:07.053,$GPGGA,182507,3242.0555,N,11709.9415,W,1,8,1.7,16,M,,M,,*55
06/13/2021,18:25:08.153,$GPGGA,182508,3242.0571,N,11709.9440,W,1,8,1.7,16,M,,M,,*5C
06/13/2021,18:25:09.054,$GPGGA,182509,3242.0586,N,11709.9463,W,1,8,1.7,16,M,,M,,*54
06/13/2021,18:25:10.153,$GPGGA,182510,3242.0600,N,11709.9487,W,1,8,1.7,16,M,,M,,*5B
06/13/2021,18:25:11.054,$GPGGA,182511,3242.0615,N,11709.9512,W,1,8,1.7,16,M,,M,,*53
06/13/2021,18:25:12.154,$GPGGA,182512,3242.0630,N,11709.9535,W,1,8,1.7,16,M,,M,,*52
06/13/2021,18:25:13.054,$GPGGA,182513,3242.0645,N,11709.9559,W,1,8,1.7,16,M,,M,,*5B
06/13/2021,18:25:14.154,$GPGGA,182514,3242.0659,N,11709.9582,W,1,8,1.7,16,M,,M,,*57
06/13/2021,18:25:15.054,$GPGGA,182515,3242.0674,N,11709.9606,W,1,8,1.7,17,M,,M,,*57
06/13/2021,18:25:16.154,$GPGGA,182516,3242.0690,N,11709.9631,W,1,8,1.7,17,M,,M,,*5A
06/13/2021,18:25:17.055,$GPGGA,182517,3242.0705,N,11709.9653,W,1,8,1.7,17,M,,M,,*52
06/13/2021,18:25:18.154,$GPGGA,182518,3242.0721,N,11709.9678,W,1,8,1.7,17,M,,M,,*52
06/13/2021,18:25:19.055,$GPGGA,182519,3242.0735,N,11709.9701,W,1,8,1.7,17,M,,M,,*59
06/13/2021,18:25:20.154,$GPGGA,182520,3242.0752,N,11709.9725,W,1,8,1.7,17,M,,M,,*54
06/13/2021,18:25:21.054,$GPGGA,182521,3242.0767,N,11709.9747,W,1,8,1.7,17,M,,M,,*57
06/13/2021,18:25:22.154,$GPGGA,182522,3242.0782,N,11709.9772,W,1,8,1.7,17,M,,M,,*59
06/13/2021,18:25:23.055,$GPGGA,182523,3242.0797,N,11709.9795,W,1,8,1.7,17,M,,M,,*55
06/13/2021,18:25:24.155,$GPGGA,182524,3242.0813,N,11709.9819,W,1,8,1.7,17,M,,M,,*5A
06/13/2021,18:25:25.054,$GPGGA,182525,3242.0829,N,11709.9842,W,1,8,1.7,17,M,,M,,*5C
06/13/2021,18:25:26.154,$GPGGA,182526,3242.0844,N,11709.9866,W,1,8,1.7,17,M,,M,,*52
06/13/2021,18:25:27.054,$GPGGA,182527,3242.0858,N,11709.9891,W,1,8,1.7,17,M,,M,,*56
06/13/2021,18:25:28.154,$GPGGA,182528,3242.0873,N,11709.9914,W,1,8,1.7,17,M,,M,,*5C
06/13/2021,18:25:29.055,$GPGGA,182529,3242.0889,N,11709.9939,W,1,8,1.7,17,M,,M,,*57
06/13/2021,18:25:30.155,$GPGGA,182530,3242.0904,N,11709.9962,W,1,8,1.7,17,M,,M,,*55
06/13/2021,18:25:31.055,$GPGGA,182531,3242.0919,N,11709.9986,W,1,8,1.7,17,M,,M,,*52
06/13/2021,18:25:32.155,$GPGGA,182532,3242.0934,N,11710.0011,W,1,8,1.7,17,M,,M,,*58
06/13/2021,18:25:33.055,$GPGGA,182533,3242.0948,N,11710.0034,W,1,8,1.7,17,M,,M,,*55
06/13/2021,18:25:34.155,$GPGGA,182534,3242.0963,N,11710.0058,W,1,8,1.7,17,M,,M,,*51
06/13/2021,18:25:35.055,$GPGGA,182535,3242.0981,N,11710.0081,W,1,8,1.5,17,M,,M,,*5A
06/13/2021,18:25:36.155,$GPGGA,182536,3242.0997,N,11710.0105,W,1,9,1.5,17,M,,M,,*52
06/13/2021,18:25:37.055,$GPGGA,182537,3242.1013,N,11710.0128,W,1,9,1.5,17,M,,M,,*58
06/13/2021,18:25:38.155,$GPGGA,182538,3242.1028,N,11710.0152,W,1,9,1.5,17,M,,M,,*52
06/13/2021,18:25:39.055,$GPGGA,182539,3242.1044,N,11710.0175,W,1,9,1.5,17,M,,M,,*5C
06/13/2021,18:25:40.155,$GPGGA,182540,3242.1060,N,11710.0199,W,1,9,1.5,17,M,,M,,*56
06/13/2021,18:25:41.048,$GPGGA,182541,3242.1075,N,11710.0222,W,1,9,1.5,18,M,,M,,*5F
06/13/2021,18:25:42.141,$GPGGA,182542,3242.1092,N,11710.0246,W,1,9,1.5,18,M,,M,,*57
06/13/2021,18:25:43.041,$GPGGA,182543,3242.1107,N,11710.0269,W,1,9,1.5,18,M,,M,,*56
06/13/2021,18:25:44.142,$GPGGA,182544,3242.1124,N,11710.0293,W,1,9,1.5,18,M,,M,,*55
06/13/2021,18:25:45.041,$GPGGA,182545,3242.1140,N,11710.0316,W,1,9,1.5,18,M,,M,,*5A
06/13/2021,18:25:46.142,$GPGGA,182546,3242.1156,N,11710.0340,W,1,9,1.5,18,M,,M,,*5D
06/13/2021,18:25:47.041,$GPGGA,182547,3242.1172,N,11710.0363,W,1,9,1.5,18,M,,M,,*5B
06/13/2021,18:25:48.142,$GPGGA,182548,3242.1187,N,11710.0387,W,1,9,1.5,18,M,,M,,*54
06/13/2021,18:25:49.042,$GPGGA,182549,3242.1204,N,11710.0412,W,1,9,1.5,18,M,,M,,*56
06/13/2021,18:25:50.142,$GPGGA,182550,3242.1219,N,11710.0434,W,1,9,1.5,18,M,,M,,*56
06/13/2021,18:25:51.041,$GPGGA,182551,3242.1236,N,11710.0459,W,1,9,1.5,19,M,,M,,*50
06/13/2021,18:25:52.142,$GPGGA,182552,3242.1252,N,11710.0481,W,1,8,1.5,19,M,,M,,*55
06/13/2021,18:25:53.042,$GPGGA,182553,3242.1268,N,11710.0504,W,1,8,1.5,19,M,,M,,*51
06/13/2021,18:25:54.141,$GPGGA,182554,3242.1284,N,11710.0527,W,1,9,1.5,19,M,,M,,*54
06/13/2021,18:25:55.042,$GPGGA,182555,3242.1299,N,11710.0550,W,1,9,1.5,19,M,,M,,*59
06/13/2021,18:25:56.142,$GPGGA,182556,3242.1316,N,11710.0574,W,1,9,1.5,19,M,,M,,*5A
06/13/2021,18:25:57.042,$GPGGA,182557,3242.1331,N,11710.0597,W,1,9,1.5,19,M,,M,,*53
06/13/2021,18:25:58.142,$GPGGA,182558,3242.1346,N,11710.0621,W,1,9,1.5,19,M,,M,,*52
06/13/2021,18:25:59.042,$GPGGA,182559,3242.1363,N,11710.0645,W,1,9,1.5,20,M,,M,,*5C
06/13/2021,18:26:00.142,$GPGGA,182600,3242.1378,N,11710.0670,W,1,9,1.5,20,M,,M,,*5F
06/13/2021,18:26:01.042,$GPGGA,182601,3242.1393,N,11710.0694,W,1,9,1.5,20,M,,M,,*51
06/13/2021,18:26:02.142,$GPGGA,182602,3242.1409,N,11710.0719,W,1,9,1.5,20,M,,M,,*52
06/13/2021,18:26:03.042,$GPGGA,182603,3242.1424,N,11710.0742,W,1,9,1.5,20,M,,M,,*52
06/13/2021,18:26:04.143,$GPGGA,182604,3242.1439,N,11710.0766,W,1,9,1.5,20,M,,M,,*5F
06/13/2021,18:26:05.043,$GPGGA,182605,3242.1454,N,11710.0791,W,1,9,1.5,20,M,,M,,*5D
06/13/2021,18:26:06.142,$GPGGA,182606,3242.1469,N,11710.0814,W,1,9,1.5,20,M,,M,,*52
06/13/2021,18:26:07.043,$GPGGA,182607,3242.1485,N,11710.0838,W,1,9,1.5,20,M,,M,,*5F
06/13/2021,18:26:08.142,$GPGGA,182608,3242.1501,N,11710.0863,W,1,9,1.5,20,M,,M,,*53
06/13/2021,18:26:09.042,$GPGGA,182609,3242.1516,N,11710.0886,W,1,9,1.5,20,M,,M,,*5F
06/13/2021,18:26:10.143,$GPGGA,182610,3242.1532,N,11710.0910,W,1,9,1.5,20,M,,M,,*5F
06/13/2021,18:26:11.043,$GPGGA,182611,3242.1547,N,11710.0934,W,1,9,1.5,20,M,,M,,*5A
06/13/2021,18:26:12.143,$GPGGA,182612,3242.1562,N,11710.0959,W,1,9,1.5,20,M,,M,,*55
06/13/2021,18:26:13.042,$GPGGA,182613,3242.1577,N,11710.0983,W,1,9,1.5,20,M,,M,,*57
06/13/2021,18:26:14.143,$GPGGA,182614,3242.1591,N,11710.1008,W,1,9,1.5,20,M,,M,,*53
06/13/2021,18:26:15.043,$GPGGA,182615,3242.1606,N,11710.1033,W,1,9,1.5,20,M,,M,,*57
06/13/2021,18:26:16.143,$GPGGA,182616,3242.1622,N,11710.1056,W,1,9,1.5,20,M,,M,,*51
06/13/2021,18:26:17.043,$GPGGA,182617,3242.1637,N,11710.1081,W,1,9,1.5,20,M,,M,,*5E
06/13/2021,18:26:18.143,$GPGGA,182618,3242.1652,N,11710.1105,W,1,9,1.5,20,M,,M,,*5F
06/13/2021,18:26:19.043,$GPGGA,182619,3242.1667,N,11710.1129,W,1,9,1.5,20,M,,M,,*56
06/13/2021,18:26:20.144,$GPGGA,182620,3242.1681,N,11710.1154,W,1,9,1.5,20,M,,M,,*5E
06/13/2021,18:26:21.044,$GPGGA,182621,3242.1696,N,11710.1178,W,1,9,1.5,20,M,,M,,*57
06/13/2021,18:26:22.143,$GPGGA,182622,3242.1711,N,11710.1203,W,1,9,1.5,20,M,,M,,*55
06/13/2021,18:26:23.043,$GPGGA,182623,3242.1725,N,11710.1228,W,1,9,1.7,20,M,,M,,*58
06/13/2021,18:26:24.144,$GPGGA,182624,3242.1739,N,11710.1253,W,1,8,1.7,20,M,,M,,*5F
06/13/2021,18:26:25.043,$GPGGA,182625,3242.1754,N,11710.1276,W,1,8,1.5,20,M,,M,,*50
06/13/2021,18:26:26.144,$GPGGA,182626,3242.1768,N,11710.1301,W,1,9,1.5,20,M,,M,,*5C
06/13/2021,18:26:27.043,$GPGGA,182627,3242.1783,N,11710.1324,W,1,9,1.7,20,M,,M,,*5D
06/13/2021,18:26:28.143,$GPGGA,182628,3242.1797,N,11710.1348,W,1,8,1.7,20,M,,M,,*5C
06/13/2021,18:26:29.044,$GPGGA,182629,3242.1811,N,11710.1373,W,1,8,1.7,20,M,,M,,*54
06/13/2021,18:26:30.143,$GPGGA,182630,3242.1825,N,11710.1396,W,1,8,1.7,20,M,,M,,*50
06/13/2021,18:26:31.044,$GPGGA,182631,3242.1840,N,11710.1420,W,1,8,1.7,20,M,,M,,*58
06/13/2021,18:26:32.144,$GPGGA,182632,3242.1854,N,11710.1443,W,1,8,1.7,20,M,,M,,*5B
06/13/2021,18:26:33.044,$GPGGA,182633,3242.1870,N,11710.1467,W,1,8,1.5,20,M,,M,,*58
06/13/2021,18:26:34.143,$GPGGA,182634,3242.1884,N,11710.1489,W,1,9,1.5,20,M,,M,,*55
06/13/2021,18:26:35.044,$GPGGA,182635,3242.1898,N,11710.1512,W,1,9,1.7,20,M,,M,,*58
06/13/2021,18:26:36.144,$GPGGA,182636,3242.1913,N,11710.1535,W,1,9,1.7,20,M,,M,,*5C
06/13/2021,18:26:37.044,$GPGGA,182637,3242.1927,N,11710.1557,W,1,9,1.5,20,M,,M,,*5C
06/13/2021,18:26:38.144,$GPGGA,182638,3242.1942,N,11710.1579,W,1,8,1.5,20,M,,M,,*5D
06/13/2021,18:26:39.044,$GPGGA,182639,3242.1956,N,11710.1602,W,1,8,1.5,19,M,,M,,*5C
06/13/2021,18:26:40.144,$GPGGA,182640,3242.1971,N,11710.1624,W,1,9,1.5,19,M,,M,,*52
06/13/2021,18:26:41.044,$GPGGA,182641,3242.1987,N,11710.1645,W,1,9,1.5,19,M,,M,,*5D
06/13/2021,18:26:42.095,$GPGGA,182642,3242.2002,N,11710.1667,W,1,9,1.5,19,M,,M,,*59
06/13/2021,18:26:42.995,$GPGGA,182643,3242.2017,N,11710.1689,W,1,9,1.5,19,M,,M,,*5C
06/13/2021,18:26:44.094,$GPGGA,182644,3242.2032,N,11710.1710,W,1,9,1.5,19,M,,M,,*5D
06/13/2021,18:26:44.995,$GPGGA,182645,3242.2047,N,11710.1732,W,1,9,1.5,19,M,,M,,*5E
06/13/2021,18:26:46.095,$GPGGA,182646,3242.2063,N,11710.1754,W,1,9,1.5,19,M,,M,,*5B
06/13/2021,18:26:46.995,$GPGGA,182647,3242.2078,N,11710.1775,W,1,9,1.5,19,M,,M,,*53
06/13/2021,18:26:48.095,$GPGGA,182648,3242.2093,N,11710.1796,W,1,9,1.5,19,M,,M,,*54
06/13/2021,18:26:48.995,$GPGGA,182649,3242.2108,N,11710.1817,W,1,9,1.5,19,M,,M,,*50
06/13/2021,18:26:50.095,$GPGGA,182650,3242.2122,N,11710.1839,W,1,9,1.5,19,M,,M,,*5C
06/13/2021,18:26:50.995,$GPGGA,182651,3242.2137,N,11710.1861,W,1,9,1.5,19,M,,M,,*54
06/13/2021,18:26:52.095,$GPGGA,182652,3242.2151,N,11710.1882,W,1,9,1.5,19,M,,M,,*5A
06/13/2021,18:26:52.994,$GPGGA,182653,3242.2166,N,11710.1902,W,1,9,1.5,19,M,,M,,*56
06/13/2021,18:26:54.095,$GPGGA,182654,3242.2180,N,11710.1925,W,1,9,1.5,19,M,,M,,*5C
06/13/2021,18:26:54.995,$GPGGA,182655,3242.2194,N,11710.1945,W,1,9,1.5,20,M,,M,,*54
06/13/2021,18:26:56.095,$GPGGA,182656,3242.2208,N,11710.1966,W,1,9,1.5,20,M,,M,,*50
06/13/2021,18:26:56.996,$GPGGA,182657,3242.2222,N,11710.1988,W,1,9,1.5,20,M,,M,,*59
06/13/2021,18:26:58.095,$GPGGA,182658,3242.2235,N,11710.2009,W,1,9,1.5,20,M,,M,,*53
06/13/2021,18:26:58.995,$GPGGA,182659,3242.2249,N,11710.2030,W,1,9,1.5,20,M,,M,,*53
06/13/2021,18:27:00.095,$GPGGA,182700,3242.2263,N,11710.2052,W,1,10,1.5,20,M,,M,,*6A
06/13/2021,18:27:00.995,$GPGGA,182701,3242.2278,N,11710.2072,W,1,10,1.5,20,M,,M,,*63
06/13/2021,18:27:02.095,$GPGGA,182702,3242.2292,N,11710.2092,W,1,10,1.5,20,M,,M,,*6A
06/13/2021,18:27:02.995,$GPGGA,182703,3242.2307,N,11710.2113,W,1,10,1.5,20,M,,M,,*6E
06/13/2021,18:27:04.095,$GPGGA,182704,3242.2321,N,11710.2135,W,1,10,1.5,20,M,,M,,*69
06/13/2021,18:27:04.996,$GPGGA,182705,3242.2336,N,11710.2155,W,1,10,1.5,20,M,,M,,*68
06/13/2021,18:27:06.096,$GPGGA,182706,3242.2347,N,11710.2176,W,1,8,1.5,20,M,,M,,*55
06/13/2021,18:27:06.995,$GPGGA,182707,3242.2361,N,11710.2198,W,1,8,1.7,20,M,,M,,*52
06/13/2021,18:27:08.096,$GPGGA,182708,3242.2372,N,11710.2218,W,1,8,1.7,20,M,,M,,*54
06/13/2021,18:27:08.996,$GPGGA,182709,3242.2385,N,11710.2240,W,1,8,1.7,20,M,,M,,*50
06/13/2021,18:27:10.095,$GPGGA,182710,3242.2397,N,11710.2261,W,1,8,1.7,20,M,,M,,*58
06/13/2021,18:27:10.995,$GPGGA,182711,3242.2410,N,11710.2281,W,1,8,1.7,19,M,,M,,*55
06/13/2021,18:27:12.095,$GPGGA,182712,3242.2422,N,11710.2302,W,1,8,1.7,19,M,,M,,*5D
06/13/2021,18:27:12.996,$GPGGA,182713,3242.2436,N,11710.2323,W,1,8,1.5,19,M,,M,,*58
06/13/2021,18:27:14.096,$GPGGA,182714,3242.2448,N,11710.2344,W,1,9,1.5,19,M,,M,,*56
06/13/2021,18:27:14.996,$GPGGA,182715,3242.2462,N,11710.2363,W,1,9,1.5,19,M,,M,,*5A
06/13/2021,18:27:16.096,$GPGGA,182716,3242.2476,N,11710.2384,W,1,9,1.5,19,M,,M,,*55
06/13/2021,18:27:16.997,$GPGGA,182717,3242.2488,N,11710.2403,W,1,9,1.5,19,M,,M,,*5D
06/13/2021,18:27:18.096,$GPGGA,182718,3242.2502,N,11710.2424,W,1,9,1.5,19,M,,M,,*54
06/13/2021,18:27:18.996,$GPGGA,182719,3242.2516,N,11710.2443,W,1,9,1.5,19,M,,M,,*51
06/13/2021,18:27:20.096,$GPGGA,182720,3242.2531,N,11710.2464,W,1,10,1.5,19,M,,M,,*63
06/13/2021,18:27:20.996,$GPGGA,182721,3242.2544,N,11710.2483,W,1,10,1.5,19,M,,M,,*69
06/13/2021,18:27:22.097,$GPGGA,182722,3242.2558,N,11710.2503,W,1,10,1.5,19,M,,M,,*6E
06/13/2021,18:27:22.997,$GPGGA,182723,3242.2570,N,11710.2522,W,1,10,1.5,19,M,,M,,*66
06/13/2021,18:27:24.097,$GPGGA,182724,3242.2584,N,11710.2543,W,1,10,1.5,19,M,,M,,*6D
06/13/2021,18:27:24.996,$GPGGA,182725,3242.2596,N,11710.2561,W,1,10,1.5,19,M,,M,,*6F
06/13/2021,18:27:26.096,$GPGGA,182726,3242.2609,N,11710.2581,W,1,10,1.5,19,M,,M,,*67
06/13/2021,18:27:26.996,$GPGGA,182727,3242.2621,N,11710.2601,W,1,10,1.5,19,M,,M,,*67
06/13/2021,18:27:28.096,$GPGGA,182728,3242.2635,N,11710.2621,W,1,9,1.5,19,M,,M,,*57
06/13/2021,18:27:28.996,$GPGGA,182729,3242.2646,N,11710.2641,W,1,9,1.5,19,M,,M,,*54
06/13/2021,18:27:30.097,$GPGGA,182730,3242.2659,N,11710.2662,W,1,9,1.5,19,M,,M,,*53
06/13/2021,18:27:30.997,$GPGGA,182731,3242.2671,N,11710.2681,W,1,9,1.5,19,M,,M,,*55
06/13/2021,18:27:32.097,$GPGGA,182732,3242.2683,N,11710.2700,W,1,10,1.5,19,M,,M,,*6B
06/13/2021,18:27:32.997,$GPGGA,182733,3242.2697,N,11710.2720,W,1,10,1.5,19,M,,M,,*6D
06/13/2021,18:27:34.097,$GPGGA,182734,3242.2710,N,11710.2740,W,1,10,1.5,19,M,,M,,*62
06/13/2021,18:27:34.997,$GPGGA,182735,3242.2722,N,11710.2760,W,1,10,1.5,18,M,,M,,*61
06/13/2021,18:27:36.097,$GPGGA,182736,3242.2736,N,11710.2779,W,1,10,1.5,18,M,,M,,*6F
06/13/2021,18:27:36.998,$GPGGA,182737,3242.2748,N,11710.2798,W,1,10,1.5,18,M,,M,,*68
06/13/2021,18:27:38.097,$GPGGA,182738,3242.2761,N,11710.2818,W,1,10,1.5,18,M,,M,,*6B
06/13/2021,18:27:38.997,$GPGGA,182739,3242.2773,N,11710.2837,W,1,10,1.5,18,M,,M,,*64
