06/13/2021,18:01:14.128,$GPGGA,180114,3241.8227,N,11709.3688,W,1,9,1.6,13,M,,M,,*51
06/13/2021,18:01:14.988,$GPGGA,180115,3241.8228,N,11709.3689,W,1,9,1.6,13,M,,M,,*5E
06/13/2021,18:01:16.087,$GPGGA,180116,3241.8228,N,11709.3689,W,1,9,1.6,13,M,,M,,*5D
06/13/2021,18:01:16.987,$GPGGA,180117,3241.8228,N,11709.3689,W,1,9,1.6,13,M,,M,,*5C
06/13/2021,18:01:18.087,$GPGGA,180118,3241.8228,N,11709.3689,W,1,9,1.6,13,M,,M,,*53
06/13/2021,18:01:18.987,$GPGGA,180119,3241.8228,N,11709.3689,W,1,9,1.9,13,M,,M,,*5D
06/13/2021,18:01:20.088,$GPGGA,180120,3241.8226,N,11709.3689,W,1,8,1.9,13,M,,M,,*58
06/13/2021,18:01:20.987,$GPGGA,180121,3241.8227,N,11709.3689,W,1,8,1.9,13,M,,M,,*58
06/13/2021,18:01:22.088,$GPGGA,180122,3241.8225,N,11709.3688,W,1,8,1.9,13,M,,M,,*58
06/13/2021,18:01:22.987,$GPGGA,180123,3241.8225,N,11709.3689,W,1,8,1.9,13,M,,M,,*58
06/13/2021,18:01:24.088,$GPGGA,180124,3241.8224,N,11709.3688,W,1,7,1.9,13,M,,M,,*50
06/13/2021,18:01:24.988,$GPGGA,180125,3241.8224,N,11709.3687,W,1,7,1.9,13,M,,M,,*5E
06/13/2021,18:01:26.088,$GPGGA,180126,3241.8224,N,11709.3686,W,1,8,1.9,13,M,,M,,*53
06/13/2021,18:01:26.988,$GPGGA,180127,3241.8224,N,11709.3686,W,1,8,1.9,12,M,,M,,*53
06/13/2021,18:01:28.088,$GPGGA,180128,3241.8224,N,11709.3686,W,1,8,1.9,12,M,,M,,*5C
06/13/2021,18:01:28.988,$GPGGA,180129,3241.8224,N,11709.3685,W,1,8,1.9,12,M,,M,,*5E
06/13/2021,18:01:30.088,$GPGGA,180130,3241.8223,N,11709.3685,W,1,8,1.9,12,M,,M,,*51
06/13/2021,18:01:30.988,$GPGGA,180131,3241.8224,N,11709.3685,W,1,8,1.9,12,M,,M,,*57
06/13/2021,18:01:32.088,$GPGGA,180132,3241.8223,N,11709.3685,W,1,8,1.9,12,M,,M,,*53
06/13/2021,18:01:32.988,$GPGGA,180133,3241.8222,N,11709.3685,W,1,8,1.9,12,M,,M,,*53
06/13/2021,18:01:34.088,$GPGGA,180134,3241.8223,N,11709.3685,W,1,8,1.9,12,M,,M,,*55
06/13/2021,18:01:34.989,$GPGGA,180135,3241.8222,N,11709.3685,W,1,8,1.9,11,M,,M,,*56
06/13/2021,18:01:36.088,$GPGGA,180136,3241.8223,N,11709.3685,W,1,8,1.9,11,M,,M,,*54
06/13/2021,18:01:36.988,$GPGGA,180137,3241.8221,N,11709.3685,W,1,8,2.0,11,M,,M,,*5D
06/13/2021,18:01:38.089,$GPGGA,180138,3241.8221,N,11709.3685,W,1,8,2.0,11,M,,M,,*52
06/13/2021,18:01:38.989,$GPGGA,180139,3241.8221,N,11709.3685,W,1,8,2.0,11,M,,M,,*53
06/13/2021,18:01:40.089,$GPGGA,180140,3241.8221,N,11709.3686,W,1,7,2.0,11,M,,M,,*51
06/13/2021,18:01:40.988,$GPGGA,180141,3241.8221,N,11709.3686,W,1,7,2.0,11,M,,M,,*50
06/13/2021,18:01:42.089,$GPGGA,180142,3241.8221,N,11709.3685,W,1,8,2.0,11,M,,M,,*5F
06/13/2021,18:01:42.988,$GPGGA,180143,3241.8221,N,11709.3685,W,1,8,2.0,11,M,,M,,*5E
06/13/2021,18:01:44.089,$GPGGA,180144,3241.8221,N,11709.3685,W,1,7,2.0,11,M,,M,,*56
06/13/2021,18:01:44.989,$GPGGA,180145,3241.8219,N,11709.3686,W,1,7,2.0,10,M,,M,,*5E
06/13/2021,18:01:46.089,$GPGGA,180146,3241.8220,N,11709.3686,W,1,7,2.0,10,M,,M,,*57
06/13/2021,18:01:46.989,$GPGGA,180147,3241.8218,N,11709.3688,W,1,7,2.0,10,M,,M,,*53
06/13/2021,18:01:48.089,$GPGGA,180148,3241.8219,N,11709.3687,W,1,7,2.0,10,M,,M,,*52
06/13/2021,18:01:48.989,$GPGGA,180149,3241.8218,N,11709.3688,W,1,7,2.0,10,M,,M,,*5D
06/13/2021,18:01:50.089,$GPGGA,180150,3241.8219,N,11709.3689,W,1,7,2.0,10,M,,M,,*55
06/13/2021,18:01:50.989,$GPGGA,180151,3241.8218,N,11709.3688,W,1,7,2.0,10,M,,M,,*54
06/13/2021,18:01:52.089,$GPGGA,180152,3241.8217,N,11709.3689,W,1,7,2.0,10,M,,M,,*59
06/13/2021,18:01:52.989,$GPGGA,180153,3241.8217,N,11709.3689,W,1,7,2.0,10,M,,M,,*58
06/13/2021,18:01:54.089,$GPGGA,180154,3241.8217,N,11709.3689,W,1,7,2.0,10,M,,M,,*5F
06/13/2021,18:01:54.989,$GPGGA,180155,3241.8217,N,11709.3689,W,1,7,2.0,10,M,,M,,*5E
06/13/2021,18:01:56.089,$GPGGA,180156,3241.8217,N,11709.3689,W,1,7,2.0,10,M,,M,,*5D
06/13/2021,18:01:56.990,$GPGGA,180157,3241.8217,N,11709.3692,W,1,7,1.9,10,M,,M,,*5C
06/13/2021,18:01:58.089,$GPGGA,180158,3241.8215,N,11709.3692,W,1,8,1.9,10,M,,M,,*5E
06/13/2021,18:01:58.990,$GPGGA,180159,3241.8216,N,11709.3693,W,1,8,1.9,10,M,,M,,*5D
06/13/2021,18:02:00.089,$GPGGA,180200,3241.8219,N,11709.3694,W,1,9,1.9,10,M,,M,,*5B
06/13/2021,18:02:00.990,$GPGGA,180201,3241.8220,N,11709.3694,W,1,9,1.6,10,M,,M,,*5F
06/13/2021,18:02:02.091,$GPGGA,180202,3241.8221,N,11709.3696,W,1,9,1.6,10,M,,M,,*5F
06/13/2021,18:02:02.990,$GPGGA,180203,3241.8223,N,11709.3695,W,1,9,1.6,10,M,,M,,*5F
06/13/2021,18:02:04.090,$GPGGA,180204,3241.8224,N,11709.3696,W,1,9,1.6,10,M,,M,,*5C
06/13/2021,18:02:04.990,$GPGGA,180205,3241.8223,N,11709.3697,W,1,9,1.6,10,M,,M,,*5B
06/13/2021,18:02:06.090,$GPGGA,180206,3241.8224,N,11709.3697,W,1,9,1.6,10,M,,M,,*5F
06/13/2021,18:02:06.991,$GPGGA,180207,3241.8223,N,11709.3697,W,1,9,1.6,10,M,,M,,*59
06/13/2021,18:02:08.090,$GPGGA,180208,3241.8224,N,11709.3699,W,1,9,1.6,10,M,,M,,*5F
06/13/2021,18:02:08.990,$GPGGA,180209,3241.8222,N,11709.3698,W,1,9,1.6,11,M,,M,,*58
06/13/2021,18:02:10.090,$GPGGA,180210,3241.8223,N,11709.3699,W,1,9,1.6,11,M,,M,,*50
06/13/2021,18:02:10.990,$GPGGA,180211,3241.8222,N,11709.3699,W,1,9,1.6,11,M,,M,,*50
06/13/2021,18:02:12.090,$GPGGA,180212,3241.8223,N,11709.3699,W,1,9,1.6,11,M,,M,,*52
06/13/2021,18:02:12.990,$GPGGA,180213,3241.8222,N,11709.3699,W,1,9,1.6,11,M,,M,,*52
