06/13/2021,17:11:22.122,$GPGGA,171122,3241.8228,N,11709.3682,W,1,9,1.7,19,M,,M,,*54
06/13/2021,17:11:23.022,$GPGGA,171123,3241.8228,N,11709.3682,W,1,9,1.7,19,M,,M,,*55
06/13/2021,17:11:24.122,$GPGGA,171124,3241.8228,N,11709.3682,W,1,9,1.7,19,M,,M,,*52
06/13/2021,17:11:25.022,$GPGGA,171125,3241.8228,N,11709.3682,W,1,9,1.7,19,M,,M,,*53
06/13/2021,17:11:26.122,$GPGGA,171126,3241.8228,N,11709.3682,W,1,9,1.7,19,M,,M,,*50
06/13/2021,17:11:27.022,$GPGGA,171127,3241.8228,N,11709.3682,W,1,9,1.7,20,M,,M,,*5B
06/13/2021,17:11:28.122,$GPGGA,171128,3241.8228,N,11709.3682,W,1,9,1.7,20,M,,M,,*54
06/13/2021,17:11:29.023,$GPGGA,171129,3241.8228,N,11709.3682,W,1,9,1.7,20,M,,M,,*55
06/13/2021,17:11:30.122,$GPGGA,171130,3241.8228,N,11709.3683,W,1,9,1.7,20,M,,M,,*5C
06/13/2021,17:11:31.022,$GPGGA,171131,3241.8228,N,11709.3683,W,1,9,1.7,20,M,,M,,*5D
06/13/2021,17:11:32.123,$GPGGA,171132,3241.8228,N,11709.3683,W,1,9,1.7,20,M,,M,,*5E
06/13/2021,17:11:33.022,$GPGGA,171133,3241.8228,N,11709.3683,W,1,9,1.7,20,M,,M,,*5F
06/13/2021,17:11:34.123,$GPGGA,171134,3241.8228,N,11709.3683,W,1,9,1.7,20,M,,M,,*58
06/13/2021,17:11:35.022,$GPGGA,171135,3241.8228,N,11709.3683,W,1,9,2.3,20,M,,M,,*5E
06/13/2021,17:11:36.123,$GPGGA,171136,3241.8230,N,11709.3683,W,1,9,2.3,20,M,,M,,*54
06/13/2021,17:11:37.022,$GPGGA,171137,3241.8231,N,11709.3682,W,1,9,1.7,20,M,,M,,*52
06/13/2021,17:11:38.122,$GPGGA,171138,3241.8232,N,11709.3681,W,1,9,1.7,20,M,,M,,*5D
06/13/2021,17:11:39.023,$GPGGA,171139,3241.8232,N,11709.3681,W,1,9,1.7,20,M,,M,,*5C
06/13/2021,17:11:40.123,$GPGGA,171140,3241.8232,N,11709.3681,W,1,9,1.7,20,M,,M,,*52
06/13/2021,17:11:41.023,$GPGGA,171141,3241.8232,N,11709.3681,W,1,9,1.7,21,M,,M,,*52
06/13/2021,17:11:42.123,$GPGGA,171142,3241.8232,N,11709.3681,W,1,9,1.7,21,M,,M,,*51
06/13/2021,17:11:43.023,$GPGGA,171143,3241.8232,N,11709.3681,W,1,9,1.7,21,M,,M,,*50
06/13/2021,17:11:44.123,$GPGGA,171144,3241.8232,N,11709.3681,W,1,9,1.7,21,M,,M,,*57
06/13/2021,17:11:45.023,$GPGGA,171145,3241.8232,N,11709.3681,W,1,9,1.7,21,M,,M,,*56
06/13/2021,17:11:46.124,$GPGGA,171146,3241.8232,N,11709.3681,W,1,9,1.7,21,M,,M,,*55
06/13/2021,17:11:47.023,$GPGGA,171147,3241.8232,N,11709.3681,W,1,9,1.7,21,M,,M,,*54
06/13/2021,17:11:48.124,$GPGGA,171148,3241.8230,N,11709.3680,W,1,9,1.7,21,M,,M,,*58
06/13/2021,17:11:49.024,$GPGGA,171149,3241.8231,N,11709.3681,W,1,9,1.7,22,M,,M,,*5A
06/13/2021,17:11:50.124,$GPGGA,171150,3241.8230,N,11709.3680,W,1,9,1.7,22,M,,M,,*52
06/13/2021,17:11:51.024,$GPGGA,171151,3241.8229,N,11709.3681,W,1,9,1.7,22,M,,M,,*5A
06/13/2021,17:11:52.123,$GPGGA,171152,3241.8230,N,11709.3680,W,1,9,1.7,22,M,,M,,*50
06/13/2021,17:11:53.023,$GPGGA,171153,3241.8229,N,11709.3681,W,1,9,1.7,22,M,,M,,*58
06/13/2021,17:11:54.124,$GPGGA,171154,3241.8228,N,11709.3680,W,1,9,1.7,22,M,,M,,*5F
06/13/2021,17:11:55.024,$GPGGA,171155,3241.8228,N,11709.3681,W,1,9,1.7,22,M,,M,,*5F
06/13/2021,17:11:56.124,$GPGGA,171156,3241.8228,N,11709.3680,W,1,9,1.7,22,M,,M,,*5D
06/13/2021,17:11:57.023,$GPGGA,171157,3241.8228,N,11709.3681,W,1,9,1.7,22,M,,M,,*5D
06/13/2021,17:11:58.124,$GPGGA,171158,3241.8226,N,11709.3680,W,1,9,1.7,22,M,,M,,*5D
06/13/2021,17:11:59.024,$GPGGA,171159,3241.8227,N,11709.3681,W,1,9,1.7,23,M,,M,,*5D
06/13/2021,17:12:00.124,$GPGGA,171200,3241.8226,N,11709.3681,W,1,9,1.7,23,M,,M,,*53
06/13/2021,17:12:01.024,$GPGGA,171201,3241.8225,N,11709.3681,W,1,9,1.7,23,M,,M,,*51
06/13/2021,17:12:02.124,$GPGGA,171202,3241.8225,N,11709.3681,W,1,9,1.7,23,M,,M,,*52
06/13/2021,17:12:03.024,$GPGGA,171203,3241.8224,N,11709.3681,W,1,9,1.7,23,M,,M,,*52
06/13/2021,17:12:04.124,$GPGGA,171204,3241.8224,N,11709.3681,W,1,9,1.7,23,M,,M,,*55
06/13/2021,17:12:05.024,$GPGGA,171205,3241.8223,N,11709.3681,W,1,9,1.7,23,M,,M,,*53
06/13/2021,17:12:06.124,$GPGGA,171206,3241.8224,N,11709.3681,W,1,9,1.7,23,M,,M,,*57
06/13/2021,17:12:07.024,$GPGGA,171207,3241.8222,N,11709.3681,W,1,9,1.7,23,M,,M,,*50
06/13/2021,17:12:08.124,$GPGGA,171208,3241.8223,N,11709.3681,W,1,9,1.7,23,M,,M,,*5E
06/13/2021,17:12:09.024,$GPGGA,171209,3241.8222,N,11709.3682,W,1,9,1.7,23,M,,M,,*5D
06/13/2021,17:12:10.124,$GPGGA,171210,3241.8223,N,11709.3682,W,1,9,1.7,23,M,,M,,*54
06/13/2021,17:12:11.025,$GPGGA,171211,3241.8222,N,11709.3682,W,1,9,1.7,23,M,,M,,*54
06/13/2021,17:12:12.124,$GPGGA,171212,3241.8223,N,11709.3682,W,1,9,1.7,23,M,,M,,*56
06/13/2021,17:12:13.025,$GPGGA,171213,3241.8222,N,11709.3681,W,1,9,1.7,23,M,,M,,*55
06/13/2021,17:12:14.124,$GPGGA,171214,3241.8223,N,11709.3681,W,1,9,1.7,23,M,,M,,*53
06/13/2021,17:12:15.024,$GPGGA,171215,3241.8222,N,11709.3681,W,1,9,1.7,23,M,,M,,*53
06/13/2021,17:12:16.125,$GPGGA,171216,3241.8223,N,11709.3681,W,1,9,1.7,23,M,,M,,*51
06/13/2021,17:12:17.025,$GPGGA,171217,3241.8222,N,11709.3681,W,1,9,1.7,24,M,,M,,*56
06/13/2021,17:12:18.124,$GPGGA,171218,3241.8223,N,11709.3681,W,1,9,1.7,24,M,,M,,*58
06/13/2021,17:12:19.025,$GPGGA,171219,3241.8224,N,11709.3680,W,1,9,1.7,24,M,,M,,*5F
06/13/2021,17:12:20.125,$GPGGA,171220,3241.8223,N,11709.3681,W,1,9,1.7,24,M,,M,,*53
06/13/2021,17:12:21.025,$GPGGA,171221,3241.8224,N,11709.3680,W,1,9,1.7,24,M,,M,,*54
06/13/2021,17:12:22.125,$GPGGA,171222,3241.8223,N,11709.3681,W,1,9,1.7,24,M,,M,,*51
06/13/2021,17:12:23.025,$GPGGA,171223,3241.8224,N,11709.3680,W,1,9,1.7,24,M,,M,,*56
06/13/2021,17:12:24.126,$GPGGA,171224,3241.8224,N,11709.3681,W,1,9,1.7,24,M,,M,,*50
06/13/2021,17:12:25.025,$GPGGA,171225,3241.8224,N,11709.3680,W,1,9,1.7,24,M,,M,,*50
06/13/2021,17:12:26.125,$GPGGA,171226,3241.8224,N,11709.3681,W,1,9,1.7,24,M,,M,,*52
06/13/2021,17:12:27.025,$GPGGA,171227,3241.8224,N,11709.3680,W,1,9,1.7,24,M,,M,,*52
06/13/2021,17:12:28.125,$GPGGA,171228,3241.8225,N,11709.3681,W,1,9,1.7,24,M,,M,,*5D
06/13/2021,17:12:29.026,$GPGGA,171229,3241.8225,N,11709.3680,W,1,9,1.7,24,M,,M,,*5D
06/13/2021,17:12:30.126,$GPGGA,171230,3241.8225,N,11709.3681,W,1,9,1.7,24,M,,M,,*54
06/13/2021,17:12:31.025,$GPGGA,171231,3241.8225,N,11709.3680,W,1,9,1.7,24,M,,M,,*54
06/13/2021,17:12:32.125,$GPGGA,171232,3241.8227,N,11709.3681,W,1,9,1.7,24,M,,M,,*54
06/13/2021,17:12:33.025,$GPGGA,171233,3241.8226,N,11709.3680,W,1,9,1.7,24,M,,M,,*55
06/13/2021,17:12:34.126,$GPGGA,171234,3241.8227,N,11709.3681,W,1,9,1.7,24,M,,M,,*52
06/13/2021,17:12:35.026,$GPGGA,171235,3241.8226,N,11709.3680,W,1,9,1.7,24,M,,M,,*53
06/13/2021,17:12:36.125,$GPGGA,171236,3241.8227,N,11709.3681,W,1,9,1.7,24,M,,M,,*50
06/13/2021,17:12:37.025,$GPGGA,171237,3241.8226,N,11709.3680,W,1,9,1.7,24,M,,M,,*51
06/13/2021,17:12:38.126,$GPGGA,171238,3241.8227,N,11709.3681,W,1,9,1.7,24,M,,M,,*5E
06/13/2021,17:12:39.026,$GPGGA,171239,3241.8228,N,11709.3680,W,1,9,1.7,25,M,,M,,*50
06/13/2021,17:12:40.126,$GPGGA,171240,3241.8226,N,11709.3681,W,1,9,1.7,25,M,,M,,*51
06/13/2021,17:12:41.026,$GPGGA,171241,3241.8227,N,11709.3680,W,1,9,1.7,25,M,,M,,*50
06/13/2021,17:12:42.126,$GPGGA,171242,3241.8226,N,11709.3681,W,1,9,1.7,25,M,,M,,*53
06/13/2021,17:12:43.026,$GPGGA,171243,3241.8227,N,11709.3680,W,1,9,1.7,25,M,,M,,*52
06/13/2021,17:12:44.126,$GPGGA,171244,3241.8226,N,11709.3681,W,1,9,1.7,25,M,,M,,*55
06/13/2021,17:12:45.027,$GPGGA,171245,3241.8227,N,11709.3680,W,1,9,1.7,25,M,,M,,*54
06/13/2021,17:12:46.126,$GPGGA,171246,3241.8228,N,11709.3679,W,1,9,1.7,25,M,,M,,*5E
06/13/2021,17:12:47.026,$GPGGA,171247,3241.8226,N,11709.3679,W,1,9,1.7,25,M,,M,,*51
06/13/2021,17:12:48.126,$GPGGA,171248,3241.8227,N,11709.3679,W,1,9,1.7,25,M,,M,,*5F
06/13/2021,17:12:49.026,$GPGGA,171249,3241.8226,N,11709.3679,W,1,9,1.7,25,M,,M,,*5F
06/13/2021,17:12:50.127,$GPGGA,171250,3241.8227,N,11709.3679,W,1,9,1.7,25,M,,M,,*56
06/13/2021,17:12:51.026,$GPGGA,171251,3241.8226,N,11709.3679,W,1,9,1.7,25,M,,M,,*56
06/13/2021,17:12:52.127,$GPGGA,171252,3241.8227,N,11709.3679,W,1,9,1.7,25,M,,M,,*54
06/13/2021,17:12:53.026,$GPGGA,171253,3241.8226,N,11709.3679,W,1,9,1.7,25,M,,M,,*54
06/13/2021,17:12:54.127,$GPGGA,171254,3241.8227,N,11709.3681,W,1,9,1.7,25,M,,M,,*55
06/13/2021,17:12:55.027,$GPGGA,171255,3241.8226,N,11709.3679,W,1,9,1.7,25,M,,M,,*52
06/13/2021,17:12:56.127,$GPGGA,171256,3241.8227,N,11709.3681,W,1,9,1.7,25,M,,M,,*57
06/13/2021,17:12:57.027,$GPGGA,171257,3241.8226,N,11709.3679,W,1,9,1.7,25,M,,M,,*50
06/13/2021,17:12:58.127,$GPGGA,171258,3241.8227,N,11709.3679,W,1,9,1.7,25,M,,M,,*5E
06/13/2021,17:12:59.027,$GPGGA,171259,3241.8226,N,11709.3681,W,1,9,1.7,25,M,,M,,*59
06/13/2021,17:13:00.127,$GPGGA,171300,3241.8227,N,11709.3680,W,1,9,1.7,25,M,,M,,*54
06/13/2021,17:13:01.027,$GPGGA,171301,3241.8228,N,11709.3681,W,1,9,1.7,26,M,,M,,*58
06/13/2021,17:13:02.128,$GPGGA,171302,3241.8226,N,11709.3680,W,1,9,1.7,26,M,,M,,*54
06/13/2021,17:13:03.028,$GPGGA,171303,3241.8228,N,11709.3681,W,1,9,1.7,26,M,,M,,*5A
06/13/2021,17:13:04.128,$GPGGA,171304,3241.8228,N,11709.3680,W,1,9,1.7,26,M,,M,,*5C
06/13/2021,17:13:05.028,$GPGGA,171305,3241.8228,N,11709.3681,W,1,9,1.7,26,M,,M,,*5C
06/13/2021,17:13:06.128,$GPGGA,171306,3241.8228,N,11709.3680,W,1,9,1.7,26,M,,M,,*5E
06/13/2021,17:13:07.027,$GPGGA,171307,3241.8228,N,11709.3681,W,1,9,1.7,26,M,,M,,*5E
06/13/2021,17:13:08.127,$GPGGA,171308,3241.8228,N,11709.3680,W,1,9,1.7,26,M,,M,,*50
06/13/2021,17:13:09.028,$GPGGA,171309,3241.8228,N,11709.3681,W,1,9,1.7,26,M,,M,,*50
06/13/2021,17:13:10.127,$GPGGA,171310,3241.8228,N,11709.3680,W,1,9,1.7,26,M,,M,,*59
06/13/2021,17:13:11.027,$GPGGA,171311,3241.8228,N,11709.3681,W,1,9,1.7,26,M,,M,,*59
06/13/2021,17:13:12.127,$GPGGA,171312,3241.8228,N,11709.3681,W,1,9,1.7,26,M,,M,,*5A
06/13/2021,17:13:13.027,$GPGGA,171313,3241.8228,N,11709.3680,W,1,9,1.7,26,M,,M,,*5A
06/13/2021,17:13:14.127,$GPGGA,171314,3241.8228,N,11709.3681,W,1,9,1.7,26,M,,M,,*5C
06/13/2021,17:13:15.028,$GPGGA,171315,3241.8228,N,11709.3680,W,1,9,1.7,26,M,,M,,*5C
06/13/2021,17:13:16.128,$GPGGA,171316,3241.8228,N,11709.3681,W,1,9,1.7,26,M,,M,,*5E
06/13/2021,17:13:17.027,$GPGGA,171317,3241.8228,N,11709.3680,W,1,9,1.7,26,M,,M,,*5E
06/13/2021,17:13:18.128,$GPGGA,171318,3241.8230,N,11709.3681,W,1,9,1.7,26,M,,M,,*59
06/13/2021,17:13:19.028,$GPGGA,171319,3241.8229,N,11709.3680,W,1,9,1.7,26,M,,M,,*51
06/13/2021,17:13:20.128,$GPGGA,171320,3241.8230,N,11709.3681,W,1,9,1.7,26,M,,M,,*52
06/13/2021,17:13:21.028,$GPGGA,171321,3241.8231,N,11709.3681,W,1,9,1.7,26,M,,M,,*52
06/13/2021,17:13:22.128,$GPGGA,171322,3241.8230,N,11709.3681,W,1,9,1.7,26,M,,M,,*50
06/13/2021,17:13:23.028,$GPGGA,171323,3241.8231,N,11709.3681,W,1,9,1.7,26,M,,M,,*50
06/13/2021,17:13:24.078,$GPGGA,171324,3241.8232,N,11709.3681,W,1,9,1.7,26,M,,M,,*54
06/13/2021,17:13:24.978,$GPGGA,171325,3241.8232,N,11709.3681,W,1,9,1.7,26,M,,M,,*55
06/13/2021,17:13:26.079,$GPGGA,171326,3241.8232,N,11709.3681,W,1,9,1.7,26,M,,M,,*56
06/13/2021,17:13:26.978,$GPGGA,171327,3241.8232,N,11709.3681,W,1,9,1.7,26,M,,M,,*57
06/13/2021,17:13:28.078,$GPGGA,171328,3241.8232,N,11709.3681,W,1,9,1.7,26,M,,M,,*58
06/13/2021,17:13:28.978,$GPGGA,171329,3241.8234,N,11709.3681,W,1,9,1.7,26,M,,M,,*5F
06/13/2021,17:13:30.078,$GPGGA,171330,3241.8233,N,11709.3681,W,1,9,1.7,26,M,,M,,*50
06/13/2021,17:13:30.979,$GPGGA,171331,3241.8235,N,11709.3681,W,1,9,1.7,26,M,,M,,*57
06/13/2021,17:13:32.078,$GPGGA,171332,3241.8234,N,11709.3681,W,1,9,1.7,26,M,,M,,*55
06/13/2021,17:13:32.979,$GPGGA,171333,3241.8235,N,11709.3681,W,1,9,1.7,26,M,,M,,*55
06/13/2021,17:13:34.079,$GPGGA,171334,3241.8235,N,11709.3681,W,1,9,1.7,26,M,,M,,*52
06/13/2021,17:13:34.978,$GPGGA,171335,3241.8235,N,11709.3682,W,1,9,1.7,26,M,,M,,*50
06/13/2021,17:13:36.078,$GPGGA,171336,3241.8235,N,11709.3682,W,1,9,1.7,26,M,,M,,*53
06/13/2021,17:13:36.979,$GPGGA,171337,3241.8235,N,11709.3682,W,1,9,1.7,26,M,,M,,*52
06/13/2021,17:13:38.079,$GPGGA,171338,3241.8237,N,11709.3682,W,1,9,1.7,26,M,,M,,*5F
06/13/2021,17:13:38.979,$GPGGA,171339,3241.8236,N,11709.3682,W,1,9,1.7,26,M,,M,,*5F
06/13/2021,17:13:40.080,$GPGGA,171340,3241.8237,N,11709.3683,W,1,9,1.7,26,M,,M,,*51
06/13/2021,17:13:40.979,$GPGGA,171341,3241.8236,N,11709.3683,W,1,9,1.7,26,M,,M,,*51
06/13/2021,17:13:42.079,$GPGGA,171342,3241.8237,N,11709.3683,W,1,9,1.7,26,M,,M,,*53
06/13/2021,17:13:42.979,$GPGGA,171343,3241.8236,N,11709.3683,W,1,9,1.7,26,M,,M,,*53
06/13/2021,17:13:44.080,$GPGGA,171344,3241.8237,N,11709.3685,W,1,9,1.7,26,M,,M,,*53
06/13/2021,17:13:44.979,$GPGGA,171345,3241.8236,N,11709.3684,W,1,9,1.7,26,M,,M,,*52
06/13/2021,17:13:46.079,$GPGGA,171346,3241.8237,N,11709.3685,W,1,9,1.7,26,M,,M,,*51
06/13/2021,17:13:46.980,$GPGGA,171347,3241.8236,N,11709.3684,W,1,9,1.7,26,M,,M,,*50
06/13/2021,17:13:48.080,$GPGGA,171348,3241.8237,N,11709.3685,W,1,9,1.7,26,M,,M,,*5F
06/13/2021,17:13:48.980,$GPGGA,171349,3241.8236,N,11709.3685,W,1,9,1.7,26,M,,M,,*5F
06/13/2021,17:13:50.079,$GPGGA,171350,3241.8237,N,11709.3685,W,1,9,1.7,26,M,,M,,*56
06/13/2021,17:13:50.979,$GPGGA,171351,3241.8236,N,11709.3685,W,1,9,1.7,26,M,,M,,*56
06/13/2021,17:13:52.079,$GPGGA,171352,3241.8237,N,11709.3685,W,1,9,1.7,26,M,,M,,*54
06/13/2021,17:13:52.980,$GPGGA,171353,3241.8236,N,11709.3685,W,1,9,1.7,26,M,,M,,*54
06/13/2021,17:13:54.080,$GPGGA,171354,3241.8237,N,11709.3686,W,1,9,1.7,26,M,,M,,*51
06/13/2021,17:13:54.980,$GPGGA,171355,3241.8236,N,11709.3686,W,1,9,1.7,26,M,,M,,*51
06/13/2021,17:13:56.080,$GPGGA,171356,3241.8237,N,11709.3686,W,1,9,1.7,26,M,,M,,*53
06/13/2021,17:13:56.980,$GPGGA,171357,3241.8236,N,11709.3686,W,1,9,1.7,26,M,,M,,*53
06/13/2021,17:13:58.080,$GPGGA,171358,3241.8237,N,11709.3686,W,1,9,1.7,26,M,,M,,*5D
06/13/2021,17:13:58.980,$GPGGA,171359,3241.8236,N,11709.3686,W,1,9,1.7,26,M,,M,,*5D
06/13/2021,17:14:00.080,$GPGGA,171400,3241.8237,N,11709.3686,W,1,9,1.7,26,M,,M,,*57
06/13/2021,17:14:00.980,$GPGGA,171401,3241.8236,N,11709.3686,W,1,9,1.7,26,M,,M,,*57
06/13/2021,17:14:02.080,$GPGGA,171402,3241.8237,N,11709.3686,W,1,9,1.7,26,M,,M,,*55
06/13/2021,17:14:02.981,$GPGGA,171403,3241.8236,N,11709.3686,W,1,9,1.7,26,M,,M,,*55
06/13/2021,17:14:04.080,$GPGGA,171404,3241.8237,N,11709.3686,W,1,9,1.7,26,M,,M,,*53
06/13/2021,17:14:04.980,$GPGGA,171405,3241.8236,N,11709.3686,W,1,9,1.7,26,M,,M,,*53
06/13/2021,17:14:06.080,$GPGGA,171406,3241.8237,N,11709.3686,W,1,9,1.7,26,M,,M,,*51
06/13/2021,17:14:06.981,$GPGGA,171407,3241.8236,N,11709.3686,W,1,9,1.7,26,M,,M,,*51
06/13/2021,17:14:08.081,$GPGGA,171408,3241.8237,N,11709.3688,W,1,9,1.7,26,M,,M,,*51
06/13/2021,17:14:08.981,$GPGGA,171409,3241.8236,N,11709.3687,W,1,9,1.7,27,M,,M,,*5F
06/13/2021,17:14:10.080,$GPGGA,171410,3241.8237,N,11709.3688,W,1,9,1.7,27,M,,M,,*59
06/13/2021,17:14:10.981,$GPGGA,171411,3241.8236,N,11709.3687,W,1,9,1.7,27,M,,M,,*56
06/13/2021,17:14:12.081,$GPGGA,171412,3241.8237,N,11709.3688,W,1,9,1.7,27,M,,M,,*5B
06/13/2021,17:14:12.981,$GPGGA,171413,3241.8236,N,11709.3687,W,1,9,1.7,27,M,,M,,*54
06/13/2021,17:14:14.081,$GPGGA,171414,3241.8237,N,11709.3689,W,1,9,1.7,27,M,,M,,*5C
06/13/2021,17:14:14.981,$GPGGA,171415,3241.8236,N,11709.3688,W,1,9,1.7,27,M,,M,,*5D
06/13/2021,17:14:16.081,$GPGGA,171416,3241.8237,N,11709.3689,W,1,9,1.7,27,M,,M,,*5E
06/13/2021,17:14:16.981,$GPGGA,171417,3241.8235,N,11709.3688,W,1,9,1.7,27,M,,M,,*5C
06/13/2021,17:14:18.081,$GPGGA,171418,3241.8235,N,11709.3689,W,1,9,1.7,27,M,,M,,*52
06/13/2021,17:14:18.981,$GPGGA,171419,3241.8235,N,11709.3688,W,1,9,1.7,27,M,,M,,*52
06/13/2021,17:14:20.081,$GPGGA,171420,3241.8235,N,11709.3689,W,1,9,1.7,27,M,,M,,*59
06/13/2021,17:14:20.982,$GPGGA,171421,3241.8235,N,11709.3688,W,1,9,1.7,27,M,,M,,*59
06/13/2021,17:14:22.081,$GPGGA,171422,3241.8235,N,11709.3689,W,1,9,1.7,27,M,,M,,*5B
06/13/2021,17:14:22.981,$GPGGA,171423,3241.8235,N,11709.3689,W,1,9,1.7,27,M,,M,,*5A
06/13/2021,17:14:24.081,$GPGGA,171424,3241.8235,N,11709.3689,W,1,9,1.7,27,M,,M,,*5D
06/13/2021,17:14:24.981,$GPGGA,171425,3241.8234,N,11709.3689,W,1,9,1.7,27,M,,M,,*5D
06/13/2021,17:14:26.082,$GPGGA,171426,3241.8235,N,11709.3689,W,1,9,1.7,27,M,,M,,*5F
06/13/2021,17:14:26.982,$GPGGA,171427,3241.8234,N,11709.3689,W,1,9,1.7,27,M,,M,,*5F
06/13/2021,17:14:28.082,$GPGGA,171428,3241.8235,N,11709.3689,W,1,9,1.7,27,M,,M,,*51
06/13/2021,17:14:28.982,$GPGGA,171429,3241.8234,N,11709.3689,W,1,9,1.7,27,M,,M,,*51
06/13/2021,17:14:30.081,$GPGGA,171430,3241.8235,N,11709.3689,W,1,9,1.7,27,M,,M,,*58
06/13/2021,17:14:30.981,$GPGGA,171431,3241.8234,N,11709.3689,W,1,9,1.7,27,M,,M,,*58
06/13/2021,17:14:32.082,$GPGGA,171432,3241.8235,N,11709.3689,W,1,9,1.7,27,M,,M,,*5A
06/13/2021,17:14:32.982,$GPGGA,171433,3241.8234,N,11709.3689,W,1,9,1.7,27,M,,M,,*5A
06/13/2021,17:14:34.082,$GPGGA,171434,3241.8235,N,11709.3689,W,1,9,1.7,27,M,,M,,*5C
06/13/2021,17:14:34.982,$GPGGA,171435,3241.8235,N,11709.3689,W,1,9,1.7,27,M,,M,,*5D
06/13/2021,17:14:36.082,$GPGGA,171436,3241.8235,N,11709.3689,W,1,9,1.7,27,M,,M,,*5E
06/13/2021,17:14:36.982,$GPGGA,171437,3241.8235,N,11709.3689,W,1,9,1.7,27,M,,M,,*5F
06/13/2021,17:14:38.082,$GPGGA,171438,3241.8235,N,11709.3690,W,1,9,1.7,27,M,,M,,*58
06/13/2021,17:14:38.982,$GPGGA,171439,3241.8235,N,11709.3689,W,1,9,1.7,27,M,,M,,*51
06/13/2021,17:14:40.082,$GPGGA,171440,3241.8235,N,11709.3690,W,1,9,1.7,27,M,,M,,*57
06/13/2021,17:14:40.982,$GPGGA,171441,3241.8235,N,11709.3690,W,1,9,1.7,27,M,,M,,*56
06/13/2021,17:14:42.082,$GPGGA,171442,3241.8235,N,11709.3690,W,1,9,1.7,27,M,,M,,*55
06/13/2021,17:14:42.982,$GPGGA,171443,3241.8235,N,11709.3690,W,1,9,1.7,27,M,,M,,*54
06/13/2021,17:14:44.082,$GPGGA,171444,3241.8235,N,11709.3690,W,1,9,1.7,27,M,,M,,*53
06/13/2021,17:14:44.982,$GPGGA,171445,3241.8235,N,11709.3690,W,1,9,1.7,27,M,,M,,*52
06/13/2021,17:14:46.082,$GPGGA,171446,3241.8235,N,11709.3690,W,1,9,1.7,27,M,,M,,*51
06/13/2021,17:14:46.982,$GPGGA,171447,3241.8235,N,11709.3690,W,1,9,1.7,26,M,,M,,*51
06/13/2021,17:14:48.082,$GPGGA,171448,3241.8235,N,11709.3690,W,1,9,1.7,26,M,,M,,*5E
06/13/2021,17:14:48.983,$GPGGA,171449,3241.8235,N,11709.3690,W,1,9,1.7,26,M,,M,,*5F
06/13/2021,17:14:50.082,$GPGGA,171450,3241.8235,N,11709.3690,W,1,9,1.7,26,M,,M,,*57
06/13/2021,17:14:50.983,$GPGGA,171451,3241.8235,N,11709.3690,W,1,9,1.7,26,M,,M,,*56
06/13/2021,17:14:52.083,$GPGGA,171452,3241.8235,N,11709.3690,W,1,9,1.7,26,M,,M,,*55
06/13/2021,17:14:52.983,$GPGGA,171453,3241.8235,N,11709.3690,W,1,9,1.7,26,M,,M,,*54
06/13/2021,17:14:54.083,$GPGGA,171454,3241.8235,N,11709.3690,W,1,9,1.7,26,M,,M,,*53
06/13/2021,17:14:54.983,$GPGGA,171455,3241.8235,N,11709.3690,W,1,9,1.7,26,M,,M,,*52
06/13/2021,17:14:56.083,$GPGGA,171456,3241.8235,N,11709.3690,W,1,9,1.7,26,M,,M,,*51
06/13/2021,17:14:56.983,$GPGGA,171457,3241.8235,N,11709.3690,W,1,9,1.7,26,M,,M,,*50
06/13/2021,17:14:58.083,$GPGGA,171458,3241.8235,N,11709.3690,W,1,9,1.7,26,M,,M,,*5F
06/13/2021,17:14:58.983,$GPGGA,171459,3241.8235,N,11709.3690,W,1,9,1.7,26,M,,M,,*5E
06/13/2021,17:15:00.083,$GPGGA,171500,3241.8235,N,11709.3690,W,1,9,1.7,26,M,,M,,*53
06/13/2021,17:15:00.983,$GPGGA,171501,3241.8235,N,11709.3689,W,1,9,1.7,26,M,,M,,*5A
06/13/2021,17:15:02.083,$GPGGA,171502,3241.8235,N,11709.3689,W,1,9,1.7,26,M,,M,,*59
06/13/2021,17:15:02.983,$GPGGA,171503,3241.8235,N,11709.3689,W,1,9,1.7,26,M,,M,,*58
06/13/2021,17:15:04.083,$GPGGA,171504,3241.8235,N,11709.3689,W,1,9,1.7,26,M,,M,,*5F
06/13/2021,17:15:04.983,$GPGGA,171505,3241.8235,N,11709.3689,W,1,9,1.7,26,M,,M,,*5E
06/13/2021,17:15:06.083,$GPGGA,171506,3241.8235,N,11709.3689,W,1,9,1.7,26,M,,M,,*5D
06/13/2021,17:15:06.983,$GPGGA,171507,3241.8235,N,11709.3689,W,1,9,1.7,26,M,,M,,*5C
06/13/2021,17:15:08.083,$GPGGA,171508,3241.8235,N,11709.3689,W,1,9,1.7,26,M,,M,,*53
06/13/2021,17:15:08.983,$GPGGA,171509,3241.8235,N,11709.3689,W,1,9,1.7,26,M,,M,,*52
06/13/2021,17:15:10.084,$GPGGA,171510,3241.8237,N,11709.3689,W,1,9,1.7,26,M,,M,,*58
06/13/2021,17:15:10.983,$GPGGA,171511,3241.8236,N,11709.3689,W,1,9,1.7,26,M,,M,,*58
06/13/2021,17:15:12.084,$GPGGA,171512,3241.8237,N,11709.3688,W,1,9,1.7,26,M,,M,,*5B
06/13/2021,17:15:12.983,$GPGGA,171513,3241.8235,N,11709.3689,W,1,9,1.7,26,M,,M,,*59
06/13/2021,17:15:14.084,$GPGGA,171514,3241.8235,N,11709.3689,W,1,9,1.7,26,M,,M,,*5E
06/13/2021,17:15:14.984,$GPGGA,171515,3241.8235,N,11709.3689,W,1,9,1.7,26,M,,M,,*5F
06/13/2021,17:15:16.084,$GPGGA,171516,3241.8235,N,11709.3689,W,1,9,1.7,26,M,,M,,*5C
06/13/2021,17:15:16.991,$GPGGA,171517,3241.8234,N,11709.3689,W,1,9,1.7,26,M,,M,,*5C
06/13/2021,17:15:18.084,$GPGGA,171518,3241.8235,N,11709.3689,W,1,9,1.7,26,M,,M,,*52
06/13/2021,17:15:18.984,$GPGGA,171519,3241.8234,N,11709.3690,W,1,9,1.7,26,M,,M,,*5A
06/13/2021,17:15:20.084,$GPGGA,171520,3241.8235,N,11709.3690,W,1,9,1.7,26,M,,M,,*51
06/13/2021,17:15:20.984,$GPGGA,171521,3241.8234,N,11709.3690,W,1,9,1.7,26,M,,M,,*51
06/13/2021,17:15:22.084,$GPGGA,171522,3241.8235,N,11709.3690,W,1,9,1.7,26,M,,M,,*53
06/13/2021,17:15:22.984,$GPGGA,171523,3241.8234,N,11709.3690,W,1,9,1.7,26,M,,M,,*53
06/13/2021,17:15:24.084,$GPGGA,171524,3241.8235,N,11709.3690,W,1,9,1.7,26,M,,M,,*55
06/13/2021,17:15:24.984,$GPGGA,171525,3241.8234,N,11709.3690,W,1,9,1.7,26,M,,M,,*55
06/13/2021,17:15:26.084,$GPGGA,171526,3241.8235,N,11709.3690,W,1,9,1.7,26,M,,M,,*57
06/13/2021,17:15:26.985,$GPGGA,171527,3241.8234,N,11709.3690,W,1,9,1.7,26,M,,M,,*57
06/13/2021,17:15:28.085,$GPGGA,171528,3241.8233,N,11709.3690,W,1,9,1.7,26,M,,M,,*5F
06/13/2021,17:15:28.985,$GPGGA,171529,3241.8234,N,11709.3690,W,1,9,1.7,26,M,,M,,*59
06/13/2021,17:15:30.085,$GPGGA,171530,3241.8233,N,11709.3692,W,1,9,1.7,26,M,,M,,*54
06/13/2021,17:15:30.985,$GPGGA,171531,3241.8234,N,11709.3691,W,1,9,1.7,26,M,,M,,*51
06/13/2021,17:15:32.085,$GPGGA,171532,3241.8233,N,11709.3692,W,1,9,1.7,26,M,,M,,*56
06/13/2021,17:15:32.985,$GPGGA,171533,3241.8234,N,11709.3691,W,1,9,1.7,26,M,,M,,*53
06/13/2021,17:15:34.085,$GPGGA,171534,3241.8233,N,11709.3692,W,1,9,1.7,26,M,,M,,*50
06/13/2021,17:15:34.985,$GPGGA,171535,3241.8234,N,11709.3691,W,1,9,1.7,26,M,,M,,*55
06/13/2021,17:15:36.085,$GPGGA,171536,3241.8233,N,11709.3692,W,1,9,1.7,26,M,,M,,*52
06/13/2021,17:15:36.985,$GPGGA,171537,3241.8234,N,11709.3691,W,1,9,1.7,26,M,,M,,*57
06/13/2021,17:15:38.085,$GPGGA,171538,3241.8233,N,11709.3692,W,1,9,1.7,26,M,,M,,*5C
06/13/2021,17:15:38.985,$GPGGA,171539,3241.8232,N,11709.3691,W,1,9,1.6,26,M,,M,,*5E
06/13/2021,17:15:40.085,$GPGGA,171540,3241.8232,N,11709.3692,W,1,9,1.6,26,M,,M,,*53
06/13/2021,17:15:40.985,$GPGGA,171541,3241.8232,N,11709.3691,W,1,9,1.6,26,M,,M,,*51
06/13/2021,17:15:42.085,$GPGGA,171542,3241.8232,N,11709.3692,W,1,9,1.6,26,M,,M,,*51
06/13/2021,17:15:42.985,$GPGGA,171543,3241.8232,N,11709.3691,W,1,9,1.6,26,M,,M,,*53
06/13/2021,17:15:44.085,$GPGGA,171544,3241.8232,N,11709.3692,W,1,9,1.6,26,M,,M,,*57
06/13/2021,17:15:44.985,$GPGGA,171545,3241.8232,N,11709.3691,W,1,9,1.6,26,M,,M,,*55
06/13/2021,17:15:46.085,$GPGGA,171546,3241.8232,N,11709.3692,W,1,9,1.6,26,M,,M,,*55
06/13/2021,17:15:46.986,$GPGGA,171547,3241.8232,N,11709.3691,W,1,9,1.6,25,M,,M,,*54
06/13/2021,17:15:48.085,$GPGGA,171548,3241.8232,N,11709.3692,W,1,9,1.6,25,M,,M,,*58
06/13/2021,17:15:48.986,$GPGGA,171549,3241.8232,N,11709.3691,W,1,9,1.6,25,M,,M,,*5A
06/13/2021,17:15:50.086,$GPGGA,171550,3241.8232,N,11709.3692,W,1,9,1.6,25,M,,M,,*51
06/13/2021,17:15:50.986,$GPGGA,171551,3241.8232,N,11709.3691,W,1,9,1.6,25,M,,M,,*53
06/13/2021,17:15:52.086,$GPGGA,171552,3241.8232,N,11709.3692,W,1,9,1.6,25,M,,M,,*53
06/13/2021,17:15:52.985,$GPGGA,171553,3241.8234,N,11709.3691,W,1,9,1.6,25,M,,M,,*57
06/13/2021,17:15:54.086,$GPGGA,171554,3241.8233,N,11709.3692,W,1,9,1.6,25,M,,M,,*54
06/13/2021,17:15:54.986,$GPGGA,171555,3241.8234,N,11709.3691,W,1,9,1.6,25,M,,M,,*51
06/13/2021,17:15:56.086,$GPGGA,171556,3241.8233,N,11709.3692,W,1,9,1.6,25,M,,M,,*56
06/13/2021,17:15:56.986,$GPGGA,171557,3241.8234,N,11709.3691,W,1,9,1.6,25,M,,M,,*53
06/13/2021,17:15:58.086,$GPGGA,171558,3241.8233,N,11709.3692,W,1,9,1.6,25,M,,M,,*58
06/13/2021,17:15:58.986,$GPGGA,171559,3241.8234,N,11709.3691,W,1,9,1.6,25,M,,M,,*5D
06/13/2021,17:16:00.086,$GPGGA,171600,3241.8233,N,11709.3692,W,1,9,1.6,25,M,,M,,*56
06/13/2021,17:16:00.987,$GPGGA,171601,3241.8234,N,11709.3691,W,1,9,1.6,24,M,,M,,*52
06/13/2021,17:16:02.086,$GPGGA,171602,3241.8233,N,11709.3692,W,1,9,1.6,24,M,,M,,*55
06/13/2021,17:16:02.987,$GPGGA,171603,3241.8234,N,11709.3691,W,1,9,1.6,24,M,,M,,*50
06/13/2021,17:16:04.087,$GPGGA,171604,3241.8233,N,11709.3692,W,1,9,1.6,24,M,,M,,*53
06/13/2021,17:16:04.986,$GPGGA,171605,3241.8234,N,11709.3691,W,1,9,1.6,24,M,,M,,*56
06/13/2021,17:16:06.086,$GPGGA,171606,3241.8232,N,11709.3692,W,1,8,1.6,24,M,,M,,*51
06/13/2021,17:16:06.987,$GPGGA,171607,3241.8232,N,11709.3692,W,1,8,2.3,24,M,,M,,*56
06/13/2021,17:16:08.087,$GPGGA,171608,3241.8232,N,11709.3692,W,1,8,2.3,24,M,,M,,*59
06/13/2021,17:16:08.987,$GPGGA,171609,3241.8230,N,11709.3692,W,1,8,2.3,23,M,,M,,*5D
06/13/2021,17:16:10.087,$GPGGA,171610,3241.8229,N,11709.3693,W,1,8,2.3,23,M,,M,,*5C
06/13/2021,17:16:10.986,$GPGGA,171611,3241.8230,N,11709.3693,W,1,8,2.3,23,M,,M,,*55
06/13/2021,17:16:12.086,$GPGGA,171612,3241.8228,N,11709.3693,W,1,8,2.3,23,M,,M,,*5F
06/13/2021,17:16:12.987,$GPGGA,171613,3241.8230,N,11709.3693,W,1,8,1.6,23,M,,M,,*51
06/13/2021,17:16:14.087,$GPGGA,171614,3241.8232,N,11709.3692,W,1,9,1.6,23,M,,M,,*54
06/13/2021,17:16:14.987,$GPGGA,171615,3241.8234,N,11709.3690,W,1,9,1.6,23,M,,M,,*51
06/13/2021,17:16:16.087,$GPGGA,171616,3241.8235,N,11709.3690,W,1,9,1.6,23,M,,M,,*53
06/13/2021,17:16:16.990,$GPGGA,171617,3241.8237,N,11709.3689,W,1,9,1.6,22,M,,M,,*59
06/13/2021,17:16:18.087,$GPGGA,171618,3241.8238,N,11709.3689,W,1,9,1.6,22,M,,M,,*59
06/13/2021,17:16:18.987,$GPGGA,171619,3241.8239,N,11709.3688,W,1,9,1.6,22,M,,M,,*58
06/13/2021,17:16:20.087,$GPGGA,171620,3241.8239,N,11709.3689,W,1,9,1.6,22,M,,M,,*53
06/13/2021,17:16:20.987,$GPGGA,171621,3241.8239,N,11709.3687,W,1,9,1.6,22,M,,M,,*5C
06/13/2021,17:16:22.087,$GPGGA,171622,3241.8239,N,11709.3688,W,1,9,1.6,22,M,,M,,*50
06/13/2021,17:16:22.987,$GPGGA,171623,3241.8239,N,11709.3687,W,1,9,1.6,22,M,,M,,*5E
06/13/2021,17:16:24.087,$GPGGA,171624,3241.8239,N,11709.3688,W,1,9,1.6,22,M,,M,,*56
06/13/2021,17:16:24.988,$GPGGA,171625,3241.8241,N,11709.3686,W,1,9,1.6,22,M,,M,,*56
06/13/2021,17:16:26.087,$GPGGA,171626,3241.8240,N,11709.3686,W,1,9,1.6,22,M,,M,,*54
06/13/2021,17:16:26.988,$GPGGA,171627,3241.8241,N,11709.3686,W,1,9,1.6,22,M,,M,,*54
06/13/2021,17:16:28.087,$GPGGA,171628,3241.8240,N,11709.3686,W,1,9,1.6,22,M,,M,,*5A
06/13/2021,17:16:28.988,$GPGGA,171629,3241.8239,N,11709.3686,W,1,9,1.6,22,M,,M,,*55
06/13/2021,17:16:30.088,$GPGGA,171630,3241.8239,N,11709.3686,W,1,9,1.6,22,M,,M,,*5D
06/13/2021,17:16:30.988,$GPGGA,171631,3241.8239,N,11709.3686,W,1,9,1.6,22,M,,M,,*5C
06/13/2021,17:16:32.088,$GPGGA,171632,3241.8239,N,11709.3686,W,1,9,1.6,22,M,,M,,*5F
06/13/2021,17:16:32.985,$GPGGA,171633,3241.8239,N,11709.3686,W,1,9,1.6,22,M,,M,,*5E
06/13/2021,17:16:34.077,$GPGGA,171634,3241.8239,N,11709.3686,W,1,9,1.6,22,M,,M,,*59
06/13/2021,17:16:34.973,$GPGGA,171635,3241.8239,N,11709.3686,W,1,9,1.6,22,M,,M,,*58
06/13/2021,17:16:36.073,$GPGGA,171636,3241.8239,N,11709.3686,W,1,9,1.6,22,M,,M,,*5B
06/13/2021,17:16:36.973,$GPGGA,171637,3241.8239,N,11709.3686,W,1,9,1.6,22,M,,M,,*5A
06/13/2021,17:16:38.073,$GPGGA,171638,3241.8239,N,11709.3686,W,1,9,1.6,22,M,,M,,*55
06/13/2021,17:16:38.974,$GPGGA,171639,3241.8239,N,11709.3685,W,1,9,1.6,21,M,,M,,*54
06/13/2021,17:16:40.073,$GPGGA,171640,3241.8239,N,11709.3685,W,1,9,1.6,21,M,,M,,*5A
06/13/2021,17:16:40.973,$GPGGA,171641,3241.8239,N,11709.3685,W,1,9,1.6,21,M,,M,,*5B
06/13/2021,17:16:42.073,$GPGGA,171642,3241.8239,N,11709.3685,W,1,9,1.6,21,M,,M,,*58
06/13/2021,17:16:42.974,$GPGGA,171643,3241.8239,N,11709.3684,W,1,9,1.6,21,M,,M,,*58
06/13/2021,17:16:44.074,$GPGGA,171644,3241.8239,N,11709.3685,W,1,9,1.6,21,M,,M,,*5E
06/13/2021,17:16:44.973,$GPGGA,171645,3241.8239,N,11709.3684,W,1,9,1.6,21,M,,M,,*5E
06/13/2021,17:16:46.074,$GPGGA,171646,3241.8239,N,11709.3685,W,1,9,1.6,21,M,,M,,*5C
06/13/2021,17:16:46.973,$GPGGA,171647,3241.8239,N,11709.3683,W,1,9,1.6,21,M,,M,,*5B
06/13/2021,17:16:48.074,$GPGGA,171648,3241.8239,N,11709.3683,W,1,9,1.6,21,M,,M,,*54
06/13/2021,17:16:48.974,$GPGGA,171649,3241.8239,N,11709.3683,W,1,9,1.6,21,M,,M,,*55
06/13/2021,17:16:50.074,$GPGGA,171650,3241.8239,N,11709.3683,W,1,9,1.6,21,M,,M,,*5D
06/13/2021,17:16:50.974,$GPGGA,171651,3241.8239,N,11709.3683,W,1,9,1.6,20,M,,M,,*5D
06/13/2021,17:16:52.074,$GPGGA,171652,3241.8239,N,11709.3683,W,1,8,1.6,20,M,,M,,*5F
06/13/2021,17:16:52.974,$GPGGA,171653,3241.8236,N,11709.3685,W,1,8,2.3,20,M,,M,,*51
06/13/2021,17:16:54.074,$GPGGA,171654,3241.8235,N,11709.3685,W,1,8,2.3,20,M,,M,,*55
06/13/2021,17:16:54.974,$GPGGA,171655,3241.8234,N,11709.3685,W,1,8,2.3,20,M,,M,,*55
06/13/2021,17:16:56.074,$GPGGA,171656,3241.8233,N,11709.3685,W,1,8,2.3,20,M,,M,,*51
06/13/2021,17:16:56.974,$GPGGA,171657,3241.8232,N,11709.3686,W,1,8,2.3,19,M,,M,,*58
06/13/2021,17:16:58.074,$GPGGA,171658,3241.8232,N,11709.3688,W,1,8,2.3,19,M,,M,,*59
06/13/2021,17:16:58.974,$GPGGA,171659,3241.8230,N,11709.3687,W,1,8,2.3,19,M,,M,,*55
06/13/2021,17:17:00.074,$GPGGA,171700,3241.8229,N,11709.3688,W,1,8,2.3,19,M,,M,,*5F
06/13/2021,17:17:00.975,$GPGGA,171701,3241.8228,N,11709.3689,W,1,8,2.3,18,M,,M,,*5F
06/13/2021,17:17:02.074,$GPGGA,171702,3241.8228,N,11709.3688,W,1,8,2.3,18,M,,M,,*5D
06/13/2021,17:17:02.974,$GPGGA,171703,3241.8228,N,11709.3689,W,1,8,2.3,18,M,,M,,*5D
06/13/2021,17:17:04.075,$GPGGA,171704,3241.8228,N,11709.3689,W,1,8,2.3,18,M,,M,,*5A
06/13/2021,17:17:04.975,$GPGGA,171705,3241.8226,N,11709.3689,W,1,8,2.3,18,M,,M,,*55
06/13/2021,17:17:06.075,$GPGGA,171706,3241.8227,N,11709.3690,W,1,8,2.3,18,M,,M,,*5F
06/13/2021,17:17:06.974,$GPGGA,171707,3241.8225,N,11709.3690,W,1,8,2.3,17,M,,M,,*53
06/13/2021,17:17:08.075,$GPGGA,171708,3241.8225,N,11709.3692,W,1,8,2.3,17,M,,M,,*5E
06/13/2021,17:17:08.975,$GPGGA,171709,3241.8225,N,11709.3691,W,1,8,2.3,17,M,,M,,*5C
06/13/2021,17:17:10.075,$GPGGA,171710,3241.8225,N,11709.3692,W,1,8,2.3,17,M,,M,,*57
06/13/2021,17:17:10.974,$GPGGA,171711,3241.8224,N,11709.3692,W,1,8,2.3,16,M,,M,,*56
06/13/2021,17:17:12.075,$GPGGA,171712,3241.8224,N,11709.3692,W,1,8,2.3,16,M,,M,,*55
06/13/2021,17:17:12.975,$GPGGA,171713,3241.8224,N,11709.3693,W,1,8,2.3,16,M,,M,,*55
06/13/2021,17:17:14.075,$GPGGA,171714,3241.8224,N,11709.3693,W,1,8,2.3,16,M,,M,,*52
06/13/2021,17:17:14.975,$GPGGA,171715,3241.8223,N,11709.3694,W,1,8,2.3,15,M,,M,,*50
06/13/2021,17:17:16.075,$GPGGA,171716,3241.8224,N,11709.3694,W,1,8,2.3,15,M,,M,,*54
06/13/2021,17:17:16.975,$GPGGA,171717,3241.8223,N,11709.3696,W,1,8,2.3,15,M,,M,,*50
06/13/2021,17:17:18.075,$GPGGA,171718,3241.8224,N,11709.3695,W,1,8,2.3,15,M,,M,,*5B
06/13/2021,17:17:18.975,$GPGGA,171719,3241.8223,N,11709.3696,W,1,8,2.3,14,M,,M,,*5F
06/13/2021,17:17:20.075,$GPGGA,171720,3241.8222,N,11709.3696,W,1,8,2.3,14,M,,M,,*54
06/13/2021,17:17:20.976,$GPGGA,171721,3241.8223,N,11709.3696,W,1,8,2.3,14,M,,M,,*54
06/13/2021,17:17:22.076,$GPGGA,171722,3241.8222,N,11709.3697,W,1,8,2.3,14,M,,M,,*57
06/13/2021,17:17:22.975,$GPGGA,171723,3241.8223,N,11709.3697,W,1,8,2.3,14,M,,M,,*57
06/13/2021,17:17:24.074,$GPGGA,171724,3241.8222,N,11709.3697,W,1,8,2.3,14,M,,M,,*51
06/13/2021,17:17:24.975,$GPGGA,171725,3241.8223,N,11709.3699,W,1,8,2.3,13,M,,M,,*58
06/13/2021,17:17:26.075,$GPGGA,171726,3241.8222,N,11709.3698,W,1,8,2.3,13,M,,M,,*5B
06/13/2021,17:17:26.976,$GPGGA,171727,3241.8223,N,11709.3699,W,1,8,2.3,13,M,,M,,*5A
06/13/2021,17:17:28.075,$GPGGA,171728,3241.8221,N,11709.3699,W,1,8,2.3,13,M,,M,,*57
06/13/2021,17:17:28.976,$GPGGA,171729,3241.8221,N,11709.3699,W,1,8,2.3,13,M,,M,,*56
06/13/2021,17:17:30.075,$GPGGA,171730,3241.8221,N,11709.3699,W,1,8,2.3,13,M,,M,,*5E
06/13/2021,17:17:30.976,$GPGGA,171731,3241.8221,N,11709.3700,W,1,8,2.3,12,M,,M,,*5F
06/13/2021,17:17:32.076,$GPGGA,171732,3241.8221,N,11709.3700,W,1,8,2.3,12,M,,M,,*5C
06/13/2021,17:17:32.976,$GPGGA,171733,3241.8221,N,11709.3700,W,1,8,2.3,12,M,,M,,*5D
06/13/2021,17:17:34.076,$GPGGA,171734,3241.8221,N,11709.3700,W,1,8,2.3,12,M,,M,,*5A
06/13/2021,17:17:34.976,$GPGGA,171735,3241.8221,N,11709.3700,W,1,8,2.3,12,M,,M,,*5B
06/13/2021,17:17:36.076,$GPGGA,171736,3241.8221,N,11709.3700,W,1,8,2.3,12,M,,M,,*58
06/13/2021,17:17:36.976,$GPGGA,171737,3241.8221,N,11709.3700,W,1,8,2.3,12,M,,M,,*59
06/13/2021,17:17:38.077,$GPGGA,171738,3241.8221,N,11709.3700,W,1,8,2.3,12,M,,M,,*56
06/13/2021,17:17:38.977,$GPGGA,171739,3241.8221,N,11709.3700,W,1,8,2.3,12,M,,M,,*57
06/13/2021,17:17:40.077,$GPGGA,171740,3241.8221,N,11709.3701,W,1,8,2.3,12,M,,M,,*58
06/13/2021,17:17:40.977,$GPGGA,171741,3241.8221,N,11709.3700,W,1,8,2.3,11,M,,M,,*5B
06/13/2021,17:17:42.077,$GPGGA,171742,3241.8221,N,11709.3701,W,1,8,2.3,11,M,,M,,*59
06/13/2021,17:17:42.976,$GPGGA,171743,3241.8221,N,11709.3701,W,1,8,2.3,11,M,,M,,*58
06/13/2021,17:17:44.077,$GPGGA,171744,3241.8221,N,11709.3701,W,1,8,2.3,11,M,,M,,*5F
06/13/2021,17:17:44.976,$GPGGA,171745,3241.8221,N,11709.3701,W,1,8,2.3,11,M,,M,,*5E
06/13/2021,17:17:46.076,$GPGGA,171746,3241.8221,N,11709.3701,W,1,8,2.3,11,M,,M,,*5D
06/13/2021,17:17:46.976,$GPGGA,171747,3241.8221,N,11709.3701,W,1,8,2.3,11,M,,M,,*5C
06/13/2021,17:17:48.077,$GPGGA,171748,3241.8221,N,11709.3701,W,1,8,2.3,11,M,,M,,*53
06/13/2021,17:17:48.976,$GPGGA,171749,3241.8221,N,11709.3701,W,1,8,2.3,11,M,,M,,*52
06/13/2021,17:17:50.077,$GPGGA,171750,3241.8221,N,11709.3701,W,1,8,2.3,11,M,,M,,*5A
06/13/2021,17:17:50.977,$GPGGA,171751,3241.8221,N,11709.3701,W,1,8,2.3,11,M,,M,,*5B
06/13/2021,17:17:52.077,$GPGGA,171752,3241.8223,N,11709.3701,W,1,8,2.3,11,M,,M,,*5A
06/13/2021,17:17:52.977,$GPGGA,171753,3241.8222,N,11709.3701,W,1,8,2.3,11,M,,M,,*5A
06/13/2021,17:17:54.077,$GPGGA,171754,3241.8223,N,11709.3701,W,1,8,2.3,11,M,,M,,*5C
06/13/2021,17:17:54.977,$GPGGA,171755,3241.8222,N,11709.3701,W,1,8,2.3,11,M,,M,,*5C
06/13/2021,17:17:56.077,$GPGGA,171756,3241.8223,N,11709.3701,W,1,8,2.3,11,M,,M,,*5E
06/13/2021,17:17:56.977,$GPGGA,171757,3241.8222,N,11709.3701,W,1,8,2.3,11,M,,M,,*5E
06/13/2021,17:17:58.077,$GPGGA,171758,3241.8223,N,11709.3701,W,1,8,2.3,11,M,,M,,*50
06/13/2021,17:17:58.977,$GPGGA,171759,3241.8222,N,11709.3700,W,1,8,2.3,11,M,,M,,*51
06/13/2021,17:18:00.078,$GPGGA,171800,3241.8221,N,11709.3700,W,1,8,2.3,11,M,,M,,*51
06/13/2021,17:18:00.968,$GPGGA,171801,3241.8221,N,11709.3700,W,1,8,2.3,11,M,,M,,*50
06/13/2021,17:18:02.078,$GPGGA,171802,3241.8221,N,11709.3700,W,1,8,2.3,11,M,,M,,*53
06/13/2021,17:18:02.968,$GPGGA,171803,3241.8223,N,11709.3700,W,1,8,2.3,11,M,,M,,*50
06/13/2021,17:18:04.068,$GPGGA,171804,3241.8221,N,11709.3700,W,1,8,2.3,11,M,,M,,*55
06/13/2021,17:18:04.968,$GPGGA,171805,3241.8221,N,11709.3700,W,1,8,2.3,11,M,,M,,*54
06/13/2021,17:18:06.077,$GPGGA,171806,3241.8221,N,11709.3700,W,1,8,2.3,11,M,,M,,*57
06/13/2021,17:18:06.977,$GPGGA,171807,3241.8221,N,11709.3700,W,1,8,2.3,11,M,,M,,*56
06/13/2021,17:18:08.078,$GPGGA,171808,3241.8221,N,11709.3700,W,1,8,2.3,11,M,,M,,*59
06/13/2021,17:18:08.968,$GPGGA,171809,3241.8221,N,11709.3700,W,1,8,2.3,11,M,,M,,*58
06/13/2021,17:18:10.028,$GPGGA,171810,3241.8221,N,11709.3700,W,1,8,2.3,11,M,,M,,*50
06/13/2021,17:18:10.918,$GPGGA,171811,3241.8221,N,11709.3700,W,1,8,2.3,11,M,,M,,*51
06/13/2021,17:18:12.028,$GPGGA,171812,3241.8221,N,11709.3700,W,1,8,2.3,11,M,,M,,*52
06/13/2021,17:18:12.928,$GPGGA,171813,3241.8221,N,11709.3700,W,1,8,2.3,11,M,,M,,*53
06/13/2021,17:18:14.028,$GPGGA,171814,3241.8221,N,11709.3701,W,1,8,2.3,11,M,,M,,*55
06/13/2021,17:18:14.919,$GPGGA,171815,3241.8221,N,11709.3701,W,1,8,2.3,11,M,,M,,*54
06/13/2021,17:18:16.028,$GPGGA,171816,3241.8221,N,11709.3701,W,1,8,2.3,11,M,,M,,*57
06/13/2021,17:18:16.928,$GPGGA,171817,3241.8221,N,11709.3703,W,1,8,2.3,11,M,,M,,*54
06/13/2021,17:18:18.028,$GPGGA,171818,3241.8221,N,11709.3702,W,1,8,2.3,11,M,,M,,*5A
06/13/2021,17:18:18.918,$GPGGA,171819,3241.8221,N,11709.3703,W,1,8,2.3,11,M,,M,,*5A
06/13/2021,17:18:20.028,$GPGGA,171820,3241.8219,N,11709.3702,W,1,8,2.3,11,M,,M,,*5A
06/13/2021,17:18:20.918,$GPGGA,171821,3241.8220,N,11709.3703,W,1,8,2.3,11,M,,M,,*50
06/13/2021,17:18:22.019,$GPGGA,171822,3241.8219,N,11709.3703,W,1,8,2.3,11,M,,M,,*59
06/13/2021,17:18:22.928,$GPGGA,171823,3241.8220,N,11709.3703,W,1,8,2.3,11,M,,M,,*52
06/13/2021,17:18:24.028,$GPGGA,171824,3241.8219,N,11709.3703,W,1,8,2.3,11,M,,M,,*5F
06/13/2021,17:18:24.919,$GPGGA,171825,3241.8220,N,11709.3703,W,1,8,2.3,11,M,,M,,*54
06/13/2021,17:18:26.019,$GPGGA,171826,3241.8219,N,11709.3704,W,1,8,2.3,11,M,,M,,*5A
06/13/2021,17:18:26.919,$GPGGA,171827,3241.8218,N,11709.3704,W,1,8,2.3,11,M,,M,,*5A
06/13/2021,17:18:28.019,$GPGGA,171828,3241.8219,N,11709.3704,W,1,8,2.3,11,M,,M,,*54
06/13/2021,17:18:28.919,$GPGGA,171829,3241.8218,N,11709.3704,W,1,8,2.3,11,M,,M,,*54
06/13/2021,17:18:30.029,$GPGGA,171830,3241.8219,N,11709.3704,W,1,8,2.3,11,M,,M,,*5D
06/13/2021,17:18:30.919,$GPGGA,171831,3241.8218,N,11709.3704,W,1,8,2.3,11,M,,M,,*5D
06/13/2021,17:18:32.019,$GPGGA,171832,3241.8219,N,11709.3704,W,1,8,2.3,11,M,,M,,*5F
06/13/2021,17:18:32.919,$GPGGA,171833,3241.8218,N,11709.3706,W,1,8,2.3,11,M,,M,,*5D
06/13/2021,17:18:34.019,$GPGGA,171834,3241.8219,N,11709.3705,W,1,8,2.3,11,M,,M,,*58
06/13/2021,17:18:34.919,$GPGGA,171835,3241.8218,N,11709.3706,W,1,8,2.3,11,M,,M,,*5B
06/13/2021,17:18:36.020,$GPGGA,171836,3241.8219,N,11709.3705,W,1,8,2.3,11,M,,M,,*5A
06/13/2021,17:18:36.919,$GPGGA,171837,3241.8218,N,11709.3706,W,1,8,2.3,11,M,,M,,*59
06/13/2021,17:18:38.029,$GPGGA,171838,3241.8220,N,11709.3705,W,1,8,2.3,11,M,,M,,*5E
06/13/2021,17:18:38.919,$GPGGA,171839,3241.8219,N,11709.3706,W,1,8,2.3,11,M,,M,,*56
06/13/2021,17:18:40.020,$GPGGA,171840,3241.8220,N,11709.3705,W,1,8,2.3,11,M,,M,,*51
06/13/2021,17:18:40.919,$GPGGA,171841,3241.8219,N,11709.3706,W,1,8,2.3,11,M,,M,,*59
06/13/2021,17:18:42.021,$GPGGA,171842,3241.8221,N,11709.3705,W,1,8,2.3,11,M,,M,,*52
06/13/2021,17:18:42.919,$GPGGA,171843,3241.8221,N,11709.3706,W,1,8,2.3,11,M,,M,,*50
06/13/2021,17:18:44.020,$GPGGA,171844,3241.8221,N,11709.3705,W,1,8,2.3,11,M,,M,,*54
06/13/2021,17:18:44.919,$GPGGA,171845,3241.8221,N,11709.3706,W,1,8,2.3,11,M,,M,,*56
06/13/2021,17:18:46.019,$GPGGA,171846,3241.8221,N,11709.3705,W,1,8,2.3,11,M,,M,,*56
06/13/2021,17:18:46.920,$GPGGA,171847,3241.8221,N,11709.3706,W,1,8,2.3,11,M,,M,,*54
06/13/2021,17:18:48.020,$GPGGA,171848,3241.8221,N,11709.3705,W,1,8,2.3,11,M,,M,,*58
06/13/2021,17:18:48.920,$GPGGA,171849,3241.8223,N,11709.3706,W,1,8,2.3,11,M,,M,,*58
06/13/2021,17:18:50.020,$GPGGA,171850,3241.8222,N,11709.3705,W,1,8,2.3,11,M,,M,,*52
06/13/2021,17:18:50.920,$GPGGA,171851,3241.8223,N,11709.3706,W,1,8,2.3,11,M,,M,,*51
06/13/2021,17:18:52.020,$GPGGA,171852,3241.8224,N,11709.3705,W,1,8,2.3,11,M,,M,,*56
06/13/2021,17:18:52.920,$GPGGA,171853,3241.8223,N,11709.3707,W,1,8,2.3,11,M,,M,,*52
06/13/2021,17:18:54.020,$GPGGA,171854,3241.8224,N,11709.3706,W,1,8,2.3,11,M,,M,,*53
06/13/2021,17:18:54.921,$GPGGA,171855,3241.8224,N,11709.3707,W,1,8,2.3,11,M,,M,,*53
06/13/2021,17:18:56.020,$GPGGA,171856,3241.8224,N,11709.3706,W,1,8,2.3,11,M,,M,,*51
06/13/2021,17:18:56.920,$GPGGA,171857,3241.8224,N,11709.3707,W,1,8,2.3,11,M,,M,,*51
06/13/2021,17:18:58.020,$GPGGA,171858,3241.8225,N,11709.3707,W,1,8,2.3,11,M,,M,,*5F
06/13/2021,17:18:58.920,$GPGGA,171859,3241.8225,N,11709.3707,W,1,8,2.3,11,M,,M,,*5E
06/13/2021,17:19:00.021,$GPGGA,171900,3241.8225,N,11709.3707,W,1,8,2.3,11,M,,M,,*53
06/13/2021,17:19:00.921,$GPGGA,171901,3241.8225,N,11709.3708,W,1,8,2.3,11,M,,M,,*5D
06/13/2021,17:19:02.020,$GPGGA,171902,3241.8225,N,11709.3708,W,1,8,2.3,11,M,,M,,*5E
06/13/2021,17:19:02.921,$GPGGA,171903,3241.8225,N,11709.3708,W,1,8,2.3,11,M,,M,,*5F
06/13/2021,17:19:04.021,$GPGGA,171904,3241.8225,N,11709.3710,W,1,8,2.3,11,M,,M,,*51
06/13/2021,17:19:04.920,$GPGGA,171905,3241.8225,N,11709.3709,W,1,8,2.3,11,M,,M,,*58
06/13/2021,17:19:06.021,$GPGGA,171906,3241.8225,N,11709.3710,W,1,8,2.3,11,M,,M,,*53
06/13/2021,17:19:06.921,$GPGGA,171907,3241.8225,N,11709.3709,W,1,8,2.3,11,M,,M,,*5A
06/13/2021,17:19:08.021,$GPGGA,171908,3241.8225,N,11709.3710,W,1,8,2.3,11,M,,M,,*5D
06/13/2021,17:19:08.921,$GPGGA,171909,3241.8225,N,11709.3710,W,1,8,2.3,11,M,,M,,*5C
06/13/2021,17:19:10.021,$GPGGA,171910,3241.8225,N,11709.3710,W,1,8,2.3,11,M,,M,,*54
06/13/2021,17:19:10.921,$GPGGA,171911,3241.8225,N,11709.3710,W,1,8,2.3,11,M,,M,,*55
06/13/2021,17:19:12.021,$GPGGA,171912,3241.8225,N,11709.3710,W,1,8,2.3,11,M,,M,,*56
06/13/2021,17:19:12.921,$GPGGA,171913,3241.8225,N,11709.3711,W,1,8,2.3,11,M,,M,,*56
06/13/2021,17:19:14.022,$GPGGA,171914,3241.8225,N,11709.3711,W,1,8,2.3,11,M,,M,,*51
06/13/2021,17:19:14.922,$GPGGA,171915,3241.8225,N,11709.3711,W,1,8,2.3,11,M,,M,,*50
06/13/2021,17:19:16.021,$GPGGA,171916,3241.8225,N,11709.3711,W,1,8,2.3,11,M,,M,,*53
06/13/2021,17:19:16.921,$GPGGA,171917,3241.8225,N,11709.3712,W,1,8,2.3,11,M,,M,,*51
06/13/2021,17:19:18.022,$GPGGA,171918,3241.8225,N,11709.3712,W,1,8,2.3,11,M,,M,,*5E
06/13/2021,17:19:18.921,$GPGGA,171919,3241.8225,N,11709.3712,W,1,8,2.3,11,M,,M,,*5F
06/13/2021,17:19:20.021,$GPGGA,171920,3241.8225,N,11709.3712,W,1,8,2.3,11,M,,M,,*55
06/13/2021,17:19:20.921,$GPGGA,171921,3241.8225,N,11709.3714,W,1,8,2.3,11,M,,M,,*52
06/13/2021,17:19:22.022,$GPGGA,171922,3241.8224,N,11709.3713,W,1,8,2.3,11,M,,M,,*57
06/13/2021,17:19:22.922,$GPGGA,171923,3241.8224,N,11709.3714,W,1,8,2.3,11,M,,M,,*51
06/13/2021,17:19:24.021,$GPGGA,171924,3241.8224,N,11709.3713,W,1,8,2.3,11,M,,M,,*51
06/13/2021,17:19:24.922,$GPGGA,171925,3241.8224,N,11709.3714,W,1,8,2.3,12,M,,M,,*54
06/13/2021,17:19:26.022,$GPGGA,171926,3241.8224,N,11709.3714,W,1,8,2.3,12,M,,M,,*57
06/13/2021,17:19:26.922,$GPGGA,171927,3241.8224,N,11709.3714,W,1,8,2.3,12,M,,M,,*56
06/13/2021,17:19:28.022,$GPGGA,171928,3241.8223,N,11709.3714,W,1,8,2.3,12,M,,M,,*5E
06/13/2021,17:19:28.922,$GPGGA,171929,3241.8224,N,11709.3714,W,1,8,2.3,12,M,,M,,*58
06/13/2021,17:19:30.022,$GPGGA,171930,3241.8223,N,11709.3714,W,1,8,2.3,12,M,,M,,*57
06/13/2021,17:19:30.922,$GPGGA,171931,3241.8224,N,11709.3714,W,1,8,2.3,12,M,,M,,*51
06/13/2021,17:19:32.023,$GPGGA,171932,3241.8223,N,11709.3715,W,1,8,2.3,12,M,,M,,*54
06/13/2021,17:19:32.922,$GPGGA,171933,3241.8222,N,11709.3715,W,1,8,2.3,11,M,,M,,*57
06/13/2021,17:19:34.022,$GPGGA,171934,3241.8223,N,11709.3715,W,1,8,2.3,11,M,,M,,*51
06/13/2021,17:19:34.923,$GPGGA,171935,3241.8222,N,11709.3715,W,1,8,2.3,11,M,,M,,*51
06/13/2021,17:19:36.022,$GPGGA,171936,3241.8223,N,11709.3715,W,1,8,2.3,11,M,,M,,*53
06/13/2021,17:19:36.922,$GPGGA,171937,3241.8222,N,11709.3715,W,1,8,2.3,11,M,,M,,*53
06/13/2021,17:19:38.025,$GPGGA,171938,3241.8223,N,11709.3715,W,1,8,2.3,11,M,,M,,*5D
06/13/2021,17:19:38.922,$GPGGA,171939,3241.8222,N,11709.3717,W,1,8,2.3,11,M,,M,,*5F
06/13/2021,17:19:40.022,$GPGGA,171940,3241.8223,N,11709.3716,W,1,8,2.3,11,M,,M,,*51
06/13/2021,17:19:40.922,$GPGGA,171941,3241.8222,N,11709.3717,W,1,8,2.3,11,M,,M,,*50
06/13/2021,17:19:42.022,$GPGGA,171942,3241.8223,N,11709.3716,W,1,8,2.3,11,M,,M,,*53
06/13/2021,17:19:42.923,$GPGGA,171943,3241.8222,N,11709.3717,W,1,8,2.3,11,M,,M,,*52
06/13/2021,17:19:44.023,$GPGGA,171944,3241.8223,N,11709.3716,W,1,8,2.3,11,M,,M,,*55
06/13/2021,17:19:44.922,$GPGGA,171945,3241.8222,N,11709.3717,W,1,8,2.3,11,M,,M,,*54
06/13/2021,17:19:46.022,$GPGGA,171946,3241.8223,N,11709.3716,W,1,8,2.3,11,M,,M,,*57
06/13/2021,17:19:46.923,$GPGGA,171947,3241.8222,N,11709.3717,W,1,8,2.3,11,M,,M,,*56
06/13/2021,17:19:48.023,$GPGGA,171948,3241.8223,N,11709.3717,W,1,8,2.3,11,M,,M,,*58
06/13/2021,17:19:48.923,$GPGGA,171949,3241.8222,N,11709.3717,W,1,8,2.3,11,M,,M,,*58
06/13/2021,17:19:50.023,$GPGGA,171950,3241.8223,N,11709.3717,W,1,8,2.3,11,M,,M,,*51
06/13/2021,17:19:50.923,$GPGGA,171951,3241.8222,N,11709.3717,W,1,8,2.3,11,M,,M,,*51
06/13/2021,17:19:52.023,$GPGGA,171952,3241.8223,N,11709.3717,W,1,8,2.3,11,M,,M,,*53
06/13/2021,17:19:52.923,$GPGGA,171953,3241.8222,N,11709.3717,W,1,8,2.3,11,M,,M,,*53
06/13/2021,17:19:54.023,$GPGGA,171954,3241.8223,N,11709.3718,W,1,8,2.3,11,M,,M,,*5A
06/13/2021,17:19:54.923,$GPGGA,171955,3241.8222,N,11709.3718,W,1,8,2.3,11,M,,M,,*5A
06/13/2021,17:19:56.023,$GPGGA,171956,3241.8223,N,11709.3718,W,1,8,2.3,11,M,,M,,*58
06/13/2021,17:19:56.923,$GPGGA,171957,3241.8221,N,11709.3717,W,1,8,2.3,11,M,,M,,*54
