06/13/2021,17:42:26.038,$GPGGA,174226,3241.8216,N,11709.3688,W,1,8,2.2,17,M,,M,,*58
06/13/2021,17:42:26.938,$GPGGA,174227,3241.8215,N,11709.3689,W,1,8,2.2,17,M,,M,,*5B
06/13/2021,17:42:28.038,$GPGGA,174228,3241.8216,N,11709.3688,W,1,8,2.2,17,M,,M,,*56
06/13/2021,17:42:28.938,$GPGGA,174229,3241.8217,N,11709.3689,W,1,8,2.2,17,M,,M,,*57
06/13/2021,17:42:30.040,$GPGGA,174230,3241.8217,N,11709.3688,W,1,8,2.2,17,M,,M,,*5E
06/13/2021,17:42:30.940,$GPGGA,174231,3241.8217,N,11709.3689,W,1,8,2.2,16,M,,M,,*5F
06/13/2021,17:42:32.040,$GPGGA,174232,3241.8217,N,11709.3688,W,1,8,2.2,16,M,,M,,*5D
06/13/2021,17:42:32.940,$GPGGA,174233,3241.8217,N,11709.3689,W,1,8,2.2,16,M,,M,,*5D
06/13/2021,17:42:34.040,$GPGGA,174234,3241.8217,N,11709.3688,W,1,8,2.2,16,M,,M,,*5B
06/13/2021,17:42:34.940,$GPGGA,174235,3241.8217,N,11709.3689,W,1,8,2.2,16,M,,M,,*5B
06/13/2021,17:42:36.040,$GPGGA,174236,3241.8217,N,11709.3688,W,1,8,2.2,16,M,,M,,*59
06/13/2021,17:42:36.940,$GPGGA,174237,3241.8217,N,11709.3689,W,1,8,2.2,16,M,,M,,*59
06/13/2021,17:42:38.040,$GPGGA,174238,3241.8217,N,11709.3688,W,1,8,2.2,16,M,,M,,*57
06/13/2021,17:42:38.940,$GPGGA,174239,3241.8217,N,11709.3689,W,1,8,2.2,16,M,,M,,*57
06/13/2021,17:42:40.040,$GPGGA,174240,3241.8217,N,11709.3688,W,1,8,2.2,16,M,,M,,*58
06/13/2021,17:42:40.940,$GPGGA,174241,3241.8217,N,11709.3689,W,1,8,2.2,16,M,,M,,*58
06/13/2021,17:42:42.040,$GPGGA,174242,3241.8217,N,11709.3688,W,1,8,2.2,16,M,,M,,*5A
06/13/2021,17:42:42.940,$GPGGA,174243,3241.8217,N,11709.3689,W,1,8,2.2,16,M,,M,,*5A
06/13/2021,17:42:44.040,$GPGGA,174244,3241.8217,N,11709.3688,W,1,8,2.2,16,M,,M,,*5C
06/13/2021,17:42:44.940,$GPGGA,174245,3241.8217,N,11709.3689,W,1,8,2.2,16,M,,M,,*5C
06/13/2021,17:42:46.040,$GPGGA,174246,3241.8217,N,11709.3689,W,1,8,2.2,16,M,,M,,*5F
06/13/2021,17:42:46.940,$GPGGA,174247,3241.8217,N,11709.3689,W,1,8,2.2,16,M,,M,,*5E
06/13/2021,17:42:48.040,$GPGGA,174248,3241.8217,N,11709.3689,W,1,8,2.2,16,M,,M,,*51
06/13/2021,17:42:48.941,$GPGGA,174249,3241.8219,N,11709.3689,W,1,8,2.2,16,M,,M,,*5E
06/13/2021,17:42:50.041,$GPGGA,174250,3241.8218,N,11709.3689,W,1,8,2.2,16,M,,M,,*57
06/13/2021,17:42:50.941,$GPGGA,174251,3241.8219,N,11709.3689,W,1,8,2.2,16,M,,M,,*57
06/13/2021,17:42:52.041,$GPGGA,174252,3241.8218,N,11709.3689,W,1,8,2.2,16,M,,M,,*55
06/13/2021,17:42:52.941,$GPGGA,174253,3241.8220,N,11709.3689,W,1,8,2.2,16,M,,M,,*5F
06/13/2021,17:42:54.042,$GPGGA,174254,3241.8219,N,11709.3689,W,1,8,2.2,16,M,,M,,*52
06/13/2021,17:42:54.941,$GPGGA,174255,3241.8220,N,11709.3689,W,1,8,2.2,17,M,,M,,*58
06/13/2021,17:42:56.043,$GPGGA,174256,3241.8219,N,11709.3689,W,1,8,2.2,17,M,,M,,*51
06/13/2021,17:42:56.941,$GPGGA,174257,3241.8220,N,11709.3689,W,1,8,2.2,17,M,,M,,*5A
06/13/2021,17:42:58.043,$GPGGA,174258,3241.8221,N,11709.3689,W,1,8,2.2,17,M,,M,,*54
06/13/2021,17:42:58.941,$GPGGA,174259,3241.8221,N,11709.3689,W,1,8,2.2,17,M,,M,,*55
06/13/2021,17:43:00.042,$GPGGA,174300,3241.8221,N,11709.3689,W,1,8,2.2,17,M,,M,,*58
06/13/2021,17:43:00.942,$GPGGA,174301,3241.8221,N,11709.3689,W,1,8,2.2,17,M,,M,,*59
06/13/2021,17:43:02.042,$GPGGA,174302,3241.8221,N,11709.3689,W,1,8,2.2,17,M,,M,,*5A
06/13/2021,17:43:02.942,$GPGGA,174303,3241.8221,N,11709.3690,W,1,8,2.2,17,M,,M,,*53
06/13/2021,17:43:04.042,$GPGGA,174304,3241.8221,N,11709.3690,W,1,8,2.2,17,M,,M,,*54
06/13/2021,17:43:04.942,$GPGGA,174305,3241.8219,N,11709.3690,W,1,8,2.2,17,M,,M,,*5E
06/13/2021,17:43:06.042,$GPGGA,174306,3241.8220,N,11709.3690,W,1,8,2.2,17,M,,M,,*57
06/13/2021,17:43:06.942,$GPGGA,174307,3241.8219,N,11709.3690,W,1,8,2.2,17,M,,M,,*5C
06/13/2021,17:43:08.042,$GPGGA,174308,3241.8220,N,11709.3690,W,1,8,2.2,17,M,,M,,*59
06/13/2021,17:43:08.942,$GPGGA,174309,3241.8218,N,11709.3690,W,1,8,2.2,17,M,,M,,*53
06/13/2021,17:43:10.042,$GPGGA,174310,3241.8219,N,11709.3690,W,1,8,2.2,17,M,,M,,*5A
06/13/2021,17:43:10.942,$GPGGA,174311,3241.8218,N,11709.3692,W,1,8,2.2,17,M,,M,,*58
06/13/2021,17:43:12.042,$GPGGA,174312,3241.8219,N,11709.3690,W,1,8,2.2,17,M,,M,,*58
06/13/2021,17:43:12.943,$GPGGA,174313,3241.8218,N,11709.3692,W,1,8,2.2,17,M,,M,,*5A
06/13/2021,17:43:14.042,$GPGGA,174314,3241.8217,N,11709.3690,W,1,8,2.2,17,M,,M,,*50
06/13/2021,17:43:14.942,$GPGGA,174315,3241.8217,N,11709.3690,W,1,8,2.2,17,M,,M,,*51
06/13/2021,17:43:16.042,$GPGGA,174316,3241.8217,N,11709.3690,W,1,8,2.2,17,M,,M,,*52
06/13/2021,17:43:16.942,$GPGGA,174317,3241.8217,N,11709.3690,W,1,8,2.2,18,M,,M,,*5C
06/13/2021,17:43:18.042,$GPGGA,174318,3241.8217,N,11709.3690,W,1,8,2.2,18,M,,M,,*53
06/13/2021,17:43:18.943,$GPGGA,174319,3241.8217,N,11709.3690,W,1,8,2.2,18,M,,M,,*52
06/13/2021,17:43:20.042,$GPGGA,174320,3241.8217,N,11709.3690,W,1,8,2.2,18,M,,M,,*58
06/13/2021,17:43:20.943,$GPGGA,174321,3241.8217,N,11709.3690,W,1,8,2.2,18,M,,M,,*59
06/13/2021,17:43:22.043,$GPGGA,174322,3241.8217,N,11709.3690,W,1,8,2.2,18,M,,M,,*5A
06/13/2021,17:43:22.944,$GPGGA,174323,3241.8217,N,11709.3690,W,1,8,2.2,18,M,,M,,*5B
06/13/2021,17:43:24.059,$GPGGA,174324,3241.8215,N,11709.3690,W,1,8,2.2,18,M,,M,,*5E
06/13/2021,17:43:24.943,$GPGGA,174325,3241.8216,N,11709.3689,W,1,8,2.2,18,M,,M,,*54
06/13/2021,17:43:26.043,$GPGGA,174326,3241.8215,N,11709.3689,W,1,8,2.2,18,M,,M,,*54
06/13/2021,17:43:26.943,$GPGGA,174327,3241.8216,N,11709.3689,W,1,8,2.2,18,M,,M,,*56
06/13/2021,17:43:28.043,$GPGGA,174328,3241.8214,N,11709.3689,W,1,8,2.2,18,M,,M,,*5B
06/13/2021,17:43:28.943,$GPGGA,174329,3241.8214,N,11709.3689,W,1,8,2.2,18,M,,M,,*5A
06/13/2021,17:43:30.043,$GPGGA,174330,3241.8214,N,11709.3689,W,1,8,2.2,18,M,,M,,*52
06/13/2021,17:43:30.943,$GPGGA,174331,3241.8214,N,11709.3688,W,1,8,2.2,18,M,,M,,*52
06/13/2021,17:43:32.043,$GPGGA,174332,3241.8214,N,11709.3689,W,1,8,2.2,18,M,,M,,*50
06/13/2021,17:43:32.943,$GPGGA,174333,3241.8214,N,11709.3689,W,1,8,2.2,18,M,,M,,*51
06/13/2021,17:43:34.043,$GPGGA,174334,3241.8212,N,11709.3688,W,1,8,2.2,18,M,,M,,*51
06/13/2021,17:43:34.943,$GPGGA,174335,3241.8213,N,11709.3689,W,1,8,2.2,18,M,,M,,*50
06/13/2021,17:43:36.043,$GPGGA,174336,3241.8211,N,11709.3688,W,1,8,2.2,18,M,,M,,*50
06/13/2021,17:43:36.943,$GPGGA,174337,3241.8212,N,11709.3689,W,1,8,2.2,18,M,,M,,*53
06/13/2021,17:43:38.044,$GPGGA,174338,3241.8210,N,11709.3687,W,1,8,2.2,18,M,,M,,*50
06/13/2021,17:43:38.944,$GPGGA,174339,3241.8210,N,11709.3688,W,1,8,2.2,18,M,,M,,*5E
06/13/2021,17:43:40.044,$GPGGA,174340,3241.8210,N,11709.3687,W,1,8,2.2,18,M,,M,,*5F
06/13/2021,17:43:40.944,$GPGGA,174341,3241.8210,N,11709.3688,W,1,8,2.2,17,M,,M,,*5E
06/13/2021,17:43:42.044,$GPGGA,174342,3241.8208,N,11709.3687,W,1,8,2.2,17,M,,M,,*5B
06/13/2021,17:43:42.944,$GPGGA,174343,3241.8209,N,11709.3688,W,1,8,2.2,17,M,,M,,*54
06/13/2021,17:43:44.044,$GPGGA,174344,3241.8207,N,11709.3687,W,1,8,2.2,17,M,,M,,*52
06/13/2021,17:43:44.944,$GPGGA,174345,3241.8208,N,11709.3688,W,1,8,2.2,17,M,,M,,*53
06/13/2021,17:43:46.044,$GPGGA,174346,3241.8207,N,11709.3686,W,1,8,2.2,17,M,,M,,*51
06/13/2021,17:43:46.944,$GPGGA,174347,3241.8208,N,11709.3686,W,1,8,2.2,17,M,,M,,*5F
06/13/2021,17:43:48.044,$GPGGA,174348,3241.8206,N,11709.3688,W,1,8,2.2,17,M,,M,,*50
06/13/2021,17:43:48.944,$GPGGA,174349,3241.8206,N,11709.3687,W,1,8,2.2,17,M,,M,,*5E
06/13/2021,17:43:50.044,$GPGGA,174350,3241.8206,N,11709.3688,W,1,8,2.2,17,M,,M,,*59
06/13/2021,17:43:50.944,$GPGGA,174351,3241.8206,N,11709.3687,W,1,8,2.2,17,M,,M,,*57
06/13/2021,17:43:52.044,$GPGGA,174352,3241.8206,N,11709.3688,W,1,8,2.2,17,M,,M,,*5B
06/13/2021,17:43:52.944,$GPGGA,174353,3241.8206,N,11709.3687,W,1,8,2.2,16,M,,M,,*54
06/13/2021,17:43:54.044,$GPGGA,174354,3241.8206,N,11709.3688,W,1,8,2.2,16,M,,M,,*5C
06/13/2021,17:43:54.944,$GPGGA,174355,3241.8206,N,11709.3687,W,1,8,2.2,16,M,,M,,*52
06/13/2021,17:43:56.044,$GPGGA,174356,3241.8206,N,11709.3688,W,1,8,2.2,16,M,,M,,*5E
06/13/2021,17:43:56.945,$GPGGA,174357,3241.8206,N,11709.3687,W,1,8,2.2,16,M,,M,,*50
06/13/2021,17:43:58.044,$GPGGA,174358,3241.8206,N,11709.3688,W,1,8,2.2,16,M,,M,,*50
06/13/2021,17:43:58.944,$GPGGA,174359,3241.8206,N,11709.3687,W,1,8,2.2,16,M,,M,,*5E
06/13/2021,17:44:00.044,$GPGGA,174400,3241.8206,N,11709.3688,W,1,8,2.2,16,M,,M,,*5A
06/13/2021,17:44:00.945,$GPGGA,174401,3241.8206,N,11709.3687,W,1,8,2.2,16,M,,M,,*54
06/13/2021,17:44:02.044,$GPGGA,174402,3241.8206,N,11709.3688,W,1,8,2.2,16,M,,M,,*58
06/13/2021,17:44:02.945,$GPGGA,174403,3241.8206,N,11709.3687,W,1,8,2.2,16,M,,M,,*56
06/13/2021,17:44:04.045,$GPGGA,174404,3241.8206,N,11709.3688,W,1,8,2.2,16,M,,M,,*5E
06/13/2021,17:44:04.944,$GPGGA,174405,3241.8206,N,11709.3687,W,1,8,2.2,16,M,,M,,*50
06/13/2021,17:44:06.045,$GPGGA,174406,3241.8208,N,11709.3689,W,1,8,2.2,16,M,,M,,*53
06/13/2021,17:44:06.944,$GPGGA,174407,3241.8207,N,11709.3688,W,1,8,2.2,16,M,,M,,*5C
06/13/2021,17:44:08.045,$GPGGA,174408,3241.8208,N,11709.3689,W,1,8,2.2,16,M,,M,,*5D
06/13/2021,17:44:08.945,$GPGGA,174409,3241.8207,N,11709.3688,W,1,8,2.2,15,M,,M,,*51
06/13/2021,17:44:10.045,$GPGGA,174410,3241.8208,N,11709.3689,W,1,8,2.2,15,M,,M,,*57
06/13/2021,17:44:10.945,$GPGGA,174411,3241.8207,N,11709.3688,W,1,8,2.2,15,M,,M,,*58
06/13/2021,17:44:12.045,$GPGGA,174412,3241.8208,N,11709.3689,W,1,8,2.2,15,M,,M,,*55
06/13/2021,17:44:12.945,$GPGGA,174413,3241.8209,N,11709.3689,W,1,8,2.2,15,M,,M,,*55
06/13/2021,17:44:14.045,$GPGGA,174414,3241.8208,N,11709.3689,W,1,8,2.2,15,M,,M,,*53
06/13/2021,17:44:14.951,$GPGGA,174415,3241.8209,N,11709.3689,W,1,8,2.2,15,M,,M,,*53
06/13/2021,17:44:16.046,$GPGGA,174416,3241.8208,N,11709.3689,W,1,8,2.2,15,M,,M,,*51
06/13/2021,17:44:16.945,$GPGGA,174417,3241.8209,N,11709.3690,W,1,8,2.2,15,M,,M,,*59
06/13/2021,17:44:18.046,$GPGGA,174418,3241.8208,N,11709.3690,W,1,8,2.2,15,M,,M,,*57
06/13/2021,17:44:18.946,$GPGGA,174419,3241.8209,N,11709.3690,W,1,8,2.2,15,M,,M,,*57
06/13/2021,17:44:20.046,$GPGGA,174420,3241.8210,N,11709.3690,W,1,8,2.2,15,M,,M,,*55
06/13/2021,17:44:20.946,$GPGGA,174421,3241.8210,N,11709.3690,W,1,8,2.2,15,M,,M,,*54
06/13/2021,17:44:22.046,$GPGGA,174422,3241.8210,N,11709.3692,W,1,8,2.2,15,M,,M,,*55
06/13/2021,17:44:22.946,$GPGGA,174423,3241.8210,N,11709.3691,W,1,8,2.2,15,M,,M,,*57
06/13/2021,17:44:24.046,$GPGGA,174424,3241.8210,N,11709.3692,W,1,8,2.2,15,M,,M,,*53
06/13/2021,17:44:24.945,$GPGGA,174425,3241.8210,N,11709.3691,W,1,8,2.2,15,M,,M,,*51
06/13/2021,17:44:26.046,$GPGGA,174426,3241.8210,N,11709.3692,W,1,8,2.2,15,M,,M,,*51
06/13/2021,17:44:26.936,$GPGGA,174427,3241.8210,N,11709.3691,W,1,8,2.2,15,M,,M,,*53
06/13/2021,17:44:28.046,$GPGGA,174428,3241.8210,N,11709.3692,W,1,8,2.2,15,M,,M,,*5F
06/13/2021,17:44:28.946,$GPGGA,174429,3241.8210,N,11709.3691,W,1,8,2.2,15,M,,M,,*5D
06/13/2021,17:44:30.046,$GPGGA,174430,3241.8210,N,11709.3692,W,1,8,2.2,15,M,,M,,*56
06/13/2021,17:44:30.936,$GPGGA,174431,3241.8210,N,11709.3691,W,1,8,2.2,15,M,,M,,*54
06/13/2021,17:44:32.047,$GPGGA,174432,3241.8210,N,11709.3692,W,1,8,2.2,15,M,,M,,*54
06/13/2021,17:44:32.946,$GPGGA,174433,3241.8210,N,11709.3691,W,1,8,2.2,15,M,,M,,*56
06/13/2021,17:44:34.046,$GPGGA,174434,3241.8212,N,11709.3692,W,1,8,2.2,15,M,,M,,*50
06/13/2021,17:44:34.946,$GPGGA,174435,3241.8211,N,11709.3691,W,1,8,2.2,15,M,,M,,*51
06/13/2021,17:44:36.046,$GPGGA,174436,3241.8213,N,11709.3692,W,1,8,2.2,15,M,,M,,*53
06/13/2021,17:44:36.946,$GPGGA,174437,3241.8212,N,11709.3691,W,1,8,2.2,15,M,,M,,*50
06/13/2021,17:44:38.046,$GPGGA,174438,3241.8213,N,11709.3692,W,1,8,2.2,15,M,,M,,*5D
06/13/2021,17:44:38.946,$GPGGA,174439,3241.8212,N,11709.3691,W,1,8,2.2,15,M,,M,,*5E
06/13/2021,17:44:40.037,$GPGGA,174440,3241.8213,N,11709.3692,W,1,8,2.2,15,M,,M,,*52
06/13/2021,17:44:40.937,$GPGGA,174441,3241.8214,N,11709.3691,W,1,8,2.2,15,M,,M,,*57
06/13/2021,17:44:42.037,$GPGGA,174442,3241.8214,N,11709.3692,W,1,8,2.2,15,M,,M,,*57
06/13/2021,17:44:42.937,$GPGGA,174443,3241.8214,N,11709.3691,W,1,8,2.2,15,M,,M,,*55
06/13/2021,17:44:44.047,$GPGGA,174444,3241.8214,N,11709.3692,W,1,8,2.2,15,M,,M,,*51
06/13/2021,17:44:44.937,$GPGGA,174445,3241.8214,N,11709.3691,W,1,8,2.2,15,M,,M,,*53
06/13/2021,17:44:46.037,$GPGGA,174446,3241.8214,N,11709.3692,W,1,8,2.2,15,M,,M,,*53
06/13/2021,17:44:46.947,$GPGGA,174447,3241.8214,N,11709.3691,W,1,8,2.2,15,M,,M,,*51
06/13/2021,17:44:48.047,$GPGGA,174448,3241.8214,N,11709.3692,W,1,8,2.2,15,M,,M,,*5D
06/13/2021,17:44:48.937,$GPGGA,174449,3241.8216,N,11709.3691,W,1,8,2.2,15,M,,M,,*5D
06/13/2021,17:44:50.047,$GPGGA,174450,3241.8215,N,11709.3692,W,1,8,2.2,15,M,,M,,*55
06/13/2021,17:44:50.937,$GPGGA,174451,3241.8216,N,11709.3691,W,1,8,2.2,15,M,,M,,*54
06/13/2021,17:44:52.038,$GPGGA,174452,3241.8215,N,11709.3690,W,1,8,2.2,15,M,,M,,*55
06/13/2021,17:44:52.937,$GPGGA,174453,3241.8217,N,11709.3690,W,1,8,2.2,15,M,,M,,*56
06/13/2021,17:44:54.038,$GPGGA,174454,3241.8217,N,11709.3690,W,1,8,2.2,15,M,,M,,*51
06/13/2021,17:44:54.938,$GPGGA,174455,3241.8217,N,11709.3690,W,1,8,2.2,15,M,,M,,*50
06/13/2021,17:44:56.047,$GPGGA,174456,3241.8217,N,11709.3690,W,1,8,2.2,15,M,,M,,*53
06/13/2021,17:44:56.937,$GPGGA,174457,3241.8217,N,11709.3690,W,1,8,2.2,15,M,,M,,*52
06/13/2021,17:44:58.047,$GPGGA,174458,3241.8217,N,11709.3690,W,1,8,2.2,15,M,,M,,*5D
06/13/2021,17:44:58.938,$GPGGA,174459,3241.8217,N,11709.3689,W,1,8,2.2,15,M,,M,,*54
06/13/2021,17:45:00.118,$GPGGA,174500,3241.8217,N,11709.3689,W,1,8,2.2,15,M,,M,,*59
06/13/2021,17:45:00.937,$GPGGA,174501,3241.8219,N,11709.3689,W,1,8,2.2,15,M,,M,,*56
06/13/2021,17:45:02.038,$GPGGA,174502,3241.8218,N,11709.3689,W,1,8,2.2,15,M,,M,,*54
06/13/2021,17:45:02.938,$GPGGA,174503,3241.8219,N,11709.3689,W,1,8,2.2,15,M,,M,,*54
06/13/2021,17:45:04.038,$GPGGA,174504,3241.8218,N,11709.3689,W,1,8,2.2,15,M,,M,,*52
06/13/2021,17:45:04.938,$GPGGA,174505,3241.8219,N,11709.3689,W,1,8,2.2,15,M,,M,,*52
06/13/2021,17:45:06.038,$GPGGA,174506,3241.8218,N,11709.3689,W,1,8,2.2,15,M,,M,,*50
06/13/2021,17:45:06.938,$GPGGA,174507,3241.8219,N,11709.3689,W,1,8,2.2,14,M,,M,,*51
06/13/2021,17:45:08.038,$GPGGA,174508,3241.8218,N,11709.3689,W,1,8,2.2,14,M,,M,,*5F
06/13/2021,17:45:08.947,$GPGGA,174509,3241.8219,N,11709.3689,W,1,8,2.2,14,M,,M,,*5F
06/13/2021,17:45:10.048,$GPGGA,174510,3241.8218,N,11709.3689,W,1,8,2.2,14,M,,M,,*56
06/13/2021,17:45:10.939,$GPGGA,174511,3241.8219,N,11709.3689,W,1,8,2.2,14,M,,M,,*56
06/13/2021,17:45:12.039,$GPGGA,174512,3241.8218,N,11709.3689,W,1,8,2.2,14,M,,M,,*54
06/13/2021,17:45:12.938,$GPGGA,174513,3241.8219,N,11709.3689,W,1,8,2.2,14,M,,M,,*54
06/13/2021,17:45:14.048,$GPGGA,174514,3241.8217,N,11709.3689,W,1,8,2.2,14,M,,M,,*5D
06/13/2021,17:45:14.939,$GPGGA,174515,3241.8217,N,11709.3689,W,1,8,2.2,14,M,,M,,*5C
06/13/2021,17:45:16.038,$GPGGA,174516,3241.8219,N,11709.3689,W,1,8,2.2,14,M,,M,,*51
06/13/2021,17:45:16.938,$GPGGA,174517,3241.8218,N,11709.3689,W,1,8,2.2,14,M,,M,,*51
06/13/2021,17:45:18.048,$GPGGA,174518,3241.8219,N,11709.3689,W,1,8,2.2,14,M,,M,,*5F
06/13/2021,17:45:18.938,$GPGGA,174519,3241.8218,N,11709.3689,W,1,8,2.2,14,M,,M,,*5F
