06/13/2021,18:10:22.044,$GPGGA,181022,3241.8286,N,11709.3859,W,1,8,1.8,17,M,,M,,*56
06/13/2021,18:10:23.028,$GPGGA,181023,3241.8286,N,11709.3860,W,1,8,1.8,17,M,,M,,*5D
06/13/2021,18:10:24.044,$GPGGA,181024,3241.8288,N,11709.3862,W,1,8,1.8,17,M,,M,,*56
06/13/2021,18:10:24.944,$GPGGA,181025,3241.8287,N,11709.3863,W,1,8,1.8,17,M,,M,,*59
06/13/2021,18:10:26.043,$GPGGA,181026,3241.8289,N,11709.3866,W,1,8,1.8,17,M,,M,,*51
06/13/2021,18:10:26.944,$GPGGA,181027,3241.8288,N,11709.3867,W,1,8,1.8,17,M,,M,,*50
06/13/2021,18:10:28.043,$GPGGA,181028,3241.8289,N,11709.3869,W,1,8,1.8,17,M,,M,,*50
06/13/2021,18:10:28.944,$GPGGA,181029,3241.8290,N,11709.3870,W,1,8,1.8,17,M,,M,,*51
06/13/2021,18:10:30.044,$GPGGA,181030,3241.8290,N,11709.3871,W,1,8,1.8,17,M,,M,,*58
06/13/2021,18:10:30.944,$GPGGA,181031,3241.8292,N,11709.3873,W,1,8,1.8,17,M,,M,,*59
06/13/2021,18:10:32.044,$GPGGA,181032,3241.8291,N,11709.3874,W,1,8,1.8,17,M,,M,,*5E
06/13/2021,18:10:32.944,$GPGGA,181033,3241.8293,N,11709.3876,W,1,8,1.8,17,M,,M,,*5F
06/13/2021,18:10:34.044,$GPGGA,181034,3241.8293,N,11709.3877,W,1,8,1.8,17,M,,M,,*59
06/13/2021,18:10:34.944,$GPGGA,181035,3241.8293,N,11709.3878,W,1,8,1.8,17,M,,M,,*57
06/13/2021,18:10:36.044,$GPGGA,181036,3241.8293,N,11709.3880,W,1,8,1.8,17,M,,M,,*53
06/13/2021,18:10:36.944,$GPGGA,181037,3241.8293,N,11709.3883,W,1,8,1.8,17,M,,M,,*51
06/13/2021,18:10:38.045,$GPGGA,181038,3241.8293,N,11709.3884,W,1,8,1.8,17,M,,M,,*59
06/13/2021,18:10:38.944,$GPGGA,181039,3241.8293,N,11709.3885,W,1,8,1.8,17,M,,M,,*59
06/13/2021,18:10:40.094,$GPGGA,181040,3241.8293,N,11709.3887,W,1,8,1.8,17,M,,M,,*55
06/13/2021,18:10:40.994,$GPGGA,181041,3241.8295,N,11709.3889,W,1,8,1.8,17,M,,M,,*5C
06/13/2021,18:10:42.094,$GPGGA,181042,3241.8294,N,11709.3891,W,1,8,1.8,17,M,,M,,*57
06/13/2021,18:10:42.994,$GPGGA,181043,3241.8295,N,11709.3892,W,1,8,1.8,17,M,,M,,*54
06/13/2021,18:10:44.094,$GPGGA,181044,3241.8296,N,11709.3894,W,1,8,1.8,17,M,,M,,*56
06/13/2021,18:10:44.994,$GPGGA,181045,3241.8295,N,11709.3895,W,1,8,1.8,17,M,,M,,*55
06/13/2021,18:10:46.094,$GPGGA,181046,3241.8296,N,11709.3898,W,1,8,1.8,17,M,,M,,*58
06/13/2021,18:10:46.994,$GPGGA,181047,3241.8297,N,11709.3898,W,1,8,1.8,17,M,,M,,*58
06/13/2021,18:10:48.095,$GPGGA,181048,3241.8297,N,11709.3900,W,1,8,1.8,17,M,,M,,*57
06/13/2021,18:10:48.995,$GPGGA,181049,3241.8297,N,11709.3902,W,1,8,1.8,17,M,,M,,*54
06/13/2021,18:10:50.095,$GPGGA,181050,3241.8297,N,11709.3903,W,1,8,1.8,17,M,,M,,*5D
06/13/2021,18:10:50.995,$GPGGA,181051,3241.8297,N,11709.3905,W,1,8,1.8,17,M,,M,,*5A
06/13/2021,18:10:52.095,$GPGGA,181052,3241.8297,N,11709.3906,W,1,8,1.8,17,M,,M,,*5A
06/13/2021,18:10:52.995,$GPGGA,181053,3241.8297,N,11709.3909,W,1,8,1.8,16,M,,M,,*55
06/13/2021,18:10:54.095,$GPGGA,181054,3241.8297,N,11709.3909,W,1,8,1.8,16,M,,M,,*52
06/13/2021,18:10:54.995,$GPGGA,181055,3241.8297,N,11709.3912,W,1,8,1.8,16,M,,M,,*59
06/13/2021,18:10:56.095,$GPGGA,181056,3241.8297,N,11709.3913,W,1,8,1.8,16,M,,M,,*5B
06/13/2021,18:10:56.995,$GPGGA,181057,3241.8297,N,11709.3913,W,1,8,1.8,17,M,,M,,*5B
06/13/2021,18:10:58.095,$GPGGA,181058,3241.8297,N,11709.3916,W,1,8,1.8,17,M,,M,,*51
06/13/2021,18:10:58.995,$GPGGA,181059,3241.8297,N,11709.3916,W,1,8,1.8,17,M,,M,,*50
06/13/2021,18:11:00.095,$GPGGA,181100,3241.8297,N,11709.3918,W,1,8,1.8,17,M,,M,,*53
06/13/2021,18:11:00.995,$GPGGA,181101,3241.8299,N,11709.3920,W,1,8,1.8,17,M,,M,,*57
06/13/2021,18:11:02.096,$GPGGA,181102,3241.8298,N,11709.3921,W,1,8,1.8,17,M,,M,,*54
06/13/2021,18:11:02.995,$GPGGA,181103,3241.8299,N,11709.3923,W,1,8,1.8,17,M,,M,,*56
06/13/2021,18:11:04.095,$GPGGA,181104,3241.8298,N,11709.3923,W,1,8,1.8,17,M,,M,,*50
06/13/2021,18:11:04.995,$GPGGA,181105,3241.8302,N,11709.3924,W,1,8,1.4,17,M,,M,,*58
06/13/2021,18:11:06.096,$GPGGA,181106,3241.8304,N,11709.3925,W,1,9,1.4,17,M,,M,,*5D
06/13/2021,18:11:06.996,$GPGGA,181107,3241.8307,N,11709.3927,W,1,9,1.4,17,M,,M,,*5D
06/13/2021,18:11:08.096,$GPGGA,181108,3241.8310,N,11709.3926,W,1,9,1.4,17,M,,M,,*55
06/13/2021,18:11:08.995,$GPGGA,181109,3241.8311,N,11709.3927,W,1,9,1.4,17,M,,M,,*54
06/13/2021,18:11:10.096,$GPGGA,181110,3241.8314,N,11709.3928,W,1,9,1.4,17,M,,M,,*56
06/13/2021,18:11:10.996,$GPGGA,181111,3241.8315,N,11709.3931,W,1,9,1.4,17,M,,M,,*5E
06/13/2021,18:11:12.096,$GPGGA,181112,3241.8317,N,11709.3931,W,1,9,1.4,17,M,,M,,*5F
06/13/2021,18:11:12.996,$GPGGA,181113,3241.8318,N,11709.3934,W,1,9,1.4,18,M,,M,,*5B
06/13/2021,18:11:14.096,$GPGGA,181114,3241.8318,N,11709.3934,W,1,9,1.4,18,M,,M,,*5C
06/13/2021,18:11:14.997,$GPGGA,181115,3241.8320,N,11709.3935,W,1,9,1.4,18,M,,M,,*57
06/13/2021,18:11:16.097,$GPGGA,181116,3241.8319,N,11709.3938,W,1,9,1.4,18,M,,M,,*53
06/13/2021,18:11:16.997,$GPGGA,181117,3241.8321,N,11709.3938,W,1,9,1.4,18,M,,M,,*59
06/13/2021,18:11:18.096,$GPGGA,181118,3241.8320,N,11709.3941,W,1,9,1.4,18,M,,M,,*59
06/13/2021,18:11:18.996,$GPGGA,181119,3241.8322,N,11709.3941,W,1,9,1.4,19,M,,M,,*5B
06/13/2021,18:11:20.097,$GPGGA,181120,3241.8322,N,11709.3943,W,1,9,1.4,19,M,,M,,*53
06/13/2021,18:11:20.996,$GPGGA,181121,3241.8322,N,11709.3945,W,1,9,1.4,19,M,,M,,*54
06/13/2021,18:11:22.096,$GPGGA,181122,3241.8322,N,11709.3946,W,1,9,1.4,19,M,,M,,*54
06/13/2021,18:11:22.996,$GPGGA,181123,3241.8322,N,11709.3947,W,1,9,1.4,19,M,,M,,*54
06/13/2021,18:11:24.097,$GPGGA,181124,3241.8322,N,11709.3949,W,1,9,1.4,19,M,,M,,*5D
06/13/2021,18:11:24.997,$GPGGA,181125,3241.8322,N,11709.3950,W,1,9,1.4,19,M,,M,,*54
06/13/2021,18:11:26.097,$GPGGA,181126,3241.8324,N,11709.3952,W,1,9,1.4,19,M,,M,,*53
06/13/2021,18:11:26.997,$GPGGA,181127,3241.8323,N,11709.3953,W,1,9,1.4,20,M,,M,,*5E
06/13/2021,18:11:28.096,$GPGGA,181128,3241.8324,N,11709.3954,W,1,9,1.4,20,M,,M,,*51
06/13/2021,18:11:28.997,$GPGGA,181129,3241.8323,N,11709.3956,W,1,9,1.4,20,M,,M,,*55
06/13/2021,18:11:30.097,$GPGGA,181130,3241.8324,N,11709.3957,W,1,9,1.4,20,M,,M,,*5B
06/13/2021,18:11:30.997,$GPGGA,181131,3241.8323,N,11709.3959,W,1,9,1.4,20,M,,M,,*53
06/13/2021,18:11:32.097,$GPGGA,181132,3241.8324,N,11709.3960,W,1,9,1.4,20,M,,M,,*5D
06/13/2021,18:11:32.997,$GPGGA,181133,3241.8323,N,11709.3961,W,1,9,1.4,20,M,,M,,*5A
06/13/2021,18:11:34.097,$GPGGA,181134,3241.8324,N,11709.3963,W,1,9,1.4,20,M,,M,,*58
06/13/2021,18:11:34.997,$GPGGA,181135,3241.8323,N,11709.3963,W,1,9,1.4,20,M,,M,,*5E
06/13/2021,18:11:36.097,$GPGGA,181136,3241.8324,N,11709.3964,W,1,9,1.4,20,M,,M,,*5D
06/13/2021,18:11:36.997,$GPGGA,181137,3241.8323,N,11709.3965,W,1,9,1.4,21,M,,M,,*5B
06/13/2021,18:11:38.097,$GPGGA,181138,3241.8324,N,11709.3967,W,1,9,1.4,21,M,,M,,*51
06/13/2021,18:11:38.997,$GPGGA,181139,3241.8323,N,11709.3967,W,1,9,1.4,21,M,,M,,*57
06/13/2021,18:11:40.097,$GPGGA,181140,3241.8324,N,11709.3968,W,1,9,1.4,21,M,,M,,*51
06/13/2021,18:11:40.997,$GPGGA,181141,3241.8323,N,11709.3970,W,1,9,1.4,21,M,,M,,*5E
06/13/2021,18:11:42.097,$GPGGA,181142,3241.8324,N,11709.3971,W,1,9,1.4,21,M,,M,,*5B
06/13/2021,18:11:42.997,$GPGGA,181143,3241.8323,N,11709.3972,W,1,9,1.4,21,M,,M,,*5E
06/13/2021,18:11:44.097,$GPGGA,181144,3241.8324,N,11709.3974,W,1,9,1.4,21,M,,M,,*58
06/13/2021,18:11:44.998,$GPGGA,181145,3241.8323,N,11709.3974,W,1,9,1.4,21,M,,M,,*5E
06/13/2021,18:11:46.097,$GPGGA,181146,3241.8322,N,11709.3975,W,1,9,1.4,21,M,,M,,*5D
06/13/2021,18:11:46.997,$GPGGA,181147,3241.8322,N,11709.3977,W,1,9,1.4,21,M,,M,,*5E
06/13/2021,18:11:48.098,$GPGGA,181148,3241.8322,N,11709.3978,W,1,9,1.4,21,M,,M,,*5E
06/13/2021,18:11:48.998,$GPGGA,181149,3241.8322,N,11709.3978,W,1,9,1.4,21,M,,M,,*5F
06/13/2021,18:11:50.098,$GPGGA,181150,3241.8322,N,11709.3979,W,1,9,1.4,21,M,,M,,*56
06/13/2021,18:11:50.998,$GPGGA,181151,3241.8322,N,11709.3981,W,1,9,1.4,21,M,,M,,*50
06/13/2021,18:11:52.098,$GPGGA,181152,3241.8320,N,11709.3981,W,1,9,1.4,21,M,,M,,*51
06/13/2021,18:11:52.998,$GPGGA,181153,3241.8321,N,11709.3982,W,1,9,1.9,21,M,,M,,*5F
06/13/2021,18:11:54.098,$GPGGA,181154,3241.8319,N,11709.3983,W,1,8,1.9,21,M,,M,,*53
06/13/2021,18:11:54.998,$GPGGA,181155,3241.8320,N,11709.3985,W,1,8,1.9,21,M,,M,,*5E
06/13/2021,18:11:56.098,$GPGGA,181156,3241.8318,N,11709.3984,W,1,8,1.9,21,M,,M,,*57
06/13/2021,18:11:56.998,$GPGGA,181157,3241.8318,N,11709.3985,W,1,8,1.9,21,M,,M,,*57
06/13/2021,18:11:58.099,$GPGGA,181158,3241.8316,N,11709.3985,W,1,9,1.9,21,M,,M,,*57
06/13/2021,18:11:58.998,$GPGGA,181159,3241.8315,N,11709.3985,W,1,9,1.4,21,M,,M,,*58
06/13/2021,18:12:00.099,$GPGGA,181200,3241.8315,N,11709.3985,W,1,9,1.4,21,M,,M,,*57
06/13/2021,18:12:00.998,$GPGGA,181201,3241.8315,N,11709.3986,W,1,9,1.4,21,M,,M,,*55
06/13/2021,18:12:02.099,$GPGGA,181202,3241.8313,N,11709.3986,W,1,9,1.4,21,M,,M,,*50
06/13/2021,18:12:02.999,$GPGGA,181203,3241.8312,N,11709.3988,W,1,9,1.4,21,M,,M,,*5E
06/13/2021,18:12:04.099,$GPGGA,181204,3241.8313,N,11709.3988,W,1,9,1.4,21,M,,M,,*58
06/13/2021,18:12:04.999,$GPGGA,181205,3241.8311,N,11709.3988,W,1,9,1.4,21,M,,M,,*5B
06/13/2021,18:12:06.099,$GPGGA,181206,3241.8311,N,11709.3988,W,1,9,1.4,21,M,,M,,*58
06/13/2021,18:12:06.999,$GPGGA,181207,3241.8309,N,11709.3989,W,1,9,1.4,22,M,,M,,*52
06/13/2021,18:12:08.099,$GPGGA,181208,3241.8308,N,11709.3989,W,1,9,1.4,22,M,,M,,*5C
06/13/2021,18:12:08.999,$GPGGA,181209,3241.8307,N,11709.3990,W,1,9,1.4,22,M,,M,,*5A
06/13/2021,18:12:10.099,$GPGGA,181210,3241.8307,N,11709.3992,W,1,9,1.4,22,M,,M,,*50
06/13/2021,18:12:10.999,$GPGGA,181211,3241.8306,N,11709.3992,W,1,9,1.4,22,M,,M,,*50
06/13/2021,18:12:12.099,$GPGGA,181212,3241.8307,N,11709.3993,W,1,9,1.4,22,M,,M,,*53
06/13/2021,18:12:12.999,$GPGGA,181213,3241.8305,N,11709.3995,W,1,9,1.4,22,M,,M,,*56
06/13/2021,18:12:14.099,$GPGGA,181214,3241.8304,N,11709.3996,W,1,9,1.4,22,M,,M,,*53
06/13/2021,18:12:15.000,$GPGGA,181215,3241.8304,N,11709.3996,W,1,9,1.4,22,M,,M,,*52
06/13/2021,18:12:16.100,$GPGGA,181216,3241.8304,N,11709.3997,W,1,9,1.4,22,M,,M,,*50
06/13/2021,18:12:17.000,$GPGGA,181217,3241.8304,N,11709.3999,W,1,9,1.4,22,M,,M,,*5F
06/13/2021,18:12:18.100,$GPGGA,181218,3241.8304,N,11709.3999,W,1,9,1.4,22,M,,M,,*50
06/13/2021,18:12:19.000,$GPGGA,181219,3241.8302,N,11709.3999,W,1,9,1.4,22,M,,M,,*57
06/13/2021,18:12:20.100,$GPGGA,181220,3241.8303,N,11709.4000,W,1,9,1.4,22,M,,M,,*52
06/13/2021,18:12:21.000,$GPGGA,181221,3241.8302,N,11709.4001,W,1,9,1.4,22,M,,M,,*53
06/13/2021,18:12:22.100,$GPGGA,181222,3241.8301,N,11709.4003,W,1,9,1.4,22,M,,M,,*51
06/13/2021,18:12:23.000,$GPGGA,181223,3241.8302,N,11709.4003,W,1,9,1.4,22,M,,M,,*53
06/13/2021,18:12:24.100,$GPGGA,181224,3241.8300,N,11709.4003,W,1,9,1.4,22,M,,M,,*56
06/13/2021,18:12:25.000,$GPGGA,181225,3241.8299,N,11709.4004,W,1,9,1.4,22,M,,M,,*51
06/13/2021,18:12:26.100,$GPGGA,181226,3241.8298,N,11709.4006,W,1,9,1.4,22,M,,M,,*51
06/13/2021,18:12:27.000,$GPGGA,181227,3241.8299,N,11709.4005,W,1,9,1.4,22,M,,M,,*52
06/13/2021,18:12:28.100,$GPGGA,181228,3241.8297,N,11709.4007,W,1,9,1.4,22,M,,M,,*51
06/13/2021,18:12:29.000,$GPGGA,181229,3241.8297,N,11709.4007,W,1,9,1.4,22,M,,M,,*50
06/13/2021,18:12:30.100,$GPGGA,181230,3241.8297,N,11709.4007,W,1,9,1.4,22,M,,M,,*58
06/13/2021,18:12:31.000,$GPGGA,181231,3241.8295,N,11709.4008,W,1,9,1.4,22,M,,M,,*54
06/13/2021,18:12:32.100,$GPGGA,181232,3241.8296,N,11709.4008,W,1,9,1.4,22,M,,M,,*54
06/13/2021,18:12:33.000,$GPGGA,181233,3241.8294,N,11709.4010,W,1,9,1.4,22,M,,M,,*5E
06/13/2021,18:12:34.100,$GPGGA,181234,3241.8293,N,11709.4009,W,1,9,1.4,22,M,,M,,*56
06/13/2021,18:12:35.000,$GPGGA,181235,3241.8293,N,11709.4010,W,1,9,1.4,22,M,,M,,*5F
06/13/2021,18:12:36.100,$GPGGA,181236,3241.8293,N,11709.4010,W,1,9,1.4,22,M,,M,,*5C
06/13/2021,18:12:37.000,$GPGGA,181237,3241.8291,N,11709.4011,W,1,9,1.4,22,M,,M,,*5E
06/13/2021,18:12:38.100,$GPGGA,181238,3241.8290,N,11709.4011,W,1,9,1.4,22,M,,M,,*50
06/13/2021,18:12:39.000,$GPGGA,181239,3241.8290,N,11709.4012,W,1,9,1.4,22,M,,M,,*52
06/13/2021,18:12:40.100,$GPGGA,181240,3241.8289,N,11709.4012,W,1,9,1.4,22,M,,M,,*54
06/13/2021,18:12:41.000,$GPGGA,181241,3241.8289,N,11709.4012,W,1,9,1.4,22,M,,M,,*55
06/13/2021,18:12:42.103,$GPGGA,181242,3241.8288,N,11709.4014,W,1,9,1.4,22,M,,M,,*51
06/13/2021,18:12:43.000,$GPGGA,181243,3241.8287,N,11709.4013,W,1,9,1.4,22,M,,M,,*58
06/13/2021,18:12:44.100,$GPGGA,181244,3241.8286,N,11709.4014,W,1,9,1.4,22,M,,M,,*59
06/13/2021,18:12:45.000,$GPGGA,181245,3241.8286,N,11709.4014,W,1,9,1.4,22,M,,M,,*58
06/13/2021,18:12:46.101,$GPGGA,181246,3241.8286,N,11709.4014,W,1,9,1.4,22,M,,M,,*5B
06/13/2021,18:12:47.001,$GPGGA,181247,3241.8286,N,11709.4015,W,1,9,1.4,21,M,,M,,*58
06/13/2021,18:12:48.101,$GPGGA,181248,3241.8284,N,11709.4017,W,1,9,1.4,21,M,,M,,*57
06/13/2021,18:12:49.001,$GPGGA,181249,3241.8285,N,11709.4016,W,1,9,1.4,21,M,,M,,*56
06/13/2021,18:12:50.101,$GPGGA,181250,3241.8283,N,11709.4017,W,1,9,1.4,21,M,,M,,*59
06/13/2021,18:12:51.001,$GPGGA,181251,3241.8284,N,11709.4017,W,1,9,1.4,21,M,,M,,*5F
06/13/2021,18:12:52.102,$GPGGA,181252,3241.8282,N,11709.4018,W,1,9,1.4,21,M,,M,,*55
06/13/2021,18:12:53.001,$GPGGA,181253,3241.8282,N,11709.4018,W,1,9,1.4,21,M,,M,,*54
06/13/2021,18:12:54.101,$GPGGA,181254,3241.8281,N,11709.4019,W,1,9,1.4,21,M,,M,,*51
06/13/2021,18:12:55.001,$GPGGA,181255,3241.8282,N,11709.4019,W,1,9,1.4,21,M,,M,,*53
06/13/2021,18:12:56.102,$GPGGA,181256,3241.8280,N,11709.4021,W,1,9,1.4,21,M,,M,,*59
06/13/2021,18:12:57.001,$GPGGA,181257,3241.8281,N,11709.4020,W,1,9,1.4,21,M,,M,,*58
06/13/2021,18:12:58.102,$GPGGA,181258,3241.8279,N,11709.4021,W,1,9,1.4,21,M,,M,,*51
06/13/2021,18:12:59.001,$GPGGA,181259,3241.8279,N,11709.4021,W,1,9,1.4,21,M,,M,,*50
06/13/2021,18:13:00.101,$GPGGA,181300,3241.8279,N,11709.4022,W,1,9,1.4,21,M,,M,,*5E
06/13/2021,18:13:01.001,$GPGGA,181301,3241.8279,N,11709.4022,W,1,9,1.4,21,M,,M,,*5F
06/13/2021,18:13:02.101,$GPGGA,181302,3241.8277,N,11709.4024,W,1,9,1.4,21,M,,M,,*54
06/13/2021,18:13:03.002,$GPGGA,181303,3241.8276,N,11709.4023,W,1,9,1.4,21,M,,M,,*53
06/13/2021,18:13:04.102,$GPGGA,181304,3241.8275,N,11709.4025,W,1,9,1.4,21,M,,M,,*51
06/13/2021,18:13:05.002,$GPGGA,181305,3241.8275,N,11709.4024,W,1,9,1.4,21,M,,M,,*51
06/13/2021,18:13:06.102,$GPGGA,181306,3241.8273,N,11709.4026,W,1,9,1.4,21,M,,M,,*56
06/13/2021,18:13:07.002,$GPGGA,181307,3241.8274,N,11709.4026,W,1,9,1.4,21,M,,M,,*50
06/13/2021,18:13:08.102,$GPGGA,181308,3241.8272,N,11709.4028,W,1,9,1.4,21,M,,M,,*57
06/13/2021,18:13:09.002,$GPGGA,181309,3241.8271,N,11709.4028,W,1,9,1.4,21,M,,M,,*55
06/13/2021,18:13:10.102,$GPGGA,181310,3241.8270,N,11709.4029,W,1,9,1.4,21,M,,M,,*5D
06/13/2021,18:13:11.002,$GPGGA,181311,3241.8271,N,11709.4030,W,1,9,1.4,21,M,,M,,*55
06/13/2021,18:13:12.102,$GPGGA,181312,3241.8269,N,11709.4032,W,1,9,1.4,21,M,,M,,*5D
06/13/2021,18:13:13.002,$GPGGA,181313,3241.8270,N,11709.4032,W,1,9,1.4,21,M,,M,,*54
06/13/2021,18:13:14.102,$GPGGA,181314,3241.8268,N,11709.4033,W,1,9,1.4,21,M,,M,,*5B
06/13/2021,18:13:15.002,$GPGGA,181315,3241.8268,N,11709.4035,W,1,9,1.4,20,M,,M,,*5D
06/13/2021,18:13:16.102,$GPGGA,181316,3241.8268,N,11709.4035,W,1,9,1.4,20,M,,M,,*5E
06/13/2021,18:13:17.002,$GPGGA,181317,3241.8268,N,11709.4036,W,1,9,1.4,20,M,,M,,*5C
06/13/2021,18:13:18.102,$GPGGA,181318,3241.8268,N,11709.4037,W,1,9,1.4,20,M,,M,,*52
06/13/2021,18:13:19.002,$GPGGA,181319,3241.8266,N,11709.4039,W,1,9,1.4,20,M,,M,,*53
06/13/2021,18:13:20.103,$GPGGA,181320,3241.8267,N,11709.4038,W,1,9,1.4,20,M,,M,,*59
06/13/2021,18:13:21.003,$GPGGA,181321,3241.8265,N,11709.4040,W,1,9,1.4,20,M,,M,,*55
06/13/2021,18:13:22.103,$GPGGA,181322,3241.8264,N,11709.4040,W,1,9,1.4,20,M,,M,,*57
06/13/2021,18:13:23.003,$GPGGA,181323,3241.8264,N,11709.4043,W,1,9,1.4,20,M,,M,,*55
06/13/2021,18:13:24.102,$GPGGA,181324,3241.8264,N,11709.4043,W,1,9,1.4,20,M,,M,,*52
06/13/2021,18:13:25.003,$GPGGA,181325,3241.8262,N,11709.4044,W,1,9,1.8,20,M,,M,,*5E
06/13/2021,18:13:26.102,$GPGGA,181326,3241.8260,N,11709.4046,W,1,8,1.8,20,M,,M,,*5C
06/13/2021,18:13:27.003,$GPGGA,181327,3241.8258,N,11709.4047,W,1,8,1.8,20,M,,M,,*57
06/13/2021,18:13:28.103,$GPGGA,181328,3241.8260,N,11709.4048,W,1,9,1.8,20,M,,M,,*5D
06/13/2021,18:13:29.003,$GPGGA,181329,3241.8261,N,11709.4048,W,1,9,1.4,20,M,,M,,*51
06/13/2021,18:13:30.103,$GPGGA,181330,3241.8264,N,11709.4050,W,1,9,1.4,20,M,,M,,*55
06/13/2021,18:13:31.003,$GPGGA,181331,3241.8266,N,11709.4049,W,1,9,1.4,20,M,,M,,*5E
06/13/2021,18:13:32.103,$GPGGA,181332,3241.8267,N,11709.4050,W,1,9,1.4,20,M,,M,,*54
06/13/2021,18:13:33.003,$GPGGA,181333,3241.8268,N,11709.4050,W,1,9,1.4,20,M,,M,,*5A
06/13/2021,18:13:34.104,$GPGGA,181334,3241.8268,N,11709.4051,W,1,9,1.4,20,M,,M,,*5C
06/13/2021,18:13:35.003,$GPGGA,181335,3241.8268,N,11709.4053,W,1,9,1.4,20,M,,M,,*5F
06/13/2021,18:13:36.104,$GPGGA,181336,3241.8268,N,11709.4053,W,1,9,1.4,20,M,,M,,*5C
06/13/2021,18:13:37.003,$GPGGA,181337,3241.8268,N,11709.4054,W,1,9,1.4,20,M,,M,,*5A
06/13/2021,18:13:38.103,$GPGGA,181338,3241.8266,N,11709.4055,W,1,9,1.4,20,M,,M,,*5A
06/13/2021,18:13:39.003,$GPGGA,181339,3241.8267,N,11709.4057,W,1,9,1.4,21,M,,M,,*59
06/13/2021,18:13:40.103,$GPGGA,181340,3241.8265,N,11709.4058,W,1,9,1.4,21,M,,M,,*5A
06/13/2021,18:13:41.003,$GPGGA,181341,3241.8264,N,11709.4059,W,1,9,1.4,21,M,,M,,*5B
06/13/2021,18:13:42.106,$GPGGA,181342,3241.8264,N,11709.4061,W,1,9,1.4,21,M,,M,,*53
06/13/2021,18:13:43.004,$GPGGA,181343,3241.8264,N,11709.4061,W,1,9,1.4,21,M,,M,,*52
06/13/2021,18:13:44.104,$GPGGA,181344,3241.8264,N,11709.4062,W,1,9,1.4,21,M,,M,,*56
06/13/2021,18:13:45.004,$GPGGA,181345,3241.8262,N,11709.4064,W,1,9,1.4,21,M,,M,,*57
06/13/2021,18:13:46.104,$GPGGA,181346,3241.8261,N,11709.4065,W,1,9,1.4,21,M,,M,,*56
06/13/2021,18:13:47.004,$GPGGA,181347,3241.8260,N,11709.4068,W,1,9,1.6,21,M,,M,,*59
06/13/2021,18:13:48.104,$GPGGA,181348,3241.8258,N,11709.4068,W,1,9,1.6,21,M,,M,,*5D
06/13/2021,18:13:49.004,$GPGGA,181349,3241.8257,N,11709.4071,W,1,9,1.4,21,M,,M,,*59
06/13/2021,18:13:50.104,$GPGGA,181350,3241.8255,N,11709.4073,W,1,9,1.4,21,M,,M,,*51
06/13/2021,18:13:51.004,$GPGGA,181351,3241.8254,N,11709.4075,W,1,9,1.4,22,M,,M,,*54
06/13/2021,18:13:52.104,$GPGGA,181352,3241.8252,N,11709.4077,W,1,9,1.4,22,M,,M,,*53
06/13/2021,18:13:53.005,$GPGGA,181353,3241.8251,N,11709.4079,W,1,9,1.4,22,M,,M,,*5F
06/13/2021,18:13:54.105,$GPGGA,181354,3241.8250,N,11709.4082,W,1,9,1.4,22,M,,M,,*5D
06/13/2021,18:13:55.004,$GPGGA,181355,3241.8247,N,11709.4084,W,1,9,1.8,22,M,,M,,*50
06/13/2021,18:13:56.104,$GPGGA,181356,3241.8244,N,11709.4087,W,1,8,1.8,22,M,,M,,*52
06/13/2021,18:13:57.004,$GPGGA,181357,3241.8241,N,11709.4090,W,1,8,1.8,22,M,,M,,*50
06/13/2021,18:13:58.105,$GPGGA,181358,3241.8239,N,11709.4091,W,1,8,1.8,22,M,,M,,*51
06/13/2021,18:13:59.005,$GPGGA,181359,3241.8237,N,11709.4094,W,1,8,1.4,22,M,,M,,*57
06/13/2021,18:14:00.105,$GPGGA,181400,3241.8236,N,11709.4095,W,1,9,1.4,22,M,,M,,*5D
06/13/2021,18:14:01.004,$GPGGA,181401,3241.8235,N,11709.4097,W,1,9,1.4,22,M,,M,,*5D
06/13/2021,18:14:02.104,$GPGGA,181402,3241.8234,N,11709.4100,W,1,9,1.4,22,M,,M,,*50
06/13/2021,18:14:03.004,$GPGGA,181403,3241.8233,N,11709.4101,W,1,9,1.4,22,M,,M,,*57
06/13/2021,18:14:04.104,$GPGGA,181404,3241.8234,N,11709.4104,W,1,9,1.4,22,M,,M,,*52
06/13/2021,18:14:05.004,$GPGGA,181405,3241.8232,N,11709.4105,W,1,9,1.4,22,M,,M,,*54
06/13/2021,18:14:06.104,$GPGGA,181406,3241.8232,N,11709.4108,W,1,9,1.4,22,M,,M,,*5A
06/13/2021,18:14:07.005,$GPGGA,181407,3241.8230,N,11709.4109,W,1,9,1.5,22,M,,M,,*59
06/13/2021,18:14:08.105,$GPGGA,181408,3241.8229,N,11709.4112,W,1,9,1.5,22,M,,M,,*54
06/13/2021,18:14:09.005,$GPGGA,181409,3241.8228,N,11709.4115,W,1,9,1.4,22,M,,M,,*52
06/13/2021,18:14:10.105,$GPGGA,181410,3241.8226,N,11709.4116,W,1,9,1.4,22,M,,M,,*57
06/13/2021,18:14:11.005,$GPGGA,181411,3241.8225,N,11709.4118,W,1,9,1.4,22,M,,M,,*5B
06/13/2021,18:14:12.106,$GPGGA,181412,3241.8223,N,11709.4119,W,1,9,1.4,22,M,,M,,*5F
06/13/2021,18:14:13.005,$GPGGA,181413,3241.8221,N,11709.4122,W,1,9,1.4,22,M,,M,,*54
06/13/2021,18:14:14.106,$GPGGA,181414,3241.8221,N,11709.4123,W,1,9,1.4,22,M,,M,,*52
06/13/2021,18:14:15.005,$GPGGA,181415,3241.8218,N,11709.4126,W,1,9,1.4,22,M,,M,,*5C
06/13/2021,18:14:16.105,$GPGGA,181416,3241.8217,N,11709.4127,W,1,9,1.4,22,M,,M,,*51
06/13/2021,18:14:16.996,$GPGGA,181417,3241.8215,N,11709.4129,W,1,9,1.4,22,M,,M,,*5C
06/13/2021,18:14:18.105,$GPGGA,181418,3241.8214,N,11709.4131,W,1,9,1.4,22,M,,M,,*5B
06/13/2021,18:14:19.005,$GPGGA,181419,3241.8212,N,11709.4134,W,1,9,1.4,22,M,,M,,*59
06/13/2021,18:14:20.105,$GPGGA,181420,3241.8213,N,11709.4138,W,1,8,1.4,22,M,,M,,*5F
06/13/2021,18:14:21.006,$GPGGA,181421,3241.8211,N,11709.4141,W,1,8,1.5,22,M,,M,,*53
06/13/2021,18:14:22.106,$GPGGA,181422,3241.8210,N,11709.4144,W,1,8,1.5,22,M,,M,,*54
06/13/2021,18:14:22.996,$GPGGA,181423,3241.8210,N,11709.4148,W,1,8,1.5,22,M,,M,,*59
06/13/2021,18:14:24.105,$GPGGA,181424,3241.8208,N,11709.4152,W,1,8,1.5,22,M,,M,,*5C
06/13/2021,18:14:25.006,$GPGGA,181425,3241.8205,N,11709.4154,W,1,8,1.4,22,M,,M,,*57
06/13/2021,18:14:26.106,$GPGGA,181426,3241.8204,N,11709.4158,W,1,8,1.4,22,M,,M,,*59
06/13/2021,18:14:27.006,$GPGGA,181427,3241.8203,N,11709.4162,W,1,8,1.5,22,M,,M,,*57
06/13/2021,18:14:28.106,$GPGGA,181428,3241.8201,N,11709.4165,W,1,8,1.5,22,M,,M,,*5D
06/13/2021,18:14:29.006,$GPGGA,181429,3241.8200,N,11709.4169,W,1,8,1.5,21,M,,M,,*52
06/13/2021,18:14:30.106,$GPGGA,181430,3241.8199,N,11709.4173,W,1,8,1.5,21,M,,M,,*52
06/13/2021,18:14:30.997,$GPGGA,181431,3241.8197,N,11709.4177,W,1,8,1.5,21,M,,M,,*59
06/13/2021,18:14:32.107,$GPGGA,181432,3241.8196,N,11709.4181,W,1,8,1.5,21,M,,M,,*52
06/13/2021,18:14:32.997,$GPGGA,181433,3241.8195,N,11709.4185,W,1,8,1.5,21,M,,M,,*54
06/13/2021,18:14:34.107,$GPGGA,181434,3241.8193,N,11709.4191,W,1,8,1.5,21,M,,M,,*50
06/13/2021,18:14:35.006,$GPGGA,181435,3241.8192,N,11709.4194,W,1,8,1.5,21,M,,M,,*55
06/13/2021,18:14:36.106,$GPGGA,181436,3241.8189,N,11709.4198,W,1,8,1.5,21,M,,M,,*50
06/13/2021,18:14:37.006,$GPGGA,181437,3241.8188,N,11709.4203,W,1,8,1.5,21,M,,M,,*51
06/13/2021,18:14:38.106,$GPGGA,181438,3241.8186,N,11709.4207,W,1,8,1.5,21,M,,M,,*54
06/13/2021,18:14:39.006,$GPGGA,181439,3241.8185,N,11709.4212,W,1,8,1.5,21,M,,M,,*52
06/13/2021,18:14:40.106,$GPGGA,181440,3241.8181,N,11709.4216,W,1,8,1.5,21,M,,M,,*5C
06/13/2021,18:14:40.997,$GPGGA,181441,3241.8177,N,11709.4217,W,1,8,1.4,21,M,,M,,*54
06/13/2021,18:14:42.107,$GPGGA,181442,3241.8175,N,11709.4223,W,1,8,1.4,21,M,,M,,*52
06/13/2021,18:14:43.007,$GPGGA,181443,3241.8174,N,11709.4227,W,1,8,1.5,21,M,,M,,*57
06/13/2021,18:14:44.107,$GPGGA,181444,3241.8168,N,11709.4228,W,1,9,1.5,21,M,,M,,*53
06/13/2021,18:14:44.997,$GPGGA,181445,3241.8164,N,11709.4230,W,1,9,1.4,21,M,,M,,*56
06/13/2021,18:14:46.097,$GPGGA,181446,3241.8160,N,11709.4232,W,1,9,1.4,21,M,,M,,*53
06/13/2021,18:14:47.007,$GPGGA,181447,3241.8157,N,11709.4236,W,1,9,1.4,21,M,,M,,*52
06/13/2021,18:14:48.107,$GPGGA,181448,3241.8154,N,11709.4241,W,1,9,1.4,21,M,,M,,*5E
06/13/2021,18:14:49.007,$GPGGA,181449,3241.8152,N,11709.4245,W,1,9,1.4,21,M,,M,,*5D
06/13/2021,18:14:50.107,$GPGGA,181450,3241.8148,N,11709.4248,W,1,9,1.4,21,M,,M,,*53
06/13/2021,18:14:50.997,$GPGGA,181451,3241.8145,N,11709.4252,W,1,9,1.4,21,M,,M,,*54
06/13/2021,18:14:52.107,$GPGGA,181452,3241.8145,N,11709.4259,W,1,8,1.4,21,M,,M,,*5D
06/13/2021,18:14:52.998,$GPGGA,181453,3241.8142,N,11709.4263,W,1,8,1.5,21,M,,M,,*53
06/13/2021,18:14:54.107,$GPGGA,181454,3241.8140,N,11709.4268,W,1,8,1.5,21,M,,M,,*5D
06/13/2021,18:14:54.997,$GPGGA,181455,3241.8138,N,11709.4274,W,1,8,1.9,21,M,,M,,*52
06/13/2021,18:14:56.107,$GPGGA,181456,3241.8129,N,11709.4277,W,1,9,1.9,21,M,,M,,*53
06/13/2021,18:14:56.998,$GPGGA,181457,3241.8121,N,11709.4281,W,1,9,1.8,21,M,,M,,*52
06/13/2021,18:14:58.107,$GPGGA,181458,3241.8114,N,11709.4283,W,1,8,1.8,21,M,,M,,*58
06/13/2021,18:14:58.998,$GPGGA,181459,3241.8112,N,11709.4288,W,1,8,1.4,20,M,,M,,*59
06/13/2021,18:15:00.108,$GPGGA,181500,3241.8110,N,11709.4292,W,1,9,1.4,20,M,,M,,*5C
06/13/2021,18:15:00.997,$GPGGA,181501,3241.8105,N,11709.4291,W,1,9,2.0,20,M,,M,,*5D
06/13/2021,18:15:02.098,$GPGGA,181502,3241.8100,N,11709.4293,W,1,8,2.0,20,M,,M,,*58
06/13/2021,18:15:02.998,$GPGGA,181503,3241.8098,N,11709.4296,W,1,8,1.4,20,M,,M,,*5B
06/13/2021,18:15:04.098,$GPGGA,181504,3241.8095,N,11709.4299,W,1,9,1.4,20,M,,M,,*5F
06/13/2021,18:15:04.998,$GPGGA,181505,3241.8092,N,11709.4303,W,1,9,1.4,20,M,,M,,*5B
06/13/2021,18:15:06.108,$GPGGA,181506,3241.8088,N,11709.4304,W,1,8,1.4,20,M,,M,,*55
06/13/2021,18:15:06.998,$GPGGA,181507,3241.8085,N,11709.4308,W,1,8,1.4,20,M,,M,,*55
06/13/2021,18:15:08.098,$GPGGA,181508,3241.8081,N,11709.4313,W,1,9,1.4,20,M,,M,,*55
06/13/2021,18:15:08.999,$GPGGA,181509,3241.8078,N,11709.4317,W,1,9,1.4,20,M,,M,,*56
06/13/2021,18:15:10.108,$GPGGA,181510,3241.8076,N,11709.4321,W,1,9,1.4,20,M,,M,,*55
06/13/2021,18:15:10.998,$GPGGA,181511,3241.8073,N,11709.4325,W,1,9,1.4,20,M,,M,,*55
06/13/2021,18:15:12.098,$GPGGA,181512,3241.8070,N,11709.4331,W,1,9,1.4,20,M,,M,,*50
06/13/2021,18:15:12.998,$GPGGA,181513,3241.8069,N,11709.4335,W,1,9,1.4,21,M,,M,,*5C
06/13/2021,18:15:14.098,$GPGGA,181514,3241.8065,N,11709.4340,W,1,9,1.4,21,M,,M,,*55
06/13/2021,18:15:14.998,$GPGGA,181515,3241.8062,N,11709.4344,W,1,9,1.4,21,M,,M,,*57
06/13/2021,18:15:16.098,$GPGGA,181516,3241.8059,N,11709.4348,W,1,9,1.4,21,M,,M,,*50
06/13/2021,18:15:16.998,$GPGGA,181517,3241.8055,N,11709.4353,W,1,9,1.4,21,M,,M,,*57
06/13/2021,18:15:18.098,$GPGGA,181518,3241.8052,N,11709.4357,W,1,9,1.4,21,M,,M,,*5B
06/13/2021,18:15:18.999,$GPGGA,181519,3241.8049,N,11709.4361,W,1,9,1.4,21,M,,M,,*55
06/13/2021,18:15:20.099,$GPGGA,181520,3241.8045,N,11709.4364,W,1,9,1.4,21,M,,M,,*56
06/13/2021,18:15:20.998,$GPGGA,181521,3241.8042,N,11709.4368,W,1,9,1.4,21,M,,M,,*5C
06/13/2021,18:15:22.098,$GPGGA,181522,3241.8038,N,11709.4371,W,1,9,1.4,21,M,,M,,*5A
06/13/2021,18:15:22.999,$GPGGA,181523,3241.8035,N,11709.4375,W,1,9,1.4,21,M,,M,,*52
06/13/2021,18:15:24.099,$GPGGA,181524,3241.8031,N,11709.4379,W,1,9,1.4,21,M,,M,,*5D
06/13/2021,18:15:24.999,$GPGGA,181525,3241.8026,N,11709.4382,W,1,9,2.0,21,M,,M,,*59
06/13/2021,18:15:26.099,$GPGGA,181526,3241.8022,N,11709.4384,W,1,8,2.0,21,M,,M,,*59
06/13/2021,18:15:26.999,$GPGGA,181527,3241.8017,N,11709.4387,W,1,8,2.0,21,M,,M,,*5D
06/13/2021,18:15:28.099,$GPGGA,181528,3241.8012,N,11709.4390,W,1,8,2.0,21,M,,M,,*51
06/13/2021,18:15:28.999,$GPGGA,181529,3241.8010,N,11709.4397,W,1,8,1.4,21,M,,M,,*52
06/13/2021,18:15:30.099,$GPGGA,181530,3241.8006,N,11709.4401,W,1,9,1.4,21,M,,M,,*54
06/13/2021,18:15:30.999,$GPGGA,181531,3241.8001,N,11709.4404,W,1,9,2.0,21,M,,M,,*50
06/13/2021,18:15:32.099,$GPGGA,181532,3241.7997,N,11709.4408,W,1,9,2.0,21,M,,M,,*56
06/13/2021,18:15:32.999,$GPGGA,181533,3241.7991,N,11709.4411,W,1,9,1.4,21,M,,M,,*5E
06/13/2021,18:15:34.099,$GPGGA,181534,3241.7987,N,11709.4413,W,1,9,1.4,21,M,,M,,*5C
06/13/2021,18:15:34.999,$GPGGA,181535,3241.7981,N,11709.4416,W,1,9,1.4,21,M,,M,,*5E
06/13/2021,18:15:36.100,$GPGGA,181536,3241.7976,N,11709.4418,W,1,8,1.4,21,M,,M,,*5A
