06/13/2021,15:42:10.150,$GPGGA,154210,3241.8241,N,11709.5654,W,1,11,1.5,19,M,,M,,*68
06/13/2021,15:42:11.048,$GPGGA,154211,3241.8239,N,11709.5649,W,1,11,1.5,19,M,,M,,*6A
06/13/2021,15:42:12.149,$GPGGA,154212,3241.8239,N,11709.5643,W,1,11,1.5,19,M,,M,,*63
06/13/2021,15:42:13.048,$GPGGA,154213,3241.8236,N,11709.5638,W,1,11,1.5,19,M,,M,,*61
06/13/2021,15:42:14.148,$GPGGA,154214,3241.8235,N,11709.5632,W,1,11,1.5,19,M,,M,,*6F
06/13/2021,15:42:15.049,$GPGGA,154215,3241.8233,N,11709.5626,W,1,11,1.5,19,M,,M,,*6D
06/13/2021,15:42:16.149,$GPGGA,154216,3241.8232,N,11709.5621,W,1,11,1.5,19,M,,M,,*68
06/13/2021,15:42:17.048,$GPGGA,154217,3241.8230,N,11709.5615,W,1,11,1.5,19,M,,M,,*6C
06/13/2021,15:42:18.149,$GPGGA,154218,3241.8228,N,11709.5610,W,1,11,1.5,19,M,,M,,*6F
06/13/2021,15:42:19.049,$GPGGA,154219,3241.8228,N,11709.5604,W,1,11,1.5,19,M,,M,,*6B
06/13/2021,15:42:20.149,$GPGGA,154220,3241.8225,N,11709.5599,W,1,11,1.5,19,M,,M,,*6B
06/13/2021,15:42:21.049,$GPGGA,154221,3241.8224,N,11709.5593,W,1,11,1.5,19,M,,M,,*61
06/13/2021,15:42:22.149,$GPGGA,154222,3241.8222,N,11709.5588,W,1,11,1.5,19,M,,M,,*6E
06/13/2021,15:42:23.050,$GPGGA,154223,3241.8221,N,11709.5582,W,1,11,1.5,19,M,,M,,*66
06/13/2021,15:42:24.149,$GPGGA,154224,3241.8219,N,11709.5577,W,1,11,1.5,19,M,,M,,*60
06/13/2021,15:42:25.049,$GPGGA,154225,3241.8218,N,11709.5572,W,1,11,1.5,19,M,,M,,*65
06/13/2021,15:42:26.150,$GPGGA,154226,3241.8217,N,11709.5566,W,1,11,1.5,19,M,,M,,*6C
06/13/2021,15:42:27.049,$GPGGA,154227,3241.8215,N,11709.5561,W,1,11,1.5,19,M,,M,,*68
06/13/2021,15:42:28.149,$GPGGA,154228,3241.8214,N,11709.5556,W,1,11,1.5,19,M,,M,,*62
06/13/2021,15:42:29.049,$GPGGA,154229,3241.8214,N,11709.5550,W,1,11,1.5,19,M,,M,,*65
06/13/2021,15:42:30.149,$GPGGA,154230,3241.8211,N,11709.5545,W,1,11,1.5,19,M,,M,,*6C
06/13/2021,15:42:31.049,$GPGGA,154231,3241.8210,N,11709.5540,W,1,11,1.5,19,M,,M,,*69
06/13/2021,15:42:32.149,$GPGGA,154232,3241.8208,N,11709.5535,W,1,11,1.5,19,M,,M,,*61
06/13/2021,15:42:33.049,$GPGGA,154233,3241.8207,N,11709.5529,W,1,11,1.5,19,M,,M,,*62
06/13/2021,15:42:34.150,$GPGGA,154234,3241.8206,N,11709.5524,W,1,11,1.5,19,M,,M,,*69
06/13/2021,15:42:35.050,$GPGGA,154235,3241.8204,N,11709.5519,W,1,11,1.5,19,M,,M,,*64
06/13/2021,15:42:36.150,$GPGGA,154236,3241.8203,N,11709.5514,W,1,11,1.5,19,M,,M,,*6D
06/13/2021,15:42:37.050,$GPGGA,154237,3241.8203,N,11709.5509,W,1,11,1.5,19,M,,M,,*60
06/13/2021,15:42:38.150,$GPGGA,154238,3241.8200,N,11709.5504,W,1,11,1.5,19,M,,M,,*61
06/13/2021,15:42:39.050,$GPGGA,154239,3241.8199,N,11709.5499,W,1,11,1.5,19,M,,M,,*66
06/13/2021,15:42:40.150,$GPGGA,154240,3241.8199,N,11709.5494,W,1,11,1.5,19,M,,M,,*65
06/13/2021,15:42:41.050,$GPGGA,154241,3241.8196,N,11709.5489,W,1,11,1.5,19,M,,M,,*67
06/13/2021,15:42:42.150,$GPGGA,154242,3241.8195,N,11709.5485,W,1,11,1.5,19,M,,M,,*6B
06/13/2021,15:42:43.050,$GPGGA,154243,3241.8194,N,11709.5480,W,1,11,1.5,19,M,,M,,*6E
06/13/2021,15:42:44.150,$GPGGA,154244,3241.8192,N,11709.5475,W,1,11,1.5,19,M,,M,,*65
06/13/2021,15:42:45.050,$GPGGA,154245,3241.8192,N,11709.5471,W,1,11,1.5,19,M,,M,,*60
06/13/2021,15:42:46.150,$GPGGA,154246,3241.8189,N,11709.5466,W,1,11,1.5,19,M,,M,,*6F
06/13/2021,15:42:47.050,$GPGGA,154247,3241.8188,N,11709.5462,W,1,11,1.5,18,M,,M,,*6A
06/13/2021,15:42:48.150,$GPGGA,154248,3241.8186,N,11709.5457,W,1,11,1.5,18,M,,M,,*6D
06/13/2021,15:42:49.050,$GPGGA,154249,3241.8185,N,11709.5452,W,1,11,1.5,18,M,,M,,*6A
06/13/2021,15:42:50.150,$GPGGA,154250,3241.8183,N,11709.5448,W,1,11,1.5,18,M,,M,,*6F
06/13/2021,15:42:51.050,$GPGGA,154251,3241.8182,N,11709.5443,W,1,11,1.5,18,M,,M,,*64
06/13/2021,15:42:52.151,$GPGGA,154252,3241.8181,N,11709.5439,W,1,11,1.5,18,M,,M,,*69
06/13/2021,15:42:53.051,$GPGGA,154253,3241.8179,N,11709.5434,W,1,11,1.5,18,M,,M,,*62
06/13/2021,15:42:54.150,$GPGGA,154254,3241.8177,N,11709.5430,W,1,11,1.5,18,M,,M,,*6F
06/13/2021,15:42:55.050,$GPGGA,154255,3241.8176,N,11709.5426,W,1,11,1.5,18,M,,M,,*68
06/13/2021,15:42:56.151,$GPGGA,154256,3241.8175,N,11709.5421,W,1,11,1.5,18,M,,M,,*6F
06/13/2021,15:42:57.050,$GPGGA,154257,3241.8174,N,11709.5417,W,1,11,1.5,18,M,,M,,*6A
06/13/2021,15:42:58.150,$GPGGA,154258,3241.8172,N,11709.5413,W,1,11,1.5,18,M,,M,,*67
06/13/2021,15:42:59.051,$GPGGA,154259,3241.8171,N,11709.5409,W,1,11,1.5,18,M,,M,,*6E
06/13/2021,15:43:00.151,$GPGGA,154300,3241.8169,N,11709.5405,W,1,11,1.5,18,M,,M,,*66
06/13/2021,15:43:01.051,$GPGGA,154301,3241.8167,N,11709.5401,W,1,11,1.5,18,M,,M,,*6D
06/13/2021,15:43:02.151,$GPGGA,154302,3241.8167,N,11709.5397,W,1,11,1.5,18,M,,M,,*66
06/13/2021,15:43:03.051,$GPGGA,154303,3241.8164,N,11709.5394,W,1,11,1.5,18,M,,M,,*67
06/13/2021,15:43:04.152,$GPGGA,154304,3241.8163,N,11709.5390,W,1,11,1.5,18,M,,M,,*63
06/13/2021,15:43:05.051,$GPGGA,154305,3241.8161,N,11709.5387,W,1,11,1.5,18,M,,M,,*66
06/13/2021,15:43:06.151,$GPGGA,154306,3241.8160,N,11709.5384,W,1,11,1.5,18,M,,M,,*67
06/13/2021,15:43:07.051,$GPGGA,154307,3241.8158,N,11709.5381,W,1,11,1.5,18,M,,M,,*68
06/13/2021,15:43:08.152,$GPGGA,154308,3241.8157,N,11709.5377,W,1,11,1.5,18,M,,M,,*61
06/13/2021,15:43:09.052,$GPGGA,154309,3241.8156,N,11709.5374,W,1,11,1.5,18,M,,M,,*62
06/13/2021,15:43:10.152,$GPGGA,154310,3241.8154,N,11709.5371,W,1,11,1.5,18,M,,M,,*6D
06/13/2021,15:43:11.051,$GPGGA,154311,3241.8153,N,11709.5369,W,1,11,1.5,18,M,,M,,*62
06/13/2021,15:43:12.152,$GPGGA,154312,3241.8152,N,11709.5366,W,1,11,1.5,18,M,,M,,*6F
06/13/2021,15:43:13.052,$GPGGA,154313,3241.8150,N,11709.5364,W,1,11,1.5,18,M,,M,,*6E
06/13/2021,15:43:14.151,$GPGGA,154314,3241.8148,N,11709.5361,W,1,11,1.5,18,M,,M,,*65
06/13/2021,15:43:15.051,$GPGGA,154315,3241.8147,N,11709.5358,W,1,11,1.5,18,M,,M,,*61
06/13/2021,15:43:16.152,$GPGGA,154316,3241.8145,N,11709.5356,W,1,11,1.5,18,M,,M,,*6E
06/13/2021,15:43:17.052,$GPGGA,154317,3241.8145,N,11709.5353,W,1,11,1.5,18,M,,M,,*6A
06/13/2021,15:43:18.152,$GPGGA,154318,3241.8143,N,11709.5351,W,1,11,1.5,18,M,,M,,*61
06/13/2021,15:43:19.052,$GPGGA,154319,3241.8142,N,11709.5348,W,1,11,1.5,18,M,,M,,*69
06/13/2021,15:43:20.152,$GPGGA,154320,3241.8141,N,11709.5346,W,1,11,1.5,18,M,,M,,*6E
06/13/2021,15:43:21.052,$GPGGA,154321,3241.8140,N,11709.5343,W,1,11,1.5,18,M,,M,,*6B
06/13/2021,15:43:22.153,$GPGGA,154322,3241.8138,N,11709.5341,W,1,11,1.5,18,M,,M,,*65
06/13/2021,15:43:23.053,$GPGGA,154323,3241.8138,N,11709.5338,W,1,11,1.5,18,M,,M,,*6A
06/13/2021,15:43:24.152,$GPGGA,154324,3241.8136,N,11709.5335,W,1,11,1.5,18,M,,M,,*6E
06/13/2021,15:43:25.052,$GPGGA,154325,3241.8135,N,11709.5333,W,1,11,1.5,18,M,,M,,*6A
06/13/2021,15:43:26.153,$GPGGA,154326,3241.8134,N,11709.5330,W,1,11,1.5,18,M,,M,,*6B
06/13/2021,15:43:27.052,$GPGGA,154327,3241.8134,N,11709.5328,W,1,11,1.5,18,M,,M,,*63
06/13/2021,15:43:28.152,$GPGGA,154328,3241.8131,N,11709.5326,W,1,11,1.5,18,M,,M,,*67
06/13/2021,15:43:29.052,$GPGGA,154329,3241.8130,N,11709.5323,W,1,11,1.5,18,M,,M,,*62
06/13/2021,15:43:30.153,$GPGGA,154330,3241.8129,N,11709.5321,W,1,11,1.5,18,M,,M,,*60
06/13/2021,15:43:31.053,$GPGGA,154331,3241.8128,N,11709.5318,W,1,11,1.5,18,M,,M,,*6A
06/13/2021,15:43:32.153,$GPGGA,154332,3241.8127,N,11709.5316,W,1,11,1.5,18,M,,M,,*68
06/13/2021,15:43:33.053,$GPGGA,154333,3241.8127,N,11709.5313,W,1,11,1.5,18,M,,M,,*6C
06/13/2021,15:43:34.153,$GPGGA,154334,3241.8125,N,11709.5311,W,1,11,1.5,18,M,,M,,*6B
06/13/2021,15:43:35.053,$GPGGA,154335,3241.8124,N,11709.5308,W,1,11,1.5,18,M,,M,,*63
06/13/2021,15:43:36.152,$GPGGA,154336,3241.8123,N,11709.5306,W,1,11,1.5,18,M,,M,,*69
06/13/2021,15:43:37.053,$GPGGA,154337,3241.8122,N,11709.5303,W,1,11,1.5,18,M,,M,,*6C
06/13/2021,15:43:38.153,$GPGGA,154338,3241.8120,N,11709.5301,W,1,11,1.5,18,M,,M,,*63
06/13/2021,15:43:39.053,$GPGGA,154339,3241.8120,N,11709.5298,W,1,11,1.5,18,M,,M,,*63
06/13/2021,15:43:40.153,$GPGGA,154340,3241.8118,N,11709.5296,W,1,11,1.5,18,M,,M,,*68
06/13/2021,15:43:41.053,$GPGGA,154341,3241.8117,N,11709.5293,W,1,11,1.5,18,M,,M,,*63
06/13/2021,15:43:42.153,$GPGGA,154342,3241.8116,N,11709.5291,W,1,11,1.5,18,M,,M,,*63
06/13/2021,15:43:43.053,$GPGGA,154343,3241.8116,N,11709.5288,W,1,11,1.5,18,M,,M,,*6A
06/13/2021,15:43:44.153,$GPGGA,154344,3241.8114,N,11709.5286,W,1,11,1.5,18,M,,M,,*61
06/13/2021,15:43:45.053,$GPGGA,154345,3241.8113,N,11709.5283,W,1,11,1.5,18,M,,M,,*62
06/13/2021,15:43:46.154,$GPGGA,154346,3241.8112,N,11709.5280,W,1,11,1.5,18,M,,M,,*63
06/13/2021,15:43:47.053,$GPGGA,154347,3241.8111,N,11709.5278,W,1,11,1.5,18,M,,M,,*66
06/13/2021,15:43:48.153,$GPGGA,154348,3241.8110,N,11709.5275,W,1,11,1.5,18,M,,M,,*65
06/13/2021,15:43:49.054,$GPGGA,154349,3241.8109,N,11709.5273,W,1,11,1.5,18,M,,M,,*6A
06/13/2021,15:43:50.153,$GPGGA,154350,3241.8109,N,11709.5270,W,1,11,1.5,18,M,,M,,*61
06/13/2021,15:43:51.054,$GPGGA,154351,3241.8107,N,11709.5267,W,1,11,1.5,18,M,,M,,*68
06/13/2021,15:43:52.154,$GPGGA,154352,3241.8106,N,11709.5265,W,1,11,1.5,18,M,,M,,*68
06/13/2021,15:43:53.053,$GPGGA,154353,3241.8105,N,11709.5262,W,1,11,1.5,18,M,,M,,*6D
06/13/2021,15:43:54.154,$GPGGA,154354,3241.8105,N,11709.5260,W,1,11,1.5,18,M,,M,,*68
06/13/2021,15:43:55.053,$GPGGA,154355,3241.8103,N,11709.5257,W,1,11,1.5,18,M,,M,,*6B
06/13/2021,15:43:56.154,$GPGGA,154356,3241.8104,N,11709.5255,W,1,11,1.5,18,M,,M,,*6D
06/13/2021,15:43:57.053,$GPGGA,154357,3241.8102,N,11709.5252,W,1,11,1.5,18,M,,M,,*6D
06/13/2021,15:43:58.154,$GPGGA,154358,3241.8102,N,11709.5250,W,1,11,1.5,18,M,,M,,*60
06/13/2021,15:43:59.054,$GPGGA,154359,3241.8102,N,11709.5247,W,1,11,1.5,18,M,,M,,*67
06/13/2021,15:44:00.154,$GPGGA,154400,3241.8100,N,11709.5244,W,1,11,1.5,18,M,,M,,*6D
06/13/2021,15:44:01.054,$GPGGA,154401,3241.8099,N,11709.5242,W,1,11,1.5,18,M,,M,,*6B
06/13/2021,15:44:02.154,$GPGGA,154402,3241.8098,N,11709.5239,W,1,11,1.5,18,M,,M,,*65
06/13/2021,15:44:03.054,$GPGGA,154403,3241.8098,N,11709.5237,W,1,11,1.5,18,M,,M,,*6A
06/13/2021,15:44:04.155,$GPGGA,154404,3241.8096,N,11709.5234,W,1,11,1.5,18,M,,M,,*60
06/13/2021,15:44:05.054,$GPGGA,154405,3241.8097,N,11709.5232,W,1,11,1.5,18,M,,M,,*66
06/13/2021,15:44:06.154,$GPGGA,154406,3241.8094,N,11709.5229,W,1,11,1.5,18,M,,M,,*6C
06/13/2021,15:44:07.054,$GPGGA,154407,3241.8093,N,11709.5227,W,1,11,1.5,17,M,,M,,*6B
06/13/2021,15:44:08.154,$GPGGA,154408,3241.8092,N,11709.5224,W,1,11,1.5,17,M,,M,,*66
06/13/2021,15:44:09.055,$GPGGA,154409,3241.8091,N,11709.5222,W,1,11,1.5,17,M,,M,,*62
06/13/2021,15:44:10.154,$GPGGA,154410,3241.8091,N,11709.5219,W,1,11,1.5,17,M,,M,,*62
06/13/2021,15:44:11.055,$GPGGA,154411,3241.8089,N,11709.5216,W,1,11,1.5,17,M,,M,,*65
06/13/2021,15:44:12.154,$GPGGA,154412,3241.8088,N,11709.5214,W,1,11,1.5,17,M,,M,,*65
06/13/2021,15:44:13.055,$GPGGA,154413,3241.8087,N,11709.5211,W,1,11,1.5,17,M,,M,,*6E
06/13/2021,15:44:14.155,$GPGGA,154414,3241.8087,N,11709.5209,W,1,11,1.5,17,M,,M,,*60
06/13/2021,15:44:15.055,$GPGGA,154415,3241.8085,N,11709.5206,W,1,11,1.5,17,M,,M,,*6C
06/13/2021,15:44:16.155,$GPGGA,154416,3241.8083,N,11709.5204,W,1,11,1.5,17,M,,M,,*6B
06/13/2021,15:44:17.054,$GPGGA,154417,3241.8083,N,11709.5201,W,1,11,1.5,17,M,,M,,*6F
06/13/2021,15:44:18.155,$GPGGA,154418,3241.8081,N,11709.5198,W,1,11,1.5,17,M,,M,,*61
06/13/2021,15:44:19.055,$GPGGA,154419,3241.8080,N,11709.5196,W,1,11,1.5,17,M,,M,,*6F
06/13/2021,15:44:20.155,$GPGGA,154420,3241.8080,N,11709.5193,W,1,11,1.5,17,M,,M,,*60
06/13/2021,15:44:21.055,$GPGGA,154421,3241.8078,N,11709.5190,W,1,11,1.5,17,M,,M,,*65
06/13/2021,15:44:22.155,$GPGGA,154422,3241.8077,N,11709.5188,W,1,11,1.5,17,M,,M,,*60
06/13/2021,15:44:23.055,$GPGGA,154423,3241.8076,N,11709.5185,W,1,11,1.5,17,M,,M,,*6D
06/13/2021,15:44:24.155,$GPGGA,154424,3241.8074,N,11709.5183,W,1,10,1.5,17,M,,M,,*6F
06/13/2021,15:44:25.056,$GPGGA,154425,3241.8073,N,11709.5180,W,1,10,1.6,17,M,,M,,*69
06/13/2021,15:44:26.156,$GPGGA,154426,3241.8073,N,11709.5178,W,1,11,1.6,17,M,,M,,*6C
06/13/2021,15:44:27.056,$GPGGA,154427,3241.8073,N,11709.5175,W,1,11,1.5,17,M,,M,,*63
06/13/2021,15:44:28.156,$GPGGA,154428,3241.8073,N,11709.5173,W,1,11,1.5,17,M,,M,,*6A
06/13/2021,15:44:29.055,$GPGGA,154429,3241.8073,N,11709.5170,W,1,11,1.5,17,M,,M,,*68
06/13/2021,15:44:30.156,$GPGGA,154430,3241.8073,N,11709.5168,W,1,11,1.5,17,M,,M,,*69
06/13/2021,15:44:31.056,$GPGGA,154431,3241.8073,N,11709.5165,W,1,11,1.5,17,M,,M,,*65
06/13/2021,15:44:32.156,$GPGGA,154432,3241.8073,N,11709.5163,W,1,11,1.5,17,M,,M,,*60
06/13/2021,15:44:33.056,$GPGGA,154433,3241.8073,N,11709.5160,W,1,11,1.5,17,M,,M,,*62
06/13/2021,15:44:34.156,$GPGGA,154434,3241.8073,N,11709.5158,W,1,11,1.5,17,M,,M,,*6E
06/13/2021,15:44:35.056,$GPGGA,154435,3241.8073,N,11709.5155,W,1,11,1.5,17,M,,M,,*62
06/13/2021,15:44:36.156,$GPGGA,154436,3241.8071,N,11709.5152,W,1,11,1.5,17,M,,M,,*64
06/13/2021,15:44:37.056,$GPGGA,154437,3241.8072,N,11709.5150,W,1,11,1.5,18,M,,M,,*6B
06/13/2021,15:44:38.156,$GPGGA,154438,3241.8069,N,11709.5147,W,1,11,1.5,18,M,,M,,*68
06/13/2021,15:44:39.056,$GPGGA,154439,3241.8069,N,11709.5144,W,1,11,1.5,18,M,,M,,*6A
06/13/2021,15:44:40.156,$GPGGA,154440,3241.8067,N,11709.5142,W,1,11,1.5,18,M,,M,,*6C
06/13/2021,15:44:41.056,$GPGGA,154441,3241.8066,N,11709.5139,W,1,11,1.5,18,M,,M,,*60
06/13/2021,15:44:42.156,$GPGGA,154442,3241.8066,N,11709.5136,W,1,11,1.5,18,M,,M,,*6C
06/13/2021,15:44:43.056,$GPGGA,154443,3241.8065,N,11709.5133,W,1,11,1.5,19,M,,M,,*6A
06/13/2021,15:44:44.156,$GPGGA,154444,3241.8064,N,11709.5130,W,1,11,1.5,19,M,,M,,*6F
06/13/2021,15:44:45.056,$GPGGA,154445,3241.8062,N,11709.5128,W,1,11,1.5,19,M,,M,,*61
06/13/2021,15:44:46.156,$GPGGA,154446,3241.8062,N,11709.5125,W,1,11,1.5,19,M,,M,,*6F
06/13/2021,15:44:47.056,$GPGGA,154447,3241.8060,N,11709.5122,W,1,11,1.5,19,M,,M,,*6B
06/13/2021,15:44:48.156,$GPGGA,154448,3241.8058,N,11709.5119,W,1,11,1.5,19,M,,M,,*67
06/13/2021,15:44:49.056,$GPGGA,154449,3241.8057,N,11709.5115,W,1,11,1.6,19,M,,M,,*66
06/13/2021,15:44:50.156,$GPGGA,154450,3241.8055,N,11709.5113,W,1,11,1.6,19,M,,M,,*6A
06/13/2021,15:44:51.056,$GPGGA,154451,3241.8055,N,11709.5109,W,1,11,1.5,19,M,,M,,*63
06/13/2021,15:44:52.156,$GPGGA,154452,3241.8052,N,11709.5106,W,1,11,1.5,19,M,,M,,*68
06/13/2021,15:44:53.056,$GPGGA,154453,3241.8051,N,11709.5103,W,1,11,1.5,19,M,,M,,*6F
06/13/2021,15:44:54.157,$GPGGA,154454,3241.8049,N,11709.5099,W,1,11,1.5,19,M,,M,,*63
06/13/2021,15:44:55.056,$GPGGA,154455,3241.8047,N,11709.5096,W,1,11,1.5,19,M,,M,,*63
06/13/2021,15:44:56.157,$GPGGA,154456,3241.8045,N,11709.5092,W,1,11,1.5,19,M,,M,,*66
06/13/2021,15:44:57.057,$GPGGA,154457,3241.8044,N,11709.5089,W,1,11,1.5,19,M,,M,,*6C
06/13/2021,15:44:58.156,$GPGGA,154458,3241.8042,N,11709.5085,W,1,11,1.5,19,M,,M,,*69
06/13/2021,15:44:59.056,$GPGGA,154459,3241.8040,N,11709.5081,W,1,11,1.5,20,M,,M,,*64
06/13/2021,15:45:00.156,$GPGGA,154500,3241.8038,N,11709.5078,W,1,10,1.5,20,M,,M,,*61
06/13/2021,15:45:01.056,$GPGGA,154501,3241.8037,N,11709.5074,W,1,10,1.5,20,M,,M,,*63
06/13/2021,15:45:02.157,$GPGGA,154502,3241.8035,N,11709.5070,W,1,11,1.5,20,M,,M,,*67
06/13/2021,15:45:03.056,$GPGGA,154503,3241.8033,N,11709.5066,W,1,11,1.5,20,M,,M,,*67
06/13/2021,15:45:04.157,$GPGGA,154504,3241.8033,N,11709.5061,W,1,11,1.5,20,M,,M,,*67
06/13/2021,15:45:05.057,$GPGGA,154505,3241.8030,N,11709.5057,W,1,11,1.5,20,M,,M,,*60
06/13/2021,15:45:06.156,$GPGGA,154506,3241.8029,N,11709.5053,W,1,11,1.5,20,M,,M,,*6F
06/13/2021,15:45:07.056,$GPGGA,154507,3241.8028,N,11709.5049,W,1,11,1.5,20,M,,M,,*64
06/13/2021,15:45:08.156,$GPGGA,154508,3241.8026,N,11709.5046,W,1,11,1.5,20,M,,M,,*6A
06/13/2021,15:45:09.056,$GPGGA,154509,3241.8026,N,11709.5042,W,1,11,1.5,20,M,,M,,*6F
06/13/2021,15:45:10.157,$GPGGA,154510,3241.8023,N,11709.5038,W,1,11,1.5,20,M,,M,,*6F
06/13/2021,15:45:11.056,$GPGGA,154511,3241.8022,N,11709.5035,W,1,11,1.5,20,M,,M,,*62
06/13/2021,15:45:12.156,$GPGGA,154512,3241.8020,N,11709.5031,W,1,11,1.5,20,M,,M,,*67
06/13/2021,15:45:13.057,$GPGGA,154513,3241.8019,N,11709.5028,W,1,11,1.5,20,M,,M,,*64
06/13/2021,15:45:14.157,$GPGGA,154514,3241.8018,N,11709.5025,W,1,11,1.5,20,M,,M,,*6F
06/13/2021,15:45:15.057,$GPGGA,154515,3241.8016,N,11709.5021,W,1,11,1.5,20,M,,M,,*64
06/13/2021,15:45:16.156,$GPGGA,154516,3241.8013,N,11709.5022,W,1,11,1.5,20,M,,M,,*61
06/13/2021,15:45:17.057,$GPGGA,154517,3241.8011,N,11709.5022,W,1,11,1.5,21,M,,M,,*63
06/13/2021,15:45:18.157,$GPGGA,154518,3241.8008,N,11709.5021,W,1,11,1.5,21,M,,M,,*67
06/13/2021,15:45:19.057,$GPGGA,154519,3241.8006,N,11709.5019,W,1,11,1.5,21,M,,M,,*63
06/13/2021,15:45:20.157,$GPGGA,154520,3241.8004,N,11709.5018,W,1,11,1.5,21,M,,M,,*6A
06/13/2021,15:45:21.057,$GPGGA,154521,3241.8002,N,11709.5016,W,1,11,1.5,21,M,,M,,*63
06/13/2021,15:45:22.157,$GPGGA,154522,3241.8000,N,11709.5013,W,1,11,1.5,21,M,,M,,*67
06/13/2021,15:45:23.057,$GPGGA,154523,3241.7999,N,11709.5011,W,1,11,1.5,21,M,,M,,*62
06/13/2021,15:45:24.157,$GPGGA,154524,3241.7998,N,11709.5008,W,1,11,1.5,21,M,,M,,*6C
06/13/2021,15:45:25.058,$GPGGA,154525,3241.7997,N,11709.5005,W,1,11,1.5,21,M,,M,,*6F
06/13/2021,15:45:26.157,$GPGGA,154526,3241.7997,N,11709.5002,W,1,11,1.5,21,M,,M,,*6B
06/13/2021,15:45:27.058,$GPGGA,154527,3241.7995,N,11709.4999,W,1,11,1.5,21,M,,M,,*62
06/13/2021,15:45:28.158,$GPGGA,154528,3241.7993,N,11709.4997,W,1,11,1.5,21,M,,M,,*65
06/13/2021,15:45:29.057,$GPGGA,154529,3241.7993,N,11709.4994,W,1,11,1.5,21,M,,M,,*67
06/13/2021,15:45:30.157,$GPGGA,154530,3241.7991,N,11709.4992,W,1,11,1.5,21,M,,M,,*6B
06/13/2021,15:45:31.058,$GPGGA,154531,3241.7992,N,11709.4989,W,1,11,1.5,22,M,,M,,*60
06/13/2021,15:45:32.158,$GPGGA,154532,3241.7990,N,11709.4987,W,1,11,1.5,22,M,,M,,*6F
06/13/2021,15:45:33.057,$GPGGA,154533,3241.7990,N,11709.4985,W,1,11,1.5,22,M,,M,,*6C
06/13/2021,15:45:34.158,$GPGGA,154534,3241.7988,N,11709.4983,W,1,11,1.5,22,M,,M,,*64
06/13/2021,15:45:35.058,$GPGGA,154535,3241.7987,N,11709.4981,W,1,11,1.5,22,M,,M,,*68
06/13/2021,15:45:36.158,$GPGGA,154536,3241.7988,N,11709.4979,W,1,11,1.5,22,M,,M,,*63
06/13/2021,15:45:37.058,$GPGGA,154537,3241.7986,N,11709.4976,W,1,11,1.5,22,M,,M,,*63
06/13/2021,15:45:38.158,$GPGGA,154538,3241.7986,N,11709.4974,W,1,11,1.5,22,M,,M,,*6E
06/13/2021,15:45:39.058,$GPGGA,154539,3241.7986,N,11709.4972,W,1,11,1.5,22,M,,M,,*69
06/13/2021,15:45:40.158,$GPGGA,154540,3241.7984,N,11709.4970,W,1,11,1.5,22,M,,M,,*67
06/13/2021,15:45:41.058,$GPGGA,154541,3241.7983,N,11709.4968,W,1,11,1.5,22,M,,M,,*68
06/13/2021,15:45:42.158,$GPGGA,154542,3241.7984,N,11709.4966,W,1,11,1.5,22,M,,M,,*62
06/13/2021,15:45:43.058,$GPGGA,154543,3241.7982,N,11709.4964,W,1,11,1.5,22,M,,M,,*67
06/13/2021,15:45:44.158,$GPGGA,154544,3241.7982,N,11709.4962,W,1,11,1.5,22,M,,M,,*66
06/13/2021,15:45:45.058,$GPGGA,154545,3241.7981,N,11709.4960,W,1,11,1.5,22,M,,M,,*66
06/13/2021,15:45:46.159,$GPGGA,154546,3241.7980,N,11709.4958,W,1,10,1.5,22,M,,M,,*6E
06/13/2021,15:45:47.058,$GPGGA,154547,3241.7979,N,11709.4956,W,1,10,2.0,22,M,,M,,*61
06/13/2021,15:45:48.159,$GPGGA,154548,3241.7979,N,11709.4955,W,1,10,2.0,22,M,,M,,*6D
06/13/2021,15:45:49.058,$GPGGA,154549,3241.7977,N,11709.4953,W,1,10,2.0,22,M,,M,,*64
06/13/2021,15:45:50.159,$GPGGA,154550,3241.7976,N,11709.4951,W,1,10,2.0,22,M,,M,,*6F
06/13/2021,15:45:51.058,$GPGGA,154551,3241.7975,N,11709.4949,W,1,10,2.0,22,M,,M,,*64
06/13/2021,15:45:52.159,$GPGGA,154552,3241.7975,N,11709.4947,W,1,11,2.0,22,M,,M,,*68
06/13/2021,15:45:53.059,$GPGGA,154553,3241.7975,N,11709.4945,W,1,11,1.5,22,M,,M,,*6D
06/13/2021,15:45:54.159,$GPGGA,154554,3241.7973,N,11709.4943,W,1,11,1.5,22,M,,M,,*6A
06/13/2021,15:45:55.059,$GPGGA,154555,3241.7972,N,11709.4941,W,1,11,1.5,22,M,,M,,*68
06/13/2021,15:45:56.159,$GPGGA,154556,3241.7970,N,11709.4939,W,1,11,1.5,22,M,,M,,*66
06/13/2021,15:45:57.059,$GPGGA,154557,3241.7969,N,11709.4937,W,1,11,1.5,22,M,,M,,*61
06/13/2021,15:45:58.159,$GPGGA,154558,3241.7968,N,11709.4935,W,1,11,1.5,22,M,,M,,*6D
06/13/2021,15:45:59.049,$GPGGA,154559,3241.7968,N,11709.4933,W,1,11,1.5,22,M,,M,,*6A
06/13/2021,15:46:00.159,$GPGGA,154600,3241.7966,N,11709.4932,W,1,11,1.5,22,M,,M,,*6A
06/13/2021,15:46:01.059,$GPGGA,154601,3241.7965,N,11709.4930,W,1,11,2.0,22,M,,M,,*6C
06/13/2021,15:46:02.160,$GPGGA,154602,3241.7964,N,11709.4928,W,1,10,2.0,22,M,,M,,*66
06/13/2021,15:46:03.059,$GPGGA,154603,3241.7966,N,11709.4925,W,1,10,1.5,22,M,,M,,*6E
06/13/2021,15:46:04.159,$GPGGA,154604,3241.7964,N,11709.4923,W,1,11,1.5,22,M,,M,,*6C
06/13/2021,15:46:05.059,$GPGGA,154605,3241.7963,N,11709.4921,W,1,11,1.5,22,M,,M,,*68
06/13/2021,15:46:06.159,$GPGGA,154606,3241.7962,N,11709.4920,W,1,10,1.5,22,M,,M,,*6A
06/13/2021,15:46:07.050,$GPGGA,154607,3241.7961,N,11709.4919,W,1,10,1.5,22,M,,M,,*62
06/13/2021,15:46:08.160,$GPGGA,154608,3241.7961,N,11709.4917,W,1,11,1.5,22,M,,M,,*62
06/13/2021,15:46:09.059,$GPGGA,154609,3241.7959,N,11709.4914,W,1,11,1.5,22,M,,M,,*6B
06/13/2021,15:46:10.160,$GPGGA,154610,3241.7957,N,11709.4912,W,1,11,1.5,22,M,,M,,*6B
06/13/2021,15:46:11.059,$GPGGA,154611,3241.7957,N,11709.4909,W,1,11,1.5,22,M,,M,,*60
06/13/2021,15:46:12.160,$GPGGA,154612,3241.7955,N,11709.4907,W,1,11,1.5,22,M,,M,,*6F
06/13/2021,15:46:13.050,$GPGGA,154613,3241.7954,N,11709.4904,W,1,11,1.5,22,M,,M,,*6C
06/13/2021,15:46:14.160,$GPGGA,154614,3241.7953,N,11709.4901,W,1,10,1.5,22,M,,M,,*68
06/13/2021,15:46:15.060,$GPGGA,154615,3241.7952,N,11709.4900,W,1,10,1.5,22,M,,M,,*69
06/13/2021,15:46:16.160,$GPGGA,154616,3241.7950,N,11709.4898,W,1,11,1.5,22,M,,M,,*69
06/13/2021,15:46:17.060,$GPGGA,154617,3241.7950,N,11709.4896,W,1,11,1.5,22,M,,M,,*66
06/13/2021,15:46:18.160,$GPGGA,154618,3241.7947,N,11709.4895,W,1,11,1.5,22,M,,M,,*6C
06/13/2021,15:46:19.050,$GPGGA,154619,3241.7946,N,11709.4893,W,1,11,1.5,22,M,,M,,*6A
06/13/2021,15:46:20.161,$GPGGA,154620,3241.7944,N,11709.4892,W,1,11,1.5,22,M,,M,,*63
06/13/2021,15:46:21.051,$GPGGA,154621,3241.7943,N,11709.4891,W,1,11,1.5,22,M,,M,,*66
06/13/2021,15:46:22.160,$GPGGA,154622,3241.7941,N,11709.4889,W,1,11,1.5,22,M,,M,,*6E
06/13/2021,15:46:23.060,$GPGGA,154623,3241.7940,N,11709.4888,W,1,11,1.5,23,M,,M,,*6E
06/13/2021,15:46:24.161,$GPGGA,154624,3241.7939,N,11709.4886,W,1,11,1.5,23,M,,M,,*69
06/13/2021,15:46:25.060,$GPGGA,154625,3241.7939,N,11709.4885,W,1,11,1.5,23,M,,M,,*6B
06/13/2021,15:46:26.160,$GPGGA,154626,3241.7937,N,11709.4884,W,1,11,1.5,23,M,,M,,*67
06/13/2021,15:46:27.050,$GPGGA,154627,3241.7936,N,11709.4882,W,1,11,1.5,23,M,,M,,*61
06/13/2021,15:46:28.160,$GPGGA,154628,3241.7936,N,11709.4880,W,1,10,1.5,23,M,,M,,*6D
06/13/2021,15:46:29.060,$GPGGA,154629,3241.7936,N,11709.4878,W,1,10,1.5,23,M,,M,,*6B
06/13/2021,15:46:30.151,$GPGGA,154630,3241.7935,N,11709.4875,W,1,11,1.5,23,M,,M,,*6C
06/13/2021,15:46:31.051,$GPGGA,154631,3241.7935,N,11709.4874,W,1,11,1.5,23,M,,M,,*6C
06/13/2021,15:46:32.151,$GPGGA,154632,3241.7934,N,11709.4872,W,1,11,1.5,23,M,,M,,*68
06/13/2021,15:46:33.051,$GPGGA,154633,3241.7933,N,11709.4870,W,1,11,1.5,23,M,,M,,*6C
06/13/2021,15:46:34.161,$GPGGA,154634,3241.7934,N,11709.4869,W,1,11,1.5,23,M,,M,,*64
06/13/2021,15:46:35.051,$GPGGA,154635,3241.7932,N,11709.4867,W,1,11,1.5,23,M,,M,,*6D
06/13/2021,15:46:36.161,$GPGGA,154636,3241.7932,N,11709.4866,W,1,11,1.5,23,M,,M,,*6F
06/13/2021,15:46:37.051,$GPGGA,154637,3241.7932,N,11709.4864,W,1,11,1.5,23,M,,M,,*6C
06/13/2021,15:46:38.161,$GPGGA,154638,3241.7932,N,11709.4862,W,1,10,1.5,23,M,,M,,*64
06/13/2021,15:46:39.051,$GPGGA,154639,3241.7932,N,11709.4860,W,1,10,2.0,23,M,,M,,*61
06/13/2021,15:46:40.152,$GPGGA,154640,3241.7932,N,11709.4858,W,1,10,2.0,23,M,,M,,*64
06/13/2021,15:46:41.051,$GPGGA,154641,3241.7932,N,11709.4857,W,1,10,2.0,23,M,,M,,*6A
06/13/2021,15:46:42.152,$GPGGA,154642,3241.7932,N,11709.4856,W,1,10,2.0,23,M,,M,,*68
06/13/2021,15:46:43.052,$GPGGA,154643,3241.7932,N,11709.4854,W,1,10,2.0,23,M,,M,,*6B
06/13/2021,15:46:44.161,$GPGGA,154644,3241.7932,N,11709.4852,W,1,11,2.0,23,M,,M,,*6B
06/13/2021,15:46:45.052,$GPGGA,154645,3241.7930,N,11709.4852,W,1,11,1.5,23,M,,M,,*6E
06/13/2021,15:46:46.152,$GPGGA,154646,3241.7928,N,11709.4852,W,1,11,1.5,23,M,,M,,*64
06/13/2021,15:46:47.052,$GPGGA,154647,3241.7928,N,11709.4851,W,1,11,1.5,22,M,,M,,*67
06/13/2021,15:46:48.152,$GPGGA,154648,3241.7926,N,11709.4852,W,1,11,1.5,22,M,,M,,*65
06/13/2021,15:46:49.052,$GPGGA,154649,3241.7925,N,11709.4850,W,1,11,1.5,22,M,,M,,*65
06/13/2021,15:46:50.152,$GPGGA,154650,3241.7923,N,11709.4850,W,1,11,1.5,22,M,,M,,*6B
06/13/2021,15:46:51.052,$GPGGA,154651,3241.7922,N,11709.4849,W,1,11,1.5,22,M,,M,,*63
06/13/2021,15:46:52.152,$GPGGA,154652,3241.7921,N,11709.4849,W,1,11,1.5,22,M,,M,,*63
06/13/2021,15:46:53.052,$GPGGA,154653,3241.7921,N,11709.4848,W,1,11,1.5,22,M,,M,,*63
06/13/2021,15:46:54.152,$GPGGA,154654,3241.7921,N,11709.4847,W,1,10,1.5,22,M,,M,,*6A
06/13/2021,15:46:55.052,$GPGGA,154655,3241.7921,N,11709.4846,W,1,10,2.0,22,M,,M,,*6C
06/13/2021,15:46:56.152,$GPGGA,154656,3241.7921,N,11709.4845,W,1,10,2.0,22,M,,M,,*6C
06/13/2021,15:46:57.052,$GPGGA,154657,3241.7921,N,11709.4844,W,1,10,1.5,22,M,,M,,*6A
06/13/2021,15:46:58.153,$GPGGA,154658,3241.7921,N,11709.4843,W,1,11,1.5,22,M,,M,,*63
06/13/2021,15:46:59.052,$GPGGA,154659,3241.7921,N,11709.4842,W,1,11,1.5,22,M,,M,,*63
06/13/2021,15:47:00.153,$GPGGA,154700,3241.7921,N,11709.4842,W,1,11,1.5,22,M,,M,,*6E
06/13/2021,15:47:01.053,$GPGGA,154701,3241.7919,N,11709.4842,W,1,11,1.5,22,M,,M,,*64
06/13/2021,15:47:02.162,$GPGGA,154702,3241.7920,N,11709.4842,W,1,10,1.5,22,M,,M,,*6C
06/13/2021,15:47:03.052,$GPGGA,154703,3241.7918,N,11709.4842,W,1,10,1.5,22,M,,M,,*66
06/13/2021,15:47:04.162,$GPGGA,154704,3241.7919,N,11709.4842,W,1,10,1.5,22,M,,M,,*60
06/13/2021,15:47:05.052,$GPGGA,154705,3241.7918,N,11709.4842,W,1,10,1.5,22,M,,M,,*60
06/13/2021,15:47:06.153,$GPGGA,154706,3241.7917,N,11709.4842,W,1,10,1.5,22,M,,M,,*6C
06/13/2021,15:47:07.052,$GPGGA,154707,3241.7917,N,11709.4842,W,1,10,1.5,22,M,,M,,*6D
06/13/2021,15:47:08.152,$GPGGA,154708,3241.7916,N,11709.4841,W,1,10,1.5,22,M,,M,,*60
06/13/2021,15:47:09.053,$GPGGA,154709,3241.7917,N,11709.4841,W,1,10,1.5,22,M,,M,,*60
06/13/2021,15:47:10.153,$GPGGA,154710,3241.7915,N,11709.4841,W,1,11,1.5,22,M,,M,,*6B
06/13/2021,15:47:11.053,$GPGGA,154711,3241.7916,N,11709.4841,W,1,11,1.5,21,M,,M,,*6A
06/13/2021,15:47:12.152,$GPGGA,154712,3241.7914,N,11709.4841,W,1,11,1.5,21,M,,M,,*6B
06/13/2021,15:47:13.053,$GPGGA,154713,3241.7914,N,11709.4841,W,1,11,1.5,21,M,,M,,*6A
06/13/2021,15:47:14.153,$GPGGA,154714,3241.7914,N,11709.4841,W,1,11,1.5,21,M,,M,,*6D
06/13/2021,15:47:15.053,$GPGGA,154715,3241.7914,N,11709.4840,W,1,11,2.0,21,M,,M,,*6B
06/13/2021,15:47:16.153,$GPGGA,154716,3241.7914,N,11709.4841,W,1,10,2.0,21,M,,M,,*68
06/13/2021,15:47:17.053,$GPGGA,154717,3241.7914,N,11709.4839,W,1,10,2.0,21,M,,M,,*66
06/13/2021,15:47:18.153,$GPGGA,154718,3241.7914,N,11709.4839,W,1,10,2.0,21,M,,M,,*69
06/13/2021,15:47:19.053,$GPGGA,154719,3241.7914,N,11709.4838,W,1,10,2.0,20,M,,M,,*68
06/13/2021,15:47:20.153,$GPGGA,154720,3241.7914,N,11709.4838,W,1,10,2.0,20,M,,M,,*62
06/13/2021,15:47:21.053,$GPGGA,154721,3241.7914,N,11709.4838,W,1,10,2.0,20,M,,M,,*63
06/13/2021,15:47:22.153,$GPGGA,154722,3241.7914,N,11709.4838,W,1,10,2.0,20,M,,M,,*60
06/13/2021,15:47:23.053,$GPGGA,154723,3241.7914,N,11709.4838,W,1,10,2.0,20,M,,M,,*61
06/13/2021,15:47:24.154,$GPGGA,154724,3241.7914,N,11709.4837,W,1,10,2.0,20,M,,M,,*69
06/13/2021,15:47:25.054,$GPGGA,154725,3241.7914,N,11709.4837,W,1,10,2.0,20,M,,M,,*68
06/13/2021,15:47:26.154,$GPGGA,154726,3241.7914,N,11709.4837,W,1,10,2.0,20,M,,M,,*6B
06/13/2021,15:47:27.053,$GPGGA,154727,3241.7914,N,11709.4837,W,1,10,2.0,19,M,,M,,*60
06/13/2021,15:47:28.153,$GPGGA,154728,3241.7914,N,11709.4836,W,1,10,2.0,19,M,,M,,*6E
06/13/2021,15:47:29.054,$GPGGA,154729,3241.7914,N,11709.4835,W,1,10,2.0,19,M,,M,,*6C
06/13/2021,15:47:30.153,$GPGGA,154730,3241.7914,N,11709.4835,W,1,10,2.0,19,M,,M,,*64
06/13/2021,15:47:31.054,$GPGGA,154731,3241.7914,N,11709.4835,W,1,10,2.0,19,M,,M,,*65
06/13/2021,15:47:32.154,$GPGGA,154732,3241.7914,N,11709.4834,W,1,10,2.0,19,M,,M,,*67
06/13/2021,15:47:33.053,$GPGGA,154733,3241.7914,N,11709.4834,W,1,10,2.0,18,M,,M,,*67
06/13/2021,15:47:34.153,$GPGGA,154734,3241.7912,N,11709.4834,W,1,10,2.0,18,M,,M,,*66
06/13/2021,15:47:35.053,$GPGGA,154735,3241.7911,N,11709.4834,W,1,10,2.0,18,M,,M,,*64
06/13/2021,15:47:36.154,$GPGGA,154736,3241.7912,N,11709.4834,W,1,10,2.0,18,M,,M,,*64
06/13/2021,15:47:37.054,$GPGGA,154737,3241.7911,N,11709.4834,W,1,10,2.0,18,M,,M,,*66
06/13/2021,15:47:38.154,$GPGGA,154738,3241.7910,N,11709.4834,W,1,10,2.0,18,M,,M,,*68
06/13/2021,15:47:39.054,$GPGGA,154739,3241.7910,N,11709.4834,W,1,10,2.0,18,M,,M,,*69
06/13/2021,15:47:40.154,$GPGGA,154740,3241.7910,N,11709.4834,W,1,10,2.0,18,M,,M,,*67
06/13/2021,15:47:41.049,$GPGGA,154741,3241.7910,N,11709.4834,W,1,10,2.0,18,M,,M,,*66
06/13/2021,15:47:42.141,$GPGGA,154742,3241.7910,N,11709.4834,W,1,10,2.0,18,M,,M,,*65
06/13/2021,15:47:43.040,$GPGGA,154743,3241.7910,N,11709.4834,W,1,10,2.0,18,M,,M,,*64
06/13/2021,15:47:44.140,$GPGGA,154744,3241.7910,N,11709.4833,W,1,10,2.0,18,M,,M,,*64
06/13/2021,15:47:45.040,$GPGGA,154745,3241.7910,N,11709.4834,W,1,10,2.1,18,M,,M,,*63
06/13/2021,15:47:46.140,$GPGGA,154746,3241.7910,N,11709.4833,W,1,10,2.1,18,M,,M,,*67
06/13/2021,15:47:47.040,$GPGGA,154747,3241.7910,N,11709.4834,W,1,10,2.1,17,M,,M,,*6E
06/13/2021,15:47:48.140,$GPGGA,154748,3241.7908,N,11709.4832,W,1,10,2.1,17,M,,M,,*6E
06/13/2021,15:47:49.040,$GPGGA,154749,3241.7909,N,11709.4832,W,1,10,2.1,17,M,,M,,*6E
06/13/2021,15:47:50.140,$GPGGA,154750,3241.7908,N,11709.4832,W,1,10,2.1,17,M,,M,,*67
06/13/2021,15:47:51.040,$GPGGA,154751,3241.7909,N,11709.4831,W,1,10,2.1,17,M,,M,,*64
06/13/2021,15:47:52.141,$GPGGA,154752,3241.7910,N,11709.4830,W,1,9,2.1,17,M,,M,,*56
06/13/2021,15:47:53.040,$GPGGA,154753,3241.7910,N,11709.4828,W,1,9,2.1,17,M,,M,,*5E
06/13/2021,15:47:54.141,$GPGGA,154754,3241.7910,N,11709.4827,W,1,9,2.1,17,M,,M,,*56
06/13/2021,15:47:55.040,$GPGGA,154755,3241.7912,N,11709.4826,W,1,9,2.1,17,M,,M,,*54
06/13/2021,15:47:56.140,$GPGGA,154756,3241.7911,N,11709.4825,W,1,9,2.1,17,M,,M,,*57
06/13/2021,15:47:57.041,$GPGGA,154757,3241.7913,N,11709.4824,W,1,9,2.1,17,M,,M,,*55
06/13/2021,15:47:58.141,$GPGGA,154758,3241.7912,N,11709.4823,W,1,9,2.1,17,M,,M,,*5C
06/13/2021,15:47:59.041,$GPGGA,154759,3241.7913,N,11709.4822,W,1,9,2.1,17,M,,M,,*5D
06/13/2021,15:48:00.141,$GPGGA,154800,3241.7914,N,11709.4821,W,1,9,2.1,17,M,,M,,*5A
06/13/2021,15:48:01.041,$GPGGA,154801,3241.7914,N,11709.4820,W,1,9,2.1,17,M,,M,,*5A
06/13/2021,15:48:02.141,$GPGGA,154802,3241.7914,N,11709.4819,W,1,10,2.1,17,M,,M,,*6B
06/13/2021,15:48:03.041,$GPGGA,154803,3241.7914,N,11709.4818,W,1,10,1.5,17,M,,M,,*6C
06/13/2021,15:48:04.141,$GPGGA,154804,3241.7912,N,11709.4819,W,1,10,1.5,17,M,,M,,*6C
06/13/2021,15:48:05.041,$GPGGA,154805,3241.7913,N,11709.4817,W,1,10,1.5,17,M,,M,,*62
06/13/2021,15:48:06.141,$GPGGA,154806,3241.7911,N,11709.4817,W,1,10,1.5,17,M,,M,,*63
06/13/2021,15:48:07.041,$GPGGA,154807,3241.7912,N,11709.4816,W,1,10,1.5,17,M,,M,,*60
06/13/2021,15:48:08.141,$GPGGA,154808,3241.7911,N,11709.4815,W,1,10,1.5,17,M,,M,,*6F
06/13/2021,15:48:09.041,$GPGGA,154809,3241.7910,N,11709.4816,W,1,10,1.5,18,M,,M,,*63
06/13/2021,15:48:10.141,$GPGGA,154810,3241.7910,N,11709.4814,W,1,10,1.5,18,M,,M,,*69
06/13/2021,15:48:11.042,$GPGGA,154811,3241.7910,N,11709.4814,W,1,10,1.5,18,M,,M,,*68
06/13/2021,15:48:12.141,$GPGGA,154812,3241.7910,N,11709.4813,W,1,10,1.5,18,M,,M,,*6C
06/13/2021,15:48:13.042,$GPGGA,154813,3241.7908,N,11709.4813,W,1,10,1.5,18,M,,M,,*64
06/13/2021,15:48:14.141,$GPGGA,154814,3241.7907,N,11709.4812,W,1,10,1.5,18,M,,M,,*6D
06/13/2021,15:48:15.042,$GPGGA,154815,3241.7906,N,11709.4812,W,1,10,1.5,18,M,,M,,*6D
06/13/2021,15:48:16.141,$GPGGA,154816,3241.7906,N,11709.4811,W,1,11,1.5,18,M,,M,,*6C
06/13/2021,15:48:17.042,$GPGGA,154817,3241.7905,N,11709.4812,W,1,11,1.5,18,M,,M,,*6D
06/13/2021,15:48:18.142,$GPGGA,154818,3241.7906,N,11709.4810,W,1,11,1.5,18,M,,M,,*63
06/13/2021,15:48:19.042,$GPGGA,154819,3241.7905,N,11709.4809,W,1,11,1.5,18,M,,M,,*69
06/13/2021,15:48:20.141,$GPGGA,154820,3241.7904,N,11709.4808,W,1,11,1.5,18,M,,M,,*63
06/13/2021,15:48:21.042,$GPGGA,154821,3241.7905,N,11709.4807,W,1,11,1.5,19,M,,M,,*6D
06/13/2021,15:48:22.142,$GPGGA,154822,3241.7904,N,11709.4806,W,1,11,1.5,19,M,,M,,*6E
06/13/2021,15:48:23.042,$GPGGA,154823,3241.7905,N,11709.4805,W,1,11,1.5,19,M,,M,,*6D
06/13/2021,15:48:24.142,$GPGGA,154824,3241.7903,N,11709.4804,W,1,11,1.5,19,M,,M,,*6D
06/13/2021,15:48:25.042,$GPGGA,154825,3241.7903,N,11709.4803,W,1,11,1.5,19,M,,M,,*6B
06/13/2021,15:48:26.142,$GPGGA,154826,3241.7903,N,11709.4801,W,1,11,1.5,19,M,,M,,*6A
06/13/2021,15:48:27.043,$GPGGA,154827,3241.7903,N,11709.4800,W,1,11,1.5,19,M,,M,,*6A
06/13/2021,15:48:28.143,$GPGGA,154828,3241.7903,N,11709.4799,W,1,10,1.5,19,M,,M,,*6B
06/13/2021,15:48:29.042,$GPGGA,154829,3241.7903,N,11709.4797,W,1,10,1.5,19,M,,M,,*64
06/13/2021,15:48:30.143,$GPGGA,154830,3241.7903,N,11709.4798,W,1,11,1.5,19,M,,M,,*62
06/13/2021,15:48:31.043,$GPGGA,154831,3241.7901,N,11709.4796,W,1,11,1.5,19,M,,M,,*6F
06/13/2021,15:48:32.143,$GPGGA,154832,3241.7900,N,11709.4796,W,1,11,1.5,19,M,,M,,*6D
06/13/2021,15:48:33.043,$GPGGA,154833,3241.7901,N,11709.4795,W,1,11,1.5,19,M,,M,,*6E
06/13/2021,15:48:34.142,$GPGGA,154834,3241.7899,N,11709.4794,W,1,11,1.5,19,M,,M,,*68
06/13/2021,15:48:35.043,$GPGGA,154835,3241.7899,N,11709.4793,W,1,11,1.5,20,M,,M,,*64
06/13/2021,15:48:36.142,$GPGGA,154836,3241.7899,N,11709.4792,W,1,10,1.5,20,M,,M,,*67
06/13/2021,15:48:37.043,$GPGGA,154837,3241.7899,N,11709.4790,W,1,10,2.1,20,M,,M,,*63
06/13/2021,15:48:38.143,$GPGGA,154838,3241.7899,N,11709.4789,W,1,10,2.1,20,M,,M,,*64
06/13/2021,15:48:39.043,$GPGGA,154839,3241.7899,N,11709.4788,W,1,10,2.1,20,M,,M,,*64
06/13/2021,15:48:40.143,$GPGGA,154840,3241.7898,N,11709.4788,W,1,11,2.1,20,M,,M,,*6A
06/13/2021,15:48:41.043,$GPGGA,154841,3241.7897,N,11709.4788,W,1,11,1.5,20,M,,M,,*63
06/13/2021,15:48:42.143,$GPGGA,154842,3241.7898,N,11709.4787,W,1,10,1.5,20,M,,M,,*61
06/13/2021,15:48:43.043,$GPGGA,154843,3241.7896,N,11709.4788,W,1,10,1.5,20,M,,M,,*61
06/13/2021,15:48:44.143,$GPGGA,154844,3241.7894,N,11709.4787,W,1,11,1.5,20,M,,M,,*6A
06/13/2021,15:48:45.043,$GPGGA,154845,3241.7896,N,11709.4786,W,1,11,2.1,20,M,,M,,*6F
06/13/2021,15:48:46.144,$GPGGA,154846,3241.7896,N,11709.4785,W,1,10,2.1,20,M,,M,,*6E
06/13/2021,15:48:47.043,$GPGGA,154847,3241.7896,N,11709.4784,W,1,10,2.1,20,M,,M,,*6E
06/13/2021,15:48:48.143,$GPGGA,154848,3241.7894,N,11709.4783,W,1,10,2.1,20,M,,M,,*64
06/13/2021,15:48:49.043,$GPGGA,154849,3241.7895,N,11709.4782,W,1,10,2.1,20,M,,M,,*65
06/13/2021,15:48:50.143,$GPGGA,154850,3241.7894,N,11709.4781,W,1,10,2.1,20,M,,M,,*6F
06/13/2021,15:48:51.043,$GPGGA,154851,3241.7895,N,11709.4780,W,1,10,2.1,20,M,,M,,*6E
06/13/2021,15:48:52.144,$GPGGA,154852,3241.7892,N,11709.4781,W,1,11,2.1,20,M,,M,,*6A
06/13/2021,15:48:53.043,$GPGGA,154853,3241.7892,N,11709.4780,W,1,11,2.1,20,M,,M,,*6A
06/13/2021,15:48:54.143,$GPGGA,154854,3241.7892,N,11709.4779,W,1,10,2.1,20,M,,M,,*6A
06/13/2021,15:48:55.043,$GPGGA,154855,3241.7892,N,11709.4778,W,1,10,2.1,20,M,,M,,*6A
06/13/2021,15:48:56.143,$GPGGA,154856,3241.7892,N,11709.4779,W,1,10,2.1,20,M,,M,,*68
06/13/2021,15:48:57.044,$GPGGA,154857,3241.7892,N,11709.4777,W,1,10,2.1,20,M,,M,,*67
06/13/2021,15:48:58.143,$GPGGA,154858,3241.7892,N,11709.4776,W,1,10,2.1,20,M,,M,,*69
06/13/2021,15:48:59.044,$GPGGA,154859,3241.7892,N,11709.4774,W,1,10,1.5,20,M,,M,,*6D
06/13/2021,15:49:00.144,$GPGGA,154900,3241.7892,N,11709.4774,W,1,11,1.5,20,M,,M,,*61
06/13/2021,15:49:01.044,$GPGGA,154901,3241.7890,N,11709.4773,W,1,11,1.5,20,M,,M,,*65
06/13/2021,15:49:02.144,$GPGGA,154902,3241.7889,N,11709.4773,W,1,11,1.5,20,M,,M,,*6E
06/13/2021,15:49:03.044,$GPGGA,154903,3241.7888,N,11709.4773,W,1,11,1.5,20,M,,M,,*6E
06/13/2021,15:49:04.144,$GPGGA,154904,3241.7887,N,11709.4773,W,1,11,1.5,20,M,,M,,*66
06/13/2021,15:49:05.045,$GPGGA,154905,3241.7885,N,11709.4774,W,1,11,1.5,20,M,,M,,*62
06/13/2021,15:49:06.144,$GPGGA,154906,3241.7885,N,11709.4774,W,1,11,1.5,20,M,,M,,*61
06/13/2021,15:49:07.045,$GPGGA,154907,3241.7883,N,11709.4774,W,1,11,1.5,20,M,,M,,*66
06/13/2021,15:49:08.145,$GPGGA,154908,3241.7882,N,11709.4773,W,1,11,1.5,20,M,,M,,*6F
06/13/2021,15:49:09.044,$GPGGA,154909,3241.7883,N,11709.4772,W,1,11,2.1,20,M,,M,,*69
06/13/2021,15:49:10.144,$GPGGA,154910,3241.7882,N,11709.4771,W,1,10,2.1,20,M,,M,,*62
06/13/2021,15:49:11.044,$GPGGA,154911,3241.7881,N,11709.4770,W,1,10,2.1,20,M,,M,,*61
06/13/2021,15:49:12.145,$GPGGA,154912,3241.7881,N,11709.4769,W,1,10,2.1,20,M,,M,,*6A
06/13/2021,15:49:13.045,$GPGGA,154913,3241.7884,N,11709.4765,W,1,10,1.5,20,M,,M,,*65
06/13/2021,15:49:14.145,$GPGGA,154914,3241.7883,N,11709.4765,W,1,10,1.5,20,M,,M,,*65
06/13/2021,15:49:15.044,$GPGGA,154915,3241.7884,N,11709.4764,W,1,10,2.1,20,M,,M,,*65
06/13/2021,15:49:16.144,$GPGGA,154916,3241.7882,N,11709.4765,W,1,11,2.1,20,M,,M,,*60
06/13/2021,15:49:17.045,$GPGGA,154917,3241.7881,N,11709.4763,W,1,11,1.5,20,M,,M,,*63
06/13/2021,15:49:18.145,$GPGGA,154918,3241.7880,N,11709.4765,W,1,11,1.5,20,M,,M,,*6B
06/13/2021,15:49:19.044,$GPGGA,154919,3241.7879,N,11709.4764,W,1,11,1.5,19,M,,M,,*67
06/13/2021,15:49:20.145,$GPGGA,154920,3241.7878,N,11709.4765,W,1,11,1.5,19,M,,M,,*6D
06/13/2021,15:49:21.045,$GPGGA,154921,3241.7878,N,11709.4764,W,1,11,1.5,19,M,,M,,*6D
06/13/2021,15:49:22.145,$GPGGA,154922,3241.7876,N,11709.4765,W,1,11,1.5,19,M,,M,,*61
06/13/2021,15:49:23.045,$GPGGA,154923,3241.7875,N,11709.4764,W,1,11,1.5,20,M,,M,,*68
06/13/2021,15:49:24.145,$GPGGA,154924,3241.7876,N,11709.4763,W,1,11,1.5,20,M,,M,,*6B
06/13/2021,15:49:25.045,$GPGGA,154925,3241.7874,N,11709.4763,W,1,11,1.5,20,M,,M,,*68
06/13/2021,15:49:26.145,$GPGGA,154926,3241.7874,N,11709.4763,W,1,11,1.5,20,M,,M,,*6B
06/13/2021,15:49:27.045,$GPGGA,154927,3241.7874,N,11709.4762,W,1,11,1.5,20,M,,M,,*6B
06/13/2021,15:49:28.146,$GPGGA,154928,3241.7874,N,11709.4762,W,1,11,1.5,20,M,,M,,*64
06/13/2021,15:49:29.046,$GPGGA,154929,3241.7872,N,11709.4761,W,1,11,1.5,20,M,,M,,*60
06/13/2021,15:49:30.155,$GPGGA,154930,3241.7873,N,11709.4762,W,1,11,1.5,20,M,,M,,*6A
06/13/2021,15:49:31.046,$GPGGA,154931,3241.7871,N,11709.4760,W,1,11,1.5,20,M,,M,,*6B
06/13/2021,15:49:32.146,$GPGGA,154932,3241.7870,N,11709.4761,W,1,11,1.5,20,M,,M,,*68
06/13/2021,15:49:33.045,$GPGGA,154933,3241.7870,N,11709.4759,W,1,11,1.5,20,M,,M,,*62
06/13/2021,15:49:34.146,$GPGGA,154934,3241.7869,N,11709.4759,W,1,11,1.5,20,M,,M,,*6D
06/13/2021,15:49:35.045,$GPGGA,154935,3241.7870,N,11709.4759,W,1,11,1.5,20,M,,M,,*64
06/13/2021,15:49:36.146,$GPGGA,154936,3241.7868,N,11709.4758,W,1,11,1.5,20,M,,M,,*6F
06/13/2021,15:49:37.046,$GPGGA,154937,3241.7869,N,11709.4758,W,1,11,1.5,20,M,,M,,*6F
06/13/2021,15:49:38.146,$GPGGA,154938,3241.7867,N,11709.4757,W,1,11,1.5,20,M,,M,,*61
06/13/2021,15:49:39.046,$GPGGA,154939,3241.7867,N,11709.4758,W,1,11,1.5,20,M,,M,,*6F
06/13/2021,15:49:40.146,$GPGGA,154940,3241.7867,N,11709.4757,W,1,11,1.5,20,M,,M,,*6E
06/13/2021,15:49:41.046,$GPGGA,154941,3241.7865,N,11709.4756,W,1,11,1.5,20,M,,M,,*6C
06/13/2021,15:49:42.146,$GPGGA,154942,3241.7866,N,11709.4756,W,1,11,1.5,20,M,,M,,*6C
06/13/2021,15:49:43.047,$GPGGA,154943,3241.7865,N,11709.4755,W,1,11,1.5,20,M,,M,,*6D
06/13/2021,15:49:44.146,$GPGGA,154944,3241.7864,N,11709.4755,W,1,11,1.5,20,M,,M,,*6B
06/13/2021,15:49:45.046,$GPGGA,154945,3241.7863,N,11709.4754,W,1,11,1.5,20,M,,M,,*6C
06/13/2021,15:49:46.146,$GPGGA,154946,3241.7863,N,11709.4754,W,1,11,1.5,20,M,,M,,*6F
06/13/2021,15:49:47.047,$GPGGA,154947,3241.7863,N,11709.4753,W,1,11,1.5,20,M,,M,,*69
06/13/2021,15:49:48.146,$GPGGA,154948,3241.7863,N,11709.4752,W,1,11,1.5,20,M,,M,,*67
06/13/2021,15:49:49.046,$GPGGA,154949,3241.7861,N,11709.4751,W,1,11,1.5,20,M,,M,,*67
06/13/2021,15:49:50.146,$GPGGA,154950,3241.7862,N,11709.4751,W,1,11,1.5,20,M,,M,,*6C
06/13/2021,15:49:51.046,$GPGGA,154951,3241.7860,N,11709.4750,W,1,11,1.5,20,M,,M,,*6E
06/13/2021,15:49:52.146,$GPGGA,154952,3241.7859,N,11709.4751,W,1,11,1.5,20,M,,M,,*66
06/13/2021,15:49:53.047,$GPGGA,154953,3241.7859,N,11709.4749,W,1,11,1.5,20,M,,M,,*6E
06/13/2021,15:49:54.146,$GPGGA,154954,3241.7858,N,11709.4749,W,1,11,1.5,20,M,,M,,*68
06/13/2021,15:49:55.046,$GPGGA,154955,3241.7859,N,11709.4748,W,1,11,1.5,20,M,,M,,*69
06/13/2021,15:49:56.147,$GPGGA,154956,3241.7857,N,11709.4748,W,1,11,1.5,20,M,,M,,*64
06/13/2021,15:49:57.046,$GPGGA,154957,3241.7858,N,11709.4747,W,1,11,1.5,20,M,,M,,*65
06/13/2021,15:49:58.146,$GPGGA,154958,3241.7857,N,11709.4747,W,1,11,1.5,20,M,,M,,*65
06/13/2021,15:49:59.047,$GPGGA,154959,3241.7856,N,11709.4747,W,1,11,1.5,20,M,,M,,*65
06/13/2021,15:50:00.147,$GPGGA,155000,3241.7856,N,11709.4746,W,1,11,1.5,20,M,,M,,*60
06/13/2021,15:50:01.047,$GPGGA,155001,3241.7856,N,11709.4747,W,1,11,1.5,20,M,,M,,*60
06/13/2021,15:50:02.148,$GPGGA,155002,3241.7856,N,11709.4746,W,1,11,1.5,20,M,,M,,*62
06/13/2021,15:50:03.047,$GPGGA,155003,3241.7856,N,11709.4747,W,1,11,1.5,20,M,,M,,*62
06/13/2021,15:50:04.147,$GPGGA,155004,3241.7856,N,11709.4745,W,1,11,1.5,20,M,,M,,*67
06/13/2021,15:50:05.047,$GPGGA,155005,3241.7854,N,11709.4745,W,1,11,1.5,20,M,,M,,*64
06/13/2021,15:50:06.147,$GPGGA,155006,3241.7855,N,11709.4745,W,1,11,1.5,20,M,,M,,*66
06/13/2021,15:50:07.047,$GPGGA,155007,3241.7854,N,11709.4745,W,1,11,1.5,20,M,,M,,*66
06/13/2021,15:50:08.147,$GPGGA,155008,3241.7855,N,11709.4745,W,1,11,1.5,20,M,,M,,*68
06/13/2021,15:50:09.047,$GPGGA,155009,3241.7853,N,11709.4744,W,1,11,1.5,20,M,,M,,*6E
06/13/2021,15:50:10.148,$GPGGA,155010,3241.7854,N,11709.4744,W,1,11,1.5,20,M,,M,,*61
06/13/2021,15:50:11.047,$GPGGA,155011,3241.7853,N,11709.4744,W,1,11,1.5,20,M,,M,,*67
06/13/2021,15:50:12.148,$GPGGA,155012,3241.7854,N,11709.4744,W,1,11,1.5,20,M,,M,,*63
06/13/2021,15:50:13.047,$GPGGA,155013,3241.7853,N,11709.4743,W,1,11,1.5,20,M,,M,,*62
06/13/2021,15:50:14.148,$GPGGA,155014,3241.7854,N,11709.4743,W,1,11,1.5,20,M,,M,,*62
06/13/2021,15:50:15.048,$GPGGA,155015,3241.7853,N,11709.4743,W,1,11,1.5,19,M,,M,,*6E
06/13/2021,15:50:16.147,$GPGGA,155016,3241.7854,N,11709.4743,W,1,11,1.5,19,M,,M,,*6A
06/13/2021,15:50:17.048,$GPGGA,155017,3241.7853,N,11709.4743,W,1,11,1.5,19,M,,M,,*6C
06/13/2021,15:50:18.147,$GPGGA,155018,3241.7854,N,11709.4742,W,1,11,1.5,19,M,,M,,*65
06/13/2021,15:50:19.048,$GPGGA,155019,3241.7853,N,11709.4743,W,1,11,1.5,19,M,,M,,*62
06/13/2021,15:50:20.148,$GPGGA,155020,3241.7852,N,11709.4742,W,1,11,1.5,19,M,,M,,*68
06/13/2021,15:50:21.048,$GPGGA,155021,3241.7852,N,11709.4743,W,1,11,1.5,19,M,,M,,*68
06/13/2021,15:50:22.148,$GPGGA,155022,3241.7852,N,11709.4741,W,1,11,1.5,19,M,,M,,*69
06/13/2021,15:50:23.048,$GPGGA,155023,3241.7852,N,11709.4741,W,1,11,1.5,19,M,,M,,*68
06/13/2021,15:50:24.148,$GPGGA,155024,3241.7852,N,11709.4741,W,1,11,1.5,19,M,,M,,*6F
06/13/2021,15:50:25.048,$GPGGA,155025,3241.7851,N,11709.4740,W,1,11,1.5,19,M,,M,,*6C
06/13/2021,15:50:26.148,$GPGGA,155026,3241.7852,N,11709.4740,W,1,11,1.5,19,M,,M,,*6C
06/13/2021,15:50:27.048,$GPGGA,155027,3241.7851,N,11709.4740,W,1,11,1.5,19,M,,M,,*6E
06/13/2021,15:50:28.148,$GPGGA,155028,3241.7852,N,11709.4739,W,1,11,1.5,19,M,,M,,*6C
06/13/2021,15:50:29.049,$GPGGA,155029,3241.7851,N,11709.4740,W,1,11,1.5,19,M,,M,,*60
06/13/2021,15:50:30.149,$GPGGA,155030,3241.7850,N,11709.4738,W,1,11,1.5,19,M,,M,,*66
06/13/2021,15:50:31.048,$GPGGA,155031,3241.7851,N,11709.4738,W,1,11,1.5,19,M,,M,,*66
06/13/2021,15:50:32.148,$GPGGA,155032,3241.7850,N,11709.4737,W,1,11,1.5,19,M,,M,,*6B
06/13/2021,15:50:33.049,$GPGGA,155033,3241.7851,N,11709.4736,W,1,11,1.5,18,M,,M,,*6B
06/13/2021,15:50:34.148,$GPGGA,155034,3241.7849,N,11709.4736,W,1,11,1.5,18,M,,M,,*65
06/13/2021,15:50:35.048,$GPGGA,155035,3241.7849,N,11709.4735,W,1,11,1.5,18,M,,M,,*67
06/13/2021,15:50:36.149,$GPGGA,155036,3241.7849,N,11709.4736,W,1,11,1.5,18,M,,M,,*67
06/13/2021,15:50:37.049,$GPGGA,155037,3241.7849,N,11709.4734,W,1,11,1.5,18,M,,M,,*64
06/13/2021,15:50:38.149,$GPGGA,155038,3241.7849,N,11709.4734,W,1,11,1.5,18,M,,M,,*6B
06/13/2021,15:50:39.049,$GPGGA,155039,3241.7849,N,11709.4733,W,1,11,1.5,18,M,,M,,*6D
06/13/2021,15:50:40.149,$GPGGA,155040,3241.7849,N,11709.4733,W,1,11,1.5,18,M,,M,,*63
06/13/2021,15:50:41.049,$GPGGA,155041,3241.7849,N,11709.4732,W,1,11,1.5,18,M,,M,,*63
06/13/2021,15:50:42.150,$GPGGA,155042,3241.7849,N,11709.4733,W,1,11,1.5,18,M,,M,,*61
06/13/2021,15:50:43.050,$GPGGA,155043,3241.7849,N,11709.4732,W,1,11,1.5,18,M,,M,,*61
06/13/2021,15:50:44.149,$GPGGA,155044,3241.7847,N,11709.4731,W,1,11,1.5,18,M,,M,,*6B
06/13/2021,15:50:45.049,$GPGGA,155045,3241.7848,N,11709.4732,W,1,11,1.5,18,M,,M,,*66
06/13/2021,15:50:46.149,$GPGGA,155046,3241.7847,N,11709.4730,W,1,11,1.5,18,M,,M,,*68
06/13/2021,15:50:47.049,$GPGGA,155047,3241.7846,N,11709.4730,W,1,11,1.5,18,M,,M,,*68
06/13/2021,15:50:48.153,$GPGGA,155048,3241.7847,N,11709.4729,W,1,11,1.5,18,M,,M,,*6E
06/13/2021,15:50:49.049,$GPGGA,155049,3241.7846,N,11709.4729,W,1,11,1.5,17,M,,M,,*61
06/13/2021,15:50:50.149,$GPGGA,155050,3241.7847,N,11709.4729,W,1,11,1.5,17,M,,M,,*68
06/13/2021,15:50:51.049,$GPGGA,155051,3241.7845,N,11709.4729,W,1,11,1.5,17,M,,M,,*6B
06/13/2021,15:50:52.150,$GPGGA,155052,3241.7845,N,11709.4728,W,1,11,1.5,17,M,,M,,*69
06/13/2021,15:50:53.049,$GPGGA,155053,3241.7845,N,11709.4729,W,1,11,1.5,17,M,,M,,*69
06/13/2021,15:50:54.149,$GPGGA,155054,3241.7845,N,11709.4728,W,1,11,1.5,17,M,,M,,*6F
06/13/2021,15:50:55.050,$GPGGA,155055,3241.7845,N,11709.4729,W,1,11,1.5,17,M,,M,,*6F
06/13/2021,15:50:56.150,$GPGGA,155056,3241.7845,N,11709.4727,W,1,11,1.5,17,M,,M,,*62
06/13/2021,15:50:57.050,$GPGGA,155057,3241.7845,N,11709.4727,W,1,11,1.5,17,M,,M,,*63
06/13/2021,15:50:58.150,$GPGGA,155058,3241.7845,N,11709.4726,W,1,11,1.5,17,M,,M,,*6D
06/13/2021,15:50:59.050,$GPGGA,155059,3241.7845,N,11709.4726,W,1,11,1.5,17,M,,M,,*6C
06/13/2021,15:51:00.150,$GPGGA,155100,3241.7845,N,11709.4726,W,1,11,1.5,17,M,,M,,*61
06/13/2021,15:51:01.050,$GPGGA,155101,3241.7845,N,11709.4726,W,1,11,1.5,17,M,,M,,*60
06/13/2021,15:51:02.150,$GPGGA,155102,3241.7845,N,11709.4725,W,1,11,1.5,17,M,,M,,*60
06/13/2021,15:51:03.050,$GPGGA,155103,3241.7845,N,11709.4725,W,1,11,1.5,17,M,,M,,*61
06/13/2021,15:51:04.151,$GPGGA,155104,3241.7845,N,11709.4725,W,1,11,1.5,17,M,,M,,*66
06/13/2021,15:51:05.051,$GPGGA,155105,3241.7845,N,11709.4724,W,1,11,1.5,17,M,,M,,*66
06/13/2021,15:51:06.150,$GPGGA,155106,3241.7845,N,11709.4725,W,1,10,1.5,17,M,,M,,*65
06/13/2021,15:51:07.051,$GPGGA,155107,3241.7845,N,11709.4725,W,1,10,1.5,17,M,,M,,*64
06/13/2021,15:51:08.150,$GPGGA,155108,3241.7845,N,11709.4724,W,1,10,1.5,17,M,,M,,*6A
06/13/2021,15:51:09.050,$GPGGA,155109,3241.7845,N,11709.4725,W,1,10,1.5,16,M,,M,,*6B
06/13/2021,15:51:10.151,$GPGGA,155110,3241.7843,N,11709.4725,W,1,11,1.5,16,M,,M,,*64
06/13/2021,15:51:11.051,$GPGGA,155111,3241.7842,N,11709.4727,W,1,11,1.5,16,M,,M,,*66
06/13/2021,15:51:12.150,$GPGGA,155112,3241.7841,N,11709.4729,W,1,11,1.5,16,M,,M,,*68
06/13/2021,15:51:13.051,$GPGGA,155113,3241.7841,N,11709.4729,W,1,11,1.5,16,M,,M,,*69
06/13/2021,15:51:14.151,$GPGGA,155114,3241.7840,N,11709.4729,W,1,11,1.5,16,M,,M,,*6F
06/13/2021,15:51:15.051,$GPGGA,155115,3241.7841,N,11709.4728,W,1,11,1.5,16,M,,M,,*6E
06/13/2021,15:51:16.150,$GPGGA,155116,3241.7840,N,11709.4729,W,1,11,1.5,16,M,,M,,*6D
06/13/2021,15:51:17.051,$GPGGA,155117,3241.7841,N,11709.4727,W,1,11,1.5,16,M,,M,,*63
06/13/2021,15:51:18.151,$GPGGA,155118,3241.7841,N,11709.4726,W,1,11,1.5,16,M,,M,,*6D
06/13/2021,15:51:19.051,$GPGGA,155119,3241.7841,N,11709.4725,W,1,11,1.5,16,M,,M,,*6F
06/13/2021,15:51:20.151,$GPGGA,155120,3241.7841,N,11709.4725,W,1,11,1.5,16,M,,M,,*65
06/13/2021,15:51:21.051,$GPGGA,155121,3241.7841,N,11709.4724,W,1,11,1.5,16,M,,M,,*65
06/13/2021,15:51:22.151,$GPGGA,155122,3241.7842,N,11709.4723,W,1,11,1.5,16,M,,M,,*62
06/13/2021,15:51:23.051,$GPGGA,155123,3241.7842,N,11709.4723,W,1,11,1.5,16,M,,M,,*63
06/13/2021,15:51:24.151,$GPGGA,155124,3241.7842,N,11709.4722,W,1,11,1.5,16,M,,M,,*65
06/13/2021,15:51:25.051,$GPGGA,155125,3241.7842,N,11709.4722,W,1,11,1.5,16,M,,M,,*64
06/13/2021,15:51:26.152,$GPGGA,155126,3241.7842,N,11709.4722,W,1,11,1.5,16,M,,M,,*67
06/13/2021,15:51:27.052,$GPGGA,155127,3241.7842,N,11709.4721,W,1,11,1.5,16,M,,M,,*65
06/13/2021,15:51:28.152,$GPGGA,155128,3241.7842,N,11709.4722,W,1,11,1.5,16,M,,M,,*69
06/13/2021,15:51:29.051,$GPGGA,155129,3241.7842,N,11709.4720,W,1,11,1.5,16,M,,M,,*6A
06/13/2021,15:51:30.152,$GPGGA,155130,3241.7842,N,11709.4720,W,1,11,1.5,16,M,,M,,*62
06/13/2021,15:51:31.051,$GPGGA,155131,3241.7844,N,11709.4719,W,1,11,1.5,16,M,,M,,*6F
06/13/2021,15:51:32.152,$GPGGA,155132,3241.7843,N,11709.4718,W,1,11,1.5,16,M,,M,,*6A
06/13/2021,15:51:33.051,$GPGGA,155133,3241.7845,N,11709.4717,W,1,11,2.1,16,M,,M,,*65
06/13/2021,15:51:34.151,$GPGGA,155134,3241.7845,N,11709.4718,W,1,10,2.1,16,M,,M,,*6C
06/13/2021,15:51:35.052,$GPGGA,155135,3241.7845,N,11709.4716,W,1,10,2.1,16,M,,M,,*63
06/13/2021,15:51:36.152,$GPGGA,155136,3241.7847,N,11709.4715,W,1,10,2.1,16,M,,M,,*61
06/13/2021,15:51:37.052,$GPGGA,155137,3241.7845,N,11709.4716,W,1,10,1.5,16,M,,M,,*66
06/13/2021,15:51:38.153,$GPGGA,155138,3241.7845,N,11709.4716,W,1,11,1.5,16,M,,M,,*68
06/13/2021,15:51:39.052,$GPGGA,155139,3241.7845,N,11709.4716,W,1,11,1.5,16,M,,M,,*69
06/13/2021,15:51:40.152,$GPGGA,155140,3241.7845,N,11709.4715,W,1,10,1.5,16,M,,M,,*65
06/13/2021,15:51:41.052,$GPGGA,155141,3241.7847,N,11709.4715,W,1,10,2.1,16,M,,M,,*61
06/13/2021,15:51:42.152,$GPGGA,155142,3241.7848,N,11709.4714,W,1,10,2.1,16,M,,M,,*6C
06/13/2021,15:51:43.052,$GPGGA,155143,3241.7849,N,11709.4715,W,1,10,2.1,16,M,,M,,*6D
06/13/2021,15:51:44.152,$GPGGA,155144,3241.7849,N,11709.4713,W,1,10,2.1,16,M,,M,,*6C
06/13/2021,15:51:45.053,$GPGGA,155145,3241.7851,N,11709.4712,W,1,10,2.1,16,M,,M,,*65
06/13/2021,15:51:46.153,$GPGGA,155146,3241.7852,N,11709.4712,W,1,10,2.1,16,M,,M,,*65
06/13/2021,15:51:47.052,$GPGGA,155147,3241.7851,N,11709.4712,W,1,10,2.1,16,M,,M,,*67
06/13/2021,15:51:48.153,$GPGGA,155148,3241.7852,N,11709.4711,W,1,10,2.1,16,M,,M,,*68
06/13/2021,15:51:49.053,$GPGGA,155149,3241.7854,N,11709.4711,W,1,10,2.1,15,M,,M,,*6C
06/13/2021,15:51:50.153,$GPGGA,155150,3241.7855,N,11709.4711,W,1,10,2.1,15,M,,M,,*65
06/13/2021,15:51:51.053,$GPGGA,155151,3241.7853,N,11709.4712,W,1,10,1.5,15,M,,M,,*66
06/13/2021,15:51:52.153,$GPGGA,155152,3241.7855,N,11709.4712,W,1,11,1.5,15,M,,M,,*62
06/13/2021,15:51:53.052,$GPGGA,155153,3241.7856,N,11709.4712,W,1,11,2.1,15,M,,M,,*67
06/13/2021,15:51:54.153,$GPGGA,155154,3241.7854,N,11709.4714,W,1,11,2.1,15,M,,M,,*64
06/13/2021,15:51:55.053,$GPGGA,155155,3241.7855,N,11709.4713,W,1,11,1.5,15,M,,M,,*64
06/13/2021,15:51:56.153,$GPGGA,155156,3241.7853,N,11709.4715,W,1,11,1.5,15,M,,M,,*67
06/13/2021,15:51:57.053,$GPGGA,155157,3241.7854,N,11709.4715,W,1,11,1.5,15,M,,M,,*61
06/13/2021,15:51:58.153,$GPGGA,155158,3241.7853,N,11709.4715,W,1,11,1.5,15,M,,M,,*69
06/13/2021,15:51:59.053,$GPGGA,155159,3241.7856,N,11709.4715,W,1,11,2.1,16,M,,M,,*69
06/13/2021,15:52:00.153,$GPGGA,155200,3241.7856,N,11709.4714,W,1,10,2.1,16,M,,M,,*66
06/13/2021,15:52:01.053,$GPGGA,155201,3241.7858,N,11709.4713,W,1,10,2.1,16,M,,M,,*6E
06/13/2021,15:52:02.154,$GPGGA,155202,3241.7859,N,11709.4714,W,1,10,2.1,16,M,,M,,*6B
06/13/2021,15:52:03.053,$GPGGA,155203,3241.7860,N,11709.4712,W,1,10,2.1,16,M,,M,,*66
06/13/2021,15:52:04.154,$GPGGA,155204,3241.7862,N,11709.4712,W,1,10,2.1,16,M,,M,,*63
06/13/2021,15:52:05.054,$GPGGA,155205,3241.7860,N,11709.4714,W,1,10,1.5,16,M,,M,,*61
06/13/2021,15:52:06.153,$GPGGA,155206,3241.7862,N,11709.4713,W,1,9,1.5,16,M,,M,,*5F
06/13/2021,15:52:07.053,$GPGGA,155207,3241.7863,N,11709.4712,W,1,9,2.2,16,M,,M,,*5A
06/13/2021,15:52:08.154,$GPGGA,155208,3241.7861,N,11709.4715,W,1,10,2.2,16,M,,M,,*68
06/13/2021,15:52:09.054,$GPGGA,155209,3241.7862,N,11709.4716,W,1,10,1.6,16,M,,M,,*6E
06/13/2021,15:52:10.154,$GPGGA,155210,3241.7861,N,11709.4716,W,1,10,1.6,16,M,,M,,*65
06/13/2021,15:52:11.054,$GPGGA,155211,3241.7862,N,11709.4716,W,1,10,1.5,16,M,,M,,*64
06/13/2021,15:52:12.153,$GPGGA,155212,3241.7863,N,11709.4716,W,1,11,1.5,16,M,,M,,*67
06/13/2021,15:52:13.054,$GPGGA,155213,3241.7863,N,11709.4715,W,1,11,1.5,16,M,,M,,*65
06/13/2021,15:52:14.154,$GPGGA,155214,3241.7865,N,11709.4715,W,1,10,1.5,16,M,,M,,*65
06/13/2021,15:52:15.054,$GPGGA,155215,3241.7866,N,11709.4714,W,1,10,1.6,17,M,,M,,*64
06/13/2021,15:52:16.154,$GPGGA,155216,3241.7867,N,11709.4715,W,1,10,1.6,17,M,,M,,*67
06/13/2021,15:52:17.054,$GPGGA,155217,3241.7867,N,11709.4713,W,1,10,1.6,17,M,,M,,*60
06/13/2021,15:52:18.154,$GPGGA,155218,3241.7869,N,11709.4714,W,1,10,1.6,17,M,,M,,*66
06/13/2021,15:52:19.054,$GPGGA,155219,3241.7868,N,11709.4713,W,1,10,1.6,17,M,,M,,*61
06/13/2021,15:52:20.154,$GPGGA,155220,3241.7870,N,11709.4714,W,1,10,1.6,17,M,,M,,*65
06/13/2021,15:52:21.054,$GPGGA,155221,3241.7870,N,11709.4712,W,1,10,1.6,17,M,,M,,*62
06/13/2021,15:52:22.154,$GPGGA,155222,3241.7870,N,11709.4712,W,1,10,1.6,17,M,,M,,*61
06/13/2021,15:52:23.055,$GPGGA,155223,3241.7872,N,11709.4712,W,1,10,1.6,17,M,,M,,*62
06/13/2021,15:52:24.154,$GPGGA,155224,3241.7873,N,11709.4712,W,1,10,1.6,17,M,,M,,*64
06/13/2021,15:52:25.055,$GPGGA,155225,3241.7874,N,11709.4712,W,1,10,1.6,17,M,,M,,*62
06/13/2021,15:52:26.154,$GPGGA,155226,3241.7874,N,11709.4711,W,1,11,1.6,17,M,,M,,*63
06/13/2021,15:52:27.054,$GPGGA,155227,3241.7874,N,11709.4711,W,1,11,1.5,16,M,,M,,*60
06/13/2021,15:52:28.155,$GPGGA,155228,3241.7874,N,11709.4711,W,1,11,1.5,16,M,,M,,*6F
06/13/2021,15:52:29.054,$GPGGA,155229,3241.7874,N,11709.4711,W,1,11,1.5,16,M,,M,,*6E
06/13/2021,15:52:30.154,$GPGGA,155230,3241.7874,N,11709.4711,W,1,11,1.5,16,M,,M,,*66
06/13/2021,15:52:31.055,$GPGGA,155231,3241.7876,N,11709.4711,W,1,11,1.5,16,M,,M,,*65
06/13/2021,15:52:32.155,$GPGGA,155232,3241.7877,N,11709.4710,W,1,10,1.5,16,M,,M,,*67
06/13/2021,15:52:33.055,$GPGGA,155233,3241.7876,N,11709.4711,W,1,10,1.6,16,M,,M,,*65
06/13/2021,15:52:34.155,$GPGGA,155234,3241.7878,N,11709.4709,W,1,10,1.6,16,M,,M,,*65
06/13/2021,15:52:35.055,$GPGGA,155235,3241.7878,N,11709.4709,W,1,10,1.6,16,M,,M,,*64
06/13/2021,15:52:36.155,$GPGGA,155236,3241.7880,N,11709.4709,W,1,11,1.6,16,M,,M,,*61
06/13/2021,15:52:37.055,$GPGGA,155237,3241.7879,N,11709.4709,W,1,11,1.5,16,M,,M,,*65
06/13/2021,15:52:38.155,$GPGGA,155238,3241.7880,N,11709.4709,W,1,11,1.5,16,M,,M,,*6C
06/13/2021,15:52:39.056,$GPGGA,155239,3241.7881,N,11709.4709,W,1,11,1.5,16,M,,M,,*6C
06/13/2021,15:52:40.155,$GPGGA,155240,3241.7880,N,11709.4708,W,1,11,1.5,16,M,,M,,*62
06/13/2021,15:52:41.055,$GPGGA,155241,3241.7881,N,11709.4708,W,1,11,1.5,16,M,,M,,*62
06/13/2021,15:52:42.155,$GPGGA,155242,3241.7881,N,11709.4708,W,1,11,1.5,16,M,,M,,*61
06/13/2021,15:52:43.055,$GPGGA,155243,3241.7883,N,11709.4707,W,1,11,1.5,16,M,,M,,*6D
06/13/2021,15:52:44.156,$GPGGA,155244,3241.7882,N,11709.4707,W,1,11,1.5,16,M,,M,,*6B
06/13/2021,15:52:45.056,$GPGGA,155245,3241.7884,N,11709.4707,W,1,11,1.5,16,M,,M,,*6C
06/13/2021,15:52:46.156,$GPGGA,155246,3241.7883,N,11709.4707,W,1,11,1.5,16,M,,M,,*68
06/13/2021,15:52:47.056,$GPGGA,155247,3241.7885,N,11709.4706,W,1,11,1.5,16,M,,M,,*6E
06/13/2021,15:52:48.156,$GPGGA,155248,3241.7885,N,11709.4707,W,1,10,1.5,16,M,,M,,*61
06/13/2021,15:52:49.056,$GPGGA,155249,3241.7887,N,11709.4705,W,1,10,1.5,16,M,,M,,*60
06/13/2021,15:52:50.155,$GPGGA,155250,3241.7888,N,11709.4704,W,1,10,1.5,16,M,,M,,*66
06/13/2021,15:52:51.056,$GPGGA,155251,3241.7888,N,11709.4704,W,1,10,1.5,16,M,,M,,*67
06/13/2021,15:52:52.156,$GPGGA,155252,3241.7889,N,11709.4702,W,1,11,1.5,16,M,,M,,*62
06/13/2021,15:52:53.056,$GPGGA,155253,3241.7891,N,11709.4702,W,1,11,1.5,16,M,,M,,*6A
06/13/2021,15:52:54.156,$GPGGA,155254,3241.7890,N,11709.4701,W,1,10,1.5,16,M,,M,,*6E
06/13/2021,15:52:55.056,$GPGGA,155255,3241.7892,N,11709.4701,W,1,10,1.6,16,M,,M,,*6E
06/13/2021,15:52:56.146,$GPGGA,155256,3241.7892,N,11709.4700,W,1,9,1.6,16,M,,M,,*54
06/13/2021,15:52:57.046,$GPGGA,155257,3241.7892,N,11709.4700,W,1,9,1.6,16,M,,M,,*55
06/13/2021,15:52:58.156,$GPGGA,155258,3241.7894,N,11709.4700,W,1,10,1.6,16,M,,M,,*64
06/13/2021,15:52:59.056,$GPGGA,155259,3241.7893,N,11709.4699,W,1,10,1.6,16,M,,M,,*63
06/13/2021,15:53:00.156,$GPGGA,155300,3241.7895,N,11709.4700,W,1,10,1.6,16,M,,M,,*69
06/13/2021,15:53:01.057,$GPGGA,155301,3241.7894,N,11709.4698,W,1,10,1.6,16,M,,M,,*69
06/13/2021,15:53:02.156,$GPGGA,155302,3241.7896,N,11709.4697,W,1,10,1.6,16,M,,M,,*67
06/13/2021,15:53:03.056,$GPGGA,155303,3241.7896,N,11709.4696,W,1,10,1.7,16,M,,M,,*66
06/13/2021,15:53:04.156,$GPGGA,155304,3241.7898,N,11709.4695,W,1,10,1.7,16,M,,M,,*6C
06/13/2021,15:53:05.056,$GPGGA,155305,3241.7899,N,11709.4694,W,1,10,1.6,16,M,,M,,*6C
06/13/2021,15:53:06.156,$GPGGA,155306,3241.7898,N,11709.4693,W,1,10,1.6,16,M,,M,,*69
06/13/2021,15:53:07.057,$GPGGA,155307,3241.7899,N,11709.4692,W,1,10,1.7,16,M,,M,,*69
06/13/2021,15:53:08.157,$GPGGA,155308,3241.7899,N,11709.4691,W,1,10,1.7,16,M,,M,,*65
06/13/2021,15:53:09.056,$GPGGA,155309,3241.7899,N,11709.4690,W,1,10,1.7,16,M,,M,,*65
06/13/2021,15:53:10.156,$GPGGA,155310,3241.7899,N,11709.4689,W,1,10,1.7,16,M,,M,,*65
06/13/2021,15:53:11.057,$GPGGA,155311,3241.7899,N,11709.4689,W,1,10,1.6,16,M,,M,,*65
06/13/2021,15:53:12.147,$GPGGA,155312,3241.7901,N,11709.4688,W,1,9,1.6,16,M,,M,,*5F
06/13/2021,15:53:13.047,$GPGGA,155313,3241.7900,N,11709.4687,W,1,9,1.6,16,M,,M,,*50
06/13/2021,15:53:14.157,$GPGGA,155314,3241.7901,N,11709.4686,W,1,10,1.6,16,M,,M,,*6F
06/13/2021,15:53:15.057,$GPGGA,155315,3241.7900,N,11709.4686,W,1,10,1.6,16,M,,M,,*6F
06/13/2021,15:53:16.157,$GPGGA,155316,3241.7901,N,11709.4685,W,1,10,1.6,16,M,,M,,*6E
06/13/2021,15:53:17.057,$GPGGA,155317,3241.7900,N,11709.4684,W,1,10,1.6,16,M,,M,,*6F
06/13/2021,15:53:18.148,$GPGGA,155318,3241.7902,N,11709.4682,W,1,9,1.6,16,M,,M,,*5C
06/13/2021,15:53:19.047,$GPGGA,155319,3241.7900,N,11709.4682,W,1,9,1.6,17,M,,M,,*5E
06/13/2021,15:53:20.148,$GPGGA,155320,3241.7901,N,11709.4681,W,1,9,1.6,17,M,,M,,*56
06/13/2021,15:53:21.048,$GPGGA,155321,3241.7900,N,11709.4680,W,1,9,1.6,17,M,,M,,*57
06/13/2021,15:53:22.157,$GPGGA,155322,3241.7901,N,11709.4679,W,1,10,1.6,17,M,,M,,*6B
06/13/2021,15:53:23.058,$GPGGA,155323,3241.7900,N,11709.4678,W,1,10,1.6,16,M,,M,,*6B
06/13/2021,15:53:24.157,$GPGGA,155324,3241.7901,N,11709.4678,W,1,10,1.6,16,M,,M,,*6D
06/13/2021,15:53:25.057,$GPGGA,155325,3241.7899,N,11709.4677,W,1,10,1.6,16,M,,M,,*63
06/13/2021,15:53:26.148,$GPGGA,155326,3241.7899,N,11709.4675,W,1,9,1.6,16,M,,M,,*5A
06/13/2021,15:53:27.047,$GPGGA,155327,3241.7897,N,11709.4676,W,1,9,1.6,16,M,,M,,*56
06/13/2021,15:53:28.158,$GPGGA,155328,3241.7898,N,11709.4675,W,1,10,1.6,16,M,,M,,*6D
06/13/2021,15:53:29.057,$GPGGA,155329,3241.7897,N,11709.4674,W,1,10,1.5,16,M,,M,,*61
06/13/2021,15:53:30.158,$GPGGA,155330,3241.7896,N,11709.4673,W,1,10,1.5,16,M,,M,,*6F
06/13/2021,15:53:31.058,$GPGGA,155331,3241.7896,N,11709.4672,W,1,10,1.5,16,M,,M,,*6F
06/13/2021,15:53:32.158,$GPGGA,155332,3241.7896,N,11709.4671,W,1,10,1.5,16,M,,M,,*6F
06/13/2021,15:53:33.058,$GPGGA,155333,3241.7896,N,11709.4670,W,1,10,1.5,16,M,,M,,*6F
06/13/2021,15:53:34.157,$GPGGA,155334,3241.7896,N,11709.4669,W,1,10,1.5,16,M,,M,,*60
06/13/2021,15:53:35.058,$GPGGA,155335,3241.7893,N,11709.4671,W,1,10,1.5,16,M,,M,,*6D
06/13/2021,15:53:36.158,$GPGGA,155336,3241.7892,N,11709.4670,W,1,11,1.5,16,M,,M,,*6F
06/13/2021,15:53:37.058,$GPGGA,155337,3241.7894,N,11709.4668,W,1,11,1.7,16,M,,M,,*63
06/13/2021,15:53:38.158,$GPGGA,155338,3241.7892,N,11709.4668,W,1,10,1.7,16,M,,M,,*6B
06/13/2021,15:53:39.058,$GPGGA,155339,3241.7892,N,11709.4668,W,1,10,1.6,15,M,,M,,*68
06/13/2021,15:53:40.148,$GPGGA,155340,3241.7892,N,11709.4666,W,1,9,1.6,15,M,,M,,*50
06/13/2021,15:53:41.049,$GPGGA,155341,3241.7892,N,11709.4665,W,1,9,1.6,15,M,,M,,*52
06/13/2021,15:53:42.166,$GPGGA,155342,3241.7894,N,11709.4664,W,1,10,1.6,15,M,,M,,*6E
06/13/2021,15:53:43.059,$GPGGA,155343,3241.7893,N,11709.4663,W,1,10,1.6,15,M,,M,,*6F
06/13/2021,15:53:44.158,$GPGGA,155344,3241.7894,N,11709.4661,W,1,10,1.6,15,M,,M,,*6D
06/13/2021,15:53:45.059,$GPGGA,155345,3241.7893,N,11709.4661,W,1,10,1.6,15,M,,M,,*6B
06/13/2021,15:53:46.158,$GPGGA,155346,3241.7894,N,11709.4660,W,1,10,1.6,15,M,,M,,*6E
06/13/2021,15:53:47.049,$GPGGA,155347,3241.7893,N,11709.4659,W,1,10,1.6,15,M,,M,,*62
06/13/2021,15:53:48.158,$GPGGA,155348,3241.7894,N,11709.4660,W,1,10,1.6,15,M,,M,,*60
06/13/2021,15:53:49.049,$GPGGA,155349,3241.7893,N,11709.4658,W,1,10,1.5,15,M,,M,,*6E
06/13/2021,15:53:50.159,$GPGGA,155350,3241.7894,N,11709.4658,W,1,11,1.5,15,M,,M,,*60
06/13/2021,15:53:51.059,$GPGGA,155351,3241.7893,N,11709.4657,W,1,11,1.5,15,M,,M,,*69
06/13/2021,15:53:52.159,$GPGGA,155352,3241.7894,N,11709.4656,W,1,11,1.5,15,M,,M,,*6C
06/13/2021,15:53:53.059,$GPGGA,155353,3241.7893,N,11709.4655,W,1,11,1.5,15,M,,M,,*69
06/13/2021,15:53:54.159,$GPGGA,155354,3241.7894,N,11709.4655,W,1,11,1.5,15,M,,M,,*69
06/13/2021,15:53:55.050,$GPGGA,155355,3241.7893,N,11709.4654,W,1,11,1.5,14,M,,M,,*6F
