06/13/2021,17:01:06.122,$GPGGA,170106,3241.8233,N,11709.3683,W,1,9,1.8,20,M,,M,,*5D
06/13/2021,17:01:07.021,$GPGGA,170107,3241.8234,N,11709.3683,W,1,9,1.8,20,M,,M,,*5B
06/13/2021,17:01:08.121,$GPGGA,170108,3241.8233,N,11709.3683,W,1,9,1.8,20,M,,M,,*53
06/13/2021,17:01:09.021,$GPGGA,170109,3241.8234,N,11709.3685,W,1,9,1.8,20,M,,M,,*53
06/13/2021,17:01:10.121,$GPGGA,170110,3241.8233,N,11709.3684,W,1,9,1.8,20,M,,M,,*5D
06/13/2021,17:01:11.021,$GPGGA,170111,3241.8234,N,11709.3685,W,1,9,1.8,20,M,,M,,*5A
06/13/2021,17:01:12.121,$GPGGA,170112,3241.8233,N,11709.3684,W,1,9,1.8,20,M,,M,,*5F
06/13/2021,17:01:13.022,$GPGGA,170113,3241.8234,N,11709.3685,W,1,9,1.8,20,M,,M,,*58
06/13/2021,17:01:14.122,$GPGGA,170114,3241.8233,N,11709.3684,W,1,10,1.8,20,M,,M,,*61
06/13/2021,17:01:15.022,$GPGGA,170115,3241.8234,N,11709.3685,W,1,10,1.7,20,M,,M,,*69
06/13/2021,17:01:16.122,$GPGGA,170116,3241.8233,N,11709.3684,W,1,10,1.7,20,M,,M,,*6C
06/13/2021,17:01:17.021,$GPGGA,170117,3241.8234,N,11709.3683,W,1,10,1.7,20,M,,M,,*6D
06/13/2021,17:01:18.122,$GPGGA,170118,3241.8235,N,11709.3683,W,1,10,1.7,20,M,,M,,*63
06/13/2021,17:01:19.022,$GPGGA,170119,3241.8234,N,11709.3683,W,1,10,1.7,21,M,,M,,*62
06/13/2021,17:01:20.122,$GPGGA,170120,3241.8235,N,11709.3683,W,1,10,1.7,21,M,,M,,*69
06/13/2021,17:01:21.022,$GPGGA,170121,3241.8234,N,11709.3683,W,1,10,1.7,21,M,,M,,*69
06/13/2021,17:01:22.122,$GPGGA,170122,3241.8235,N,11709.3682,W,1,10,1.7,21,M,,M,,*6A
06/13/2021,17:01:23.022,$GPGGA,170123,3241.8235,N,11709.3683,W,1,10,1.7,21,M,,M,,*6A
06/13/2021,17:01:24.123,$GPGGA,170124,3241.8235,N,11709.3683,W,1,10,1.7,21,M,,M,,*6D
06/13/2021,17:01:25.023,$GPGGA,170125,3241.8235,N,11709.3683,W,1,10,1.7,21,M,,M,,*6C
06/13/2021,17:01:26.122,$GPGGA,170126,3241.8235,N,11709.3682,W,1,10,1.7,21,M,,M,,*6E
06/13/2021,17:01:27.022,$GPGGA,170127,3241.8235,N,11709.3683,W,1,10,1.7,21,M,,M,,*6E
06/13/2021,17:01:28.122,$GPGGA,170128,3241.8235,N,11709.3683,W,1,10,1.7,21,M,,M,,*61
06/13/2021,17:01:29.023,$GPGGA,170129,3241.8235,N,11709.3682,W,1,10,1.7,22,M,,M,,*62
06/13/2021,17:01:30.123,$GPGGA,170130,3241.8235,N,11709.3682,W,1,10,1.7,22,M,,M,,*6A
06/13/2021,17:01:31.023,$GPGGA,170131,3241.8237,N,11709.3682,W,1,10,1.7,22,M,,M,,*69
06/13/2021,17:01:32.122,$GPGGA,170132,3241.8236,N,11709.3683,W,1,10,1.7,22,M,,M,,*6A
06/13/2021,17:01:33.023,$GPGGA,170133,3241.8237,N,11709.3682,W,1,10,1.7,22,M,,M,,*6B
06/13/2021,17:01:34.123,$GPGGA,170134,3241.8236,N,11709.3682,W,1,10,1.7,22,M,,M,,*6D
06/13/2021,17:01:35.023,$GPGGA,170135,3241.8237,N,11709.3682,W,1,10,1.7,22,M,,M,,*6D
06/13/2021,17:01:36.123,$GPGGA,170136,3241.8236,N,11709.3683,W,1,10,1.7,22,M,,M,,*6E
06/13/2021,17:01:37.023,$GPGGA,170137,3241.8237,N,11709.3682,W,1,10,1.7,22,M,,M,,*6F
06/13/2021,17:01:38.123,$GPGGA,170138,3241.8236,N,11709.3682,W,1,10,1.7,22,M,,M,,*61
06/13/2021,17:01:39.023,$GPGGA,170139,3241.8237,N,11709.3682,W,1,10,1.7,22,M,,M,,*61
06/13/2021,17:01:40.123,$GPGGA,170140,3241.8238,N,11709.3682,W,1,10,1.7,22,M,,M,,*60
06/13/2021,17:01:41.024,$GPGGA,170141,3241.8237,N,11709.3682,W,1,10,1.7,22,M,,M,,*6E
06/13/2021,17:01:42.123,$GPGGA,170142,3241.8238,N,11709.3682,W,1,10,1.7,22,M,,M,,*62
06/13/2021,17:01:43.023,$GPGGA,170143,3241.8237,N,11709.3682,W,1,10,1.7,22,M,,M,,*6C
06/13/2021,17:01:44.123,$GPGGA,170144,3241.8238,N,11709.3682,W,1,10,1.7,22,M,,M,,*64
06/13/2021,17:01:45.021,$GPGGA,170145,3241.8237,N,11709.3682,W,1,10,1.7,22,M,,M,,*6A
06/13/2021,17:01:46.123,$GPGGA,170146,3241.8238,N,11709.3682,W,1,10,1.7,22,M,,M,,*66
06/13/2021,17:01:47.023,$GPGGA,170147,3241.8237,N,11709.3683,W,1,10,1.7,22,M,,M,,*69
06/13/2021,17:01:48.124,$GPGGA,170148,3241.8238,N,11709.3683,W,1,10,1.7,22,M,,M,,*69
06/13/2021,17:01:49.023,$GPGGA,170149,3241.8237,N,11709.3683,W,1,10,1.7,22,M,,M,,*67
06/13/2021,17:01:50.124,$GPGGA,170150,3241.8238,N,11709.3683,W,1,10,1.7,22,M,,M,,*60
06/13/2021,17:01:51.024,$GPGGA,170151,3241.8237,N,11709.3683,W,1,10,1.7,22,M,,M,,*6E
06/13/2021,17:01:52.124,$GPGGA,170152,3241.8238,N,11709.3683,W,1,10,1.7,22,M,,M,,*62
06/13/2021,17:01:53.024,$GPGGA,170153,3241.8237,N,11709.3683,W,1,10,1.7,22,M,,M,,*6C
06/13/2021,17:01:54.124,$GPGGA,170154,3241.8238,N,11709.3683,W,1,10,1.7,22,M,,M,,*64
06/13/2021,17:01:55.024,$GPGGA,170155,3241.8237,N,11709.3683,W,1,10,1.7,22,M,,M,,*6A
06/13/2021,17:01:56.124,$GPGGA,170156,3241.8238,N,11709.3682,W,1,10,1.7,22,M,,M,,*67
06/13/2021,17:01:57.023,$GPGGA,170157,3241.8237,N,11709.3682,W,1,10,1.7,22,M,,M,,*69
06/13/2021,17:01:58.124,$GPGGA,170158,3241.8238,N,11709.3682,W,1,10,1.7,22,M,,M,,*69
06/13/2021,17:01:59.024,$GPGGA,170159,3241.8237,N,11709.3682,W,1,10,1.7,22,M,,M,,*67
06/13/2021,17:02:00.124,$GPGGA,170200,3241.8238,N,11709.3682,W,1,10,1.7,22,M,,M,,*67
06/13/2021,17:02:01.024,$GPGGA,170201,3241.8237,N,11709.3682,W,1,10,1.7,22,M,,M,,*69
06/13/2021,17:02:02.124,$GPGGA,170202,3241.8238,N,11709.3682,W,1,10,1.7,22,M,,M,,*65
06/13/2021,17:02:03.024,$GPGGA,170203,3241.8237,N,11709.3682,W,1,10,1.7,22,M,,M,,*6B
06/13/2021,17:02:04.124,$GPGGA,170204,3241.8238,N,11709.3682,W,1,10,1.7,22,M,,M,,*63
06/13/2021,17:02:05.024,$GPGGA,170205,3241.8237,N,11709.3682,W,1,10,1.7,22,M,,M,,*6D
06/13/2021,17:02:06.124,$GPGGA,170206,3241.8238,N,11709.3682,W,1,10,1.7,22,M,,M,,*61
06/13/2021,17:02:07.025,$GPGGA,170207,3241.8237,N,11709.3682,W,1,10,1.7,22,M,,M,,*6F
06/13/2021,17:02:08.124,$GPGGA,170208,3241.8238,N,11709.3682,W,1,10,1.7,22,M,,M,,*6F
06/13/2021,17:02:09.024,$GPGGA,170209,3241.8239,N,11709.3682,W,1,10,1.7,22,M,,M,,*6F
06/13/2021,17:02:10.124,$GPGGA,170210,3241.8239,N,11709.3682,W,1,10,1.7,22,M,,M,,*67
06/13/2021,17:02:11.025,$GPGGA,170211,3241.8239,N,11709.3683,W,1,10,1.7,22,M,,M,,*67
06/13/2021,17:02:12.124,$GPGGA,170212,3241.8239,N,11709.3683,W,1,10,1.7,22,M,,M,,*64
06/13/2021,17:02:13.025,$GPGGA,170213,3241.8237,N,11709.3683,W,1,10,1.7,22,M,,M,,*6B
06/13/2021,17:02:14.125,$GPGGA,170214,3241.8239,N,11709.3683,W,1,10,1.7,22,M,,M,,*62
06/13/2021,17:02:15.024,$GPGGA,170215,3241.8237,N,11709.3683,W,1,10,1.7,22,M,,M,,*6D
06/13/2021,17:02:16.125,$GPGGA,170216,3241.8238,N,11709.3683,W,1,10,1.7,22,M,,M,,*61
06/13/2021,17:02:17.025,$GPGGA,170217,3241.8237,N,11709.3683,W,1,10,1.7,21,M,,M,,*6C
06/13/2021,17:02:18.125,$GPGGA,170218,3241.8239,N,11709.3683,W,1,10,1.7,21,M,,M,,*6D
06/13/2021,17:02:19.025,$GPGGA,170219,3241.8239,N,11709.3683,W,1,10,1.7,21,M,,M,,*6C
06/13/2021,17:02:20.125,$GPGGA,170220,3241.8237,N,11709.3683,W,1,10,1.7,21,M,,M,,*68
06/13/2021,17:02:21.025,$GPGGA,170221,3241.8239,N,11709.3683,W,1,10,1.7,21,M,,M,,*67
06/13/2021,17:02:22.126,$GPGGA,170222,3241.8237,N,11709.3683,W,1,10,1.7,21,M,,M,,*6A
06/13/2021,17:02:23.025,$GPGGA,170223,3241.8239,N,11709.3683,W,1,10,1.7,21,M,,M,,*65
06/13/2021,17:02:24.125,$GPGGA,170224,3241.8239,N,11709.3683,W,1,10,1.7,21,M,,M,,*62
06/13/2021,17:02:25.025,$GPGGA,170225,3241.8239,N,11709.3683,W,1,10,1.7,21,M,,M,,*63
06/13/2021,17:02:26.126,$GPGGA,170226,3241.8239,N,11709.3685,W,1,10,1.7,21,M,,M,,*66
06/13/2021,17:02:27.025,$GPGGA,170227,3241.8239,N,11709.3684,W,1,10,1.8,21,M,,M,,*69
06/13/2021,17:02:28.125,$GPGGA,170228,3241.8239,N,11709.3685,W,1,10,1.8,21,M,,M,,*67
06/13/2021,17:02:29.026,$GPGGA,170229,3241.8239,N,11709.3684,W,1,10,1.7,22,M,,M,,*6B
06/13/2021,17:02:30.126,$GPGGA,170230,3241.8239,N,11709.3683,W,1,10,1.7,22,M,,M,,*64
06/13/2021,17:02:31.025,$GPGGA,170231,3241.8239,N,11709.3685,W,1,10,1.8,22,M,,M,,*6C
06/13/2021,17:02:32.126,$GPGGA,170232,3241.8239,N,11709.3683,W,1,9,1.8,22,M,,M,,*51
06/13/2021,17:02:33.026,$GPGGA,170233,3241.8239,N,11709.3683,W,1,9,1.8,22,M,,M,,*50
06/13/2021,17:02:34.126,$GPGGA,170234,3241.8239,N,11709.3685,W,1,9,1.8,22,M,,M,,*51
06/13/2021,17:02:35.026,$GPGGA,170235,3241.8239,N,11709.3684,W,1,9,1.8,22,M,,M,,*51
06/13/2021,17:02:36.126,$GPGGA,170236,3241.8237,N,11709.3685,W,1,9,1.8,22,M,,M,,*5D
06/13/2021,17:02:37.026,$GPGGA,170237,3241.8238,N,11709.3684,W,1,9,1.8,22,M,,M,,*52
06/13/2021,17:02:38.126,$GPGGA,170238,3241.8237,N,11709.3685,W,1,9,1.8,22,M,,M,,*53
06/13/2021,17:02:39.026,$GPGGA,170239,3241.8238,N,11709.3684,W,1,9,1.8,22,M,,M,,*5C
06/13/2021,17:02:40.126,$GPGGA,170240,3241.8237,N,11709.3685,W,1,8,1.8,22,M,,M,,*5D
06/13/2021,17:02:41.026,$GPGGA,170241,3241.8239,N,11709.3684,W,1,8,1.8,22,M,,M,,*53
06/13/2021,17:02:42.126,$GPGGA,170242,3241.8239,N,11709.3685,W,1,8,1.8,22,M,,M,,*51
06/13/2021,17:02:43.026,$GPGGA,170243,3241.8241,N,11709.3683,W,1,8,1.7,22,M,,M,,*56
06/13/2021,17:02:44.126,$GPGGA,170244,3241.8240,N,11709.3683,W,1,9,1.7,22,M,,M,,*51
06/13/2021,17:02:45.026,$GPGGA,170245,3241.8241,N,11709.3683,W,1,9,1.7,22,M,,M,,*51
06/13/2021,17:02:46.126,$GPGGA,170246,3241.8240,N,11709.3683,W,1,9,1.7,22,M,,M,,*53
06/13/2021,17:02:47.031,$GPGGA,170247,3241.8241,N,11709.3683,W,1,9,1.7,22,M,,M,,*53
06/13/2021,17:02:48.126,$GPGGA,170248,3241.8240,N,11709.3683,W,1,9,1.7,22,M,,M,,*5D
06/13/2021,17:02:49.026,$GPGGA,170249,3241.8241,N,11709.3685,W,1,9,1.7,22,M,,M,,*5B
06/13/2021,17:02:50.127,$GPGGA,170250,3241.8240,N,11709.3684,W,1,9,1.7,22,M,,M,,*53
06/13/2021,17:02:51.027,$GPGGA,170251,3241.8241,N,11709.3683,W,1,9,1.7,22,M,,M,,*54
06/13/2021,17:02:52.127,$GPGGA,170252,3241.8240,N,11709.3683,W,1,9,1.7,22,M,,M,,*56
06/13/2021,17:02:53.027,$GPGGA,170253,3241.8241,N,11709.3683,W,1,9,1.7,22,M,,M,,*56
06/13/2021,17:02:54.127,$GPGGA,170254,3241.8240,N,11709.3683,W,1,9,1.7,22,M,,M,,*50
06/13/2021,17:02:55.027,$GPGGA,170255,3241.8241,N,11709.3683,W,1,9,1.7,22,M,,M,,*50
06/13/2021,17:02:56.127,$GPGGA,170256,3241.8240,N,11709.3683,W,1,9,1.7,22,M,,M,,*52
06/13/2021,17:02:57.027,$GPGGA,170257,3241.8241,N,11709.3685,W,1,9,1.7,22,M,,M,,*54
06/13/2021,17:02:58.127,$GPGGA,170258,3241.8240,N,11709.3684,W,1,9,1.7,22,M,,M,,*5B
06/13/2021,17:02:59.028,$GPGGA,170259,3241.8241,N,11709.3683,W,1,9,1.7,22,M,,M,,*5C
06/13/2021,17:03:00.127,$GPGGA,170300,3241.8240,N,11709.3685,W,1,9,1.7,22,M,,M,,*56
06/13/2021,17:03:01.027,$GPGGA,170301,3241.8241,N,11709.3683,W,1,9,1.7,22,M,,M,,*50
06/13/2021,17:03:02.127,$GPGGA,170302,3241.8239,N,11709.3683,W,1,9,1.7,22,M,,M,,*5C
06/13/2021,17:03:03.027,$GPGGA,170303,3241.8239,N,11709.3683,W,1,9,1.7,22,M,,M,,*5D
06/13/2021,17:03:04.127,$GPGGA,170304,3241.8239,N,11709.3683,W,1,10,1.7,22,M,,M,,*62
06/13/2021,17:03:05.028,$GPGGA,170305,3241.8239,N,11709.3683,W,1,10,1.7,22,M,,M,,*63
06/13/2021,17:03:06.127,$GPGGA,170306,3241.8239,N,11709.3683,W,1,10,1.7,22,M,,M,,*60
06/13/2021,17:03:07.028,$GPGGA,170307,3241.8237,N,11709.3683,W,1,10,1.7,22,M,,M,,*6F
06/13/2021,17:03:08.128,$GPGGA,170308,3241.8238,N,11709.3683,W,1,10,1.7,22,M,,M,,*6F
06/13/2021,17:03:09.027,$GPGGA,170309,3241.8236,N,11709.3683,W,1,10,1.7,22,M,,M,,*60
06/13/2021,17:03:10.127,$GPGGA,170310,3241.8237,N,11709.3683,W,1,10,1.7,22,M,,M,,*69
06/13/2021,17:03:11.028,$GPGGA,170311,3241.8236,N,11709.3683,W,1,10,1.7,22,M,,M,,*69
06/13/2021,17:03:12.128,$GPGGA,170312,3241.8235,N,11709.3683,W,1,10,1.7,22,M,,M,,*69
06/13/2021,17:03:13.028,$GPGGA,170313,3241.8235,N,11709.3683,W,1,10,1.7,22,M,,M,,*68
06/13/2021,17:03:14.128,$GPGGA,170314,3241.8235,N,11709.3683,W,1,10,1.7,22,M,,M,,*6F
06/13/2021,17:03:15.028,$GPGGA,170315,3241.8235,N,11709.3683,W,1,10,1.7,22,M,,M,,*6E
06/13/2021,17:03:16.128,$GPGGA,170316,3241.8235,N,11709.3683,W,1,10,1.7,22,M,,M,,*6D
06/13/2021,17:03:17.028,$GPGGA,170317,3241.8235,N,11709.3683,W,1,10,1.7,22,M,,M,,*6C
06/13/2021,17:03:18.129,$GPGGA,170318,3241.8234,N,11709.3683,W,1,10,1.7,22,M,,M,,*62
06/13/2021,17:03:19.028,$GPGGA,170319,3241.8235,N,11709.3683,W,1,10,1.7,22,M,,M,,*62
06/13/2021,17:03:20.128,$GPGGA,170320,3241.8234,N,11709.3683,W,1,10,1.7,22,M,,M,,*69
06/13/2021,17:03:21.029,$GPGGA,170321,3241.8235,N,11709.3683,W,1,10,1.6,21,M,,M,,*6B
06/13/2021,17:03:22.129,$GPGGA,170322,3241.8234,N,11709.3683,W,1,10,1.6,21,M,,M,,*69
06/13/2021,17:03:23.028,$GPGGA,170323,3241.8235,N,11709.3683,W,1,10,1.6,21,M,,M,,*69
06/13/2021,17:03:24.123,$GPGGA,170324,3241.8233,N,11709.3683,W,1,10,1.6,21,M,,M,,*68
06/13/2021,17:03:25.028,$GPGGA,170325,3241.8235,N,11709.3683,W,1,10,1.6,21,M,,M,,*6F
06/13/2021,17:03:26.129,$GPGGA,170326,3241.8234,N,11709.3682,W,1,10,1.6,21,M,,M,,*6C
06/13/2021,17:03:27.029,$GPGGA,170327,3241.8235,N,11709.3682,W,1,10,1.6,21,M,,M,,*6C
06/13/2021,17:03:28.129,$GPGGA,170328,3241.8234,N,11709.3682,W,1,10,1.6,21,M,,M,,*62
06/13/2021,17:03:29.029,$GPGGA,170329,3241.8235,N,11709.3683,W,1,10,1.6,21,M,,M,,*63
06/13/2021,17:03:30.129,$GPGGA,170330,3241.8234,N,11709.3682,W,1,10,1.6,21,M,,M,,*6B
06/13/2021,17:03:31.029,$GPGGA,170331,3241.8235,N,11709.3682,W,1,10,1.6,21,M,,M,,*6B
06/13/2021,17:03:32.128,$GPGGA,170332,3241.8234,N,11709.3682,W,1,10,1.6,21,M,,M,,*69
06/13/2021,17:03:33.029,$GPGGA,170333,3241.8235,N,11709.3682,W,1,10,1.6,21,M,,M,,*69
06/13/2021,17:03:34.129,$GPGGA,170334,3241.8234,N,11709.3682,W,1,10,1.6,21,M,,M,,*6F
06/13/2021,17:03:35.028,$GPGGA,170335,3241.8235,N,11709.3682,W,1,10,1.6,21,M,,M,,*6F
06/13/2021,17:03:36.129,$GPGGA,170336,3241.8235,N,11709.3682,W,1,10,1.6,21,M,,M,,*6C
06/13/2021,17:03:37.029,$GPGGA,170337,3241.8235,N,11709.3682,W,1,10,1.6,21,M,,M,,*6D
06/13/2021,17:03:38.129,$GPGGA,170338,3241.8235,N,11709.3682,W,1,10,1.6,21,M,,M,,*62
06/13/2021,17:03:39.036,$GPGGA,170339,3241.8235,N,11709.3682,W,1,10,1.6,21,M,,M,,*63
06/13/2021,17:03:40.129,$GPGGA,170340,3241.8235,N,11709.3682,W,1,10,1.6,21,M,,M,,*6D
06/13/2021,17:03:41.030,$GPGGA,170341,3241.8235,N,11709.3682,W,1,10,1.6,21,M,,M,,*6C
06/13/2021,17:03:42.129,$GPGGA,170342,3241.8235,N,11709.3682,W,1,10,1.6,21,M,,M,,*6F
06/13/2021,17:03:43.030,$GPGGA,170343,3241.8237,N,11709.3682,W,1,10,1.6,21,M,,M,,*6C
06/13/2021,17:03:44.129,$GPGGA,170344,3241.8236,N,11709.3682,W,1,10,1.6,21,M,,M,,*6A
06/13/2021,17:03:45.029,$GPGGA,170345,3241.8235,N,11709.3682,W,1,10,1.6,21,M,,M,,*68
06/13/2021,17:03:46.130,$GPGGA,170346,3241.8235,N,11709.3682,W,1,10,1.6,21,M,,M,,*6B
06/13/2021,17:03:47.029,$GPGGA,170347,3241.8235,N,11709.3682,W,1,10,1.6,21,M,,M,,*6A
06/13/2021,17:03:48.130,$GPGGA,170348,3241.8235,N,11709.3682,W,1,10,1.6,21,M,,M,,*65
06/13/2021,17:03:49.030,$GPGGA,170349,3241.8235,N,11709.3682,W,1,10,1.6,21,M,,M,,*64
06/13/2021,17:03:50.130,$GPGGA,170350,3241.8235,N,11709.3682,W,1,10,1.6,21,M,,M,,*6C
06/13/2021,17:03:51.030,$GPGGA,170351,3241.8235,N,11709.3683,W,1,10,1.6,21,M,,M,,*6C
06/13/2021,17:03:52.130,$GPGGA,170352,3241.8235,N,11709.3683,W,1,10,1.6,21,M,,M,,*6F
06/13/2021,17:03:53.030,$GPGGA,170353,3241.8234,N,11709.3683,W,1,10,1.6,21,M,,M,,*6F
06/13/2021,17:03:54.130,$GPGGA,170354,3241.8235,N,11709.3683,W,1,10,1.6,21,M,,M,,*69
06/13/2021,17:03:55.030,$GPGGA,170355,3241.8234,N,11709.3683,W,1,10,1.6,21,M,,M,,*69
06/13/2021,17:03:56.130,$GPGGA,170356,3241.8235,N,11709.3683,W,1,10,1.6,21,M,,M,,*6B
06/13/2021,17:03:57.030,$GPGGA,170357,3241.8234,N,11709.3683,W,1,10,1.6,21,M,,M,,*6B
06/13/2021,17:03:58.130,$GPGGA,170358,3241.8235,N,11709.3683,W,1,9,1.6,21,M,,M,,*5D
06/13/2021,17:03:59.030,$GPGGA,170359,3241.8234,N,11709.3683,W,1,9,1.8,21,M,,M,,*53
06/13/2021,17:04:00.130,$GPGGA,170400,3241.8235,N,11709.3683,W,1,9,1.8,21,M,,M,,*59
06/13/2021,17:04:01.030,$GPGGA,170401,3241.8234,N,11709.3683,W,1,9,1.8,21,M,,M,,*59
06/13/2021,17:04:02.130,$GPGGA,170402,3241.8233,N,11709.3683,W,1,9,1.8,21,M,,M,,*5D
06/13/2021,17:04:03.030,$GPGGA,170403,3241.8234,N,11709.3683,W,1,9,1.8,21,M,,M,,*5B
06/13/2021,17:04:04.130,$GPGGA,170404,3241.8233,N,11709.3683,W,1,9,1.8,21,M,,M,,*5B
06/13/2021,17:04:05.031,$GPGGA,170405,3241.8234,N,11709.3683,W,1,9,1.8,21,M,,M,,*5D
06/13/2021,17:04:06.130,$GPGGA,170406,3241.8233,N,11709.3683,W,1,9,1.8,21,M,,M,,*59
06/13/2021,17:04:07.031,$GPGGA,170407,3241.8234,N,11709.3683,W,1,9,1.8,21,M,,M,,*5F
06/13/2021,17:04:08.130,$GPGGA,170408,3241.8233,N,11709.3683,W,1,9,1.8,21,M,,M,,*57
06/13/2021,17:04:09.031,$GPGGA,170409,3241.8234,N,11709.3683,W,1,9,1.8,21,M,,M,,*51
06/13/2021,17:04:10.131,$GPGGA,170410,3241.8233,N,11709.3683,W,1,9,1.8,21,M,,M,,*5E
06/13/2021,17:04:11.031,$GPGGA,170411,3241.8232,N,11709.3683,W,1,9,1.6,21,M,,M,,*50
06/13/2021,17:04:12.131,$GPGGA,170412,3241.8232,N,11709.3685,W,1,10,1.6,21,M,,M,,*6D
06/13/2021,17:04:13.031,$GPGGA,170413,3241.8232,N,11709.3684,W,1,10,1.6,21,M,,M,,*6D
06/13/2021,17:04:14.131,$GPGGA,170414,3241.8232,N,11709.3685,W,1,10,1.6,21,M,,M,,*6B
06/13/2021,17:04:15.031,$GPGGA,170415,3241.8232,N,11709.3684,W,1,10,1.6,21,M,,M,,*6B
06/13/2021,17:04:16.131,$GPGGA,170416,3241.8232,N,11709.3685,W,1,10,1.6,21,M,,M,,*69
06/13/2021,17:04:17.032,$GPGGA,170417,3241.8232,N,11709.3684,W,1,10,1.6,21,M,,M,,*69
06/13/2021,17:04:18.131,$GPGGA,170418,3241.8232,N,11709.3685,W,1,10,1.6,21,M,,M,,*67
06/13/2021,17:04:19.032,$GPGGA,170419,3241.8232,N,11709.3684,W,1,10,1.6,21,M,,M,,*67
06/13/2021,17:04:20.131,$GPGGA,170420,3241.8232,N,11709.3685,W,1,10,1.6,21,M,,M,,*6C
06/13/2021,17:04:21.033,$GPGGA,170421,3241.8232,N,11709.3684,W,1,10,1.6,22,M,,M,,*6F
06/13/2021,17:04:22.131,$GPGGA,170422,3241.8232,N,11709.3685,W,1,10,1.6,22,M,,M,,*6D
06/13/2021,17:04:23.032,$GPGGA,170423,3241.8232,N,11709.3684,W,1,10,1.6,22,M,,M,,*6D
06/13/2021,17:04:24.131,$GPGGA,170424,3241.8232,N,11709.3685,W,1,10,1.6,22,M,,M,,*6B
06/13/2021,17:04:25.031,$GPGGA,170425,3241.8232,N,11709.3685,W,1,10,1.6,22,M,,M,,*6A
06/13/2021,17:04:26.132,$GPGGA,170426,3241.8232,N,11709.3685,W,1,10,1.6,22,M,,M,,*69
06/13/2021,17:04:27.031,$GPGGA,170427,3241.8232,N,11709.3685,W,1,10,1.6,22,M,,M,,*68
06/13/2021,17:04:28.132,$GPGGA,170428,3241.8232,N,11709.3685,W,1,10,1.6,22,M,,M,,*67
06/13/2021,17:04:29.031,$GPGGA,170429,3241.8232,N,11709.3685,W,1,10,1.6,22,M,,M,,*66
06/13/2021,17:04:30.132,$GPGGA,170430,3241.8232,N,11709.3686,W,1,10,1.6,22,M,,M,,*6D
06/13/2021,17:04:31.032,$GPGGA,170431,3241.8232,N,11709.3686,W,1,10,1.6,22,M,,M,,*6C
06/13/2021,17:04:32.131,$GPGGA,170432,3241.8232,N,11709.3686,W,1,10,1.6,22,M,,M,,*6F
06/13/2021,17:04:33.032,$GPGGA,170433,3241.8232,N,11709.3686,W,1,10,1.6,22,M,,M,,*6E
06/13/2021,17:04:34.132,$GPGGA,170434,3241.8232,N,11709.3686,W,1,10,1.6,22,M,,M,,*69
06/13/2021,17:04:35.032,$GPGGA,170435,3241.8232,N,11709.3686,W,1,10,1.6,22,M,,M,,*68
06/13/2021,17:04:36.127,$GPGGA,170436,3241.8232,N,11709.3688,W,1,10,1.6,22,M,,M,,*65
06/13/2021,17:04:37.032,$GPGGA,170437,3241.8232,N,11709.3687,W,1,10,1.6,23,M,,M,,*6A
06/13/2021,17:04:38.132,$GPGGA,170438,3241.8232,N,11709.3688,W,1,10,1.6,23,M,,M,,*6A
06/13/2021,17:04:39.032,$GPGGA,170439,3241.8234,N,11709.3687,W,1,10,1.6,23,M,,M,,*62
06/13/2021,17:04:40.133,$GPGGA,170440,3241.8233,N,11709.3688,W,1,10,1.6,23,M,,M,,*64
06/13/2021,17:04:41.033,$GPGGA,170441,3241.8235,N,11709.3687,W,1,10,1.7,23,M,,M,,*6D
06/13/2021,17:04:42.132,$GPGGA,170442,3241.8235,N,11709.3688,W,1,9,1.7,23,M,,M,,*59
06/13/2021,17:04:43.032,$GPGGA,170443,3241.8235,N,11709.3689,W,1,9,1.7,23,M,,M,,*59
06/13/2021,17:04:44.133,$GPGGA,170444,3241.8237,N,11709.3688,W,1,9,1.7,23,M,,M,,*5D
06/13/2021,17:04:45.023,$GPGGA,170445,3241.8236,N,11709.3689,W,1,9,1.7,23,M,,M,,*5C
06/13/2021,17:04:46.133,$GPGGA,170446,3241.8237,N,11709.3688,W,1,9,1.7,23,M,,M,,*5F
06/13/2021,17:04:47.032,$GPGGA,170447,3241.8238,N,11709.3689,W,1,9,1.7,23,M,,M,,*50
06/13/2021,17:04:48.133,$GPGGA,170448,3241.8237,N,11709.3688,W,1,9,1.7,23,M,,M,,*51
06/13/2021,17:04:49.032,$GPGGA,170449,3241.8238,N,11709.3689,W,1,9,1.7,24,M,,M,,*59
06/13/2021,17:04:50.133,$GPGGA,170450,3241.8239,N,11709.3688,W,1,9,1.7,24,M,,M,,*51
06/13/2021,17:04:51.023,$GPGGA,170451,3241.8239,N,11709.3689,W,1,9,1.7,24,M,,M,,*51
06/13/2021,17:04:52.133,$GPGGA,170452,3241.8239,N,11709.3689,W,1,9,1.7,24,M,,M,,*52
06/13/2021,17:04:53.023,$GPGGA,170453,3241.8239,N,11709.3689,W,1,9,1.7,24,M,,M,,*53
06/13/2021,17:04:54.133,$GPGGA,170454,3241.8239,N,11709.3690,W,1,9,1.7,24,M,,M,,*5C
06/13/2021,17:04:55.023,$GPGGA,170455,3241.8239,N,11709.3690,W,1,9,1.7,24,M,,M,,*5D
06/13/2021,17:04:56.133,$GPGGA,170456,3241.8239,N,11709.3690,W,1,9,1.7,24,M,,M,,*5E
06/13/2021,17:04:57.023,$GPGGA,170457,3241.8239,N,11709.3690,W,1,9,1.7,24,M,,M,,*5F
06/13/2021,17:04:58.133,$GPGGA,170458,3241.8239,N,11709.3690,W,1,9,1.7,24,M,,M,,*50
06/13/2021,17:04:59.023,$GPGGA,170459,3241.8239,N,11709.3690,W,1,9,1.7,25,M,,M,,*50
06/13/2021,17:05:00.133,$GPGGA,170500,3241.8239,N,11709.3692,W,1,9,1.7,25,M,,M,,*5F
06/13/2021,17:05:01.024,$GPGGA,170501,3241.8241,N,11709.3691,W,1,9,1.7,25,M,,M,,*52
06/13/2021,17:05:02.133,$GPGGA,170502,3241.8240,N,11709.3692,W,1,9,1.7,25,M,,M,,*53
06/13/2021,17:05:03.034,$GPGGA,170503,3241.8241,N,11709.3691,W,1,9,1.7,25,M,,M,,*50
06/13/2021,17:05:04.134,$GPGGA,170504,3241.8240,N,11709.3692,W,1,9,1.7,25,M,,M,,*55
06/13/2021,17:05:05.033,$GPGGA,170505,3241.8241,N,11709.3692,W,1,9,1.7,25,M,,M,,*55
06/13/2021,17:05:06.124,$GPGGA,170506,3241.8240,N,11709.3692,W,1,9,1.7,25,M,,M,,*57
06/13/2021,17:05:07.023,$GPGGA,170507,3241.8241,N,11709.3692,W,1,9,1.7,25,M,,M,,*57
06/13/2021,17:05:08.134,$GPGGA,170508,3241.8240,N,11709.3692,W,1,9,1.7,25,M,,M,,*59
06/13/2021,17:05:09.024,$GPGGA,170509,3241.8241,N,11709.3693,W,1,9,1.7,25,M,,M,,*58
06/13/2021,17:05:10.133,$GPGGA,170510,3241.8240,N,11709.3693,W,1,9,1.7,25,M,,M,,*51
06/13/2021,17:05:11.024,$GPGGA,170511,3241.8241,N,11709.3693,W,1,9,1.7,25,M,,M,,*51
06/13/2021,17:05:12.134,$GPGGA,170512,3241.8240,N,11709.3693,W,1,9,1.7,25,M,,M,,*53
06/13/2021,17:05:13.024,$GPGGA,170513,3241.8241,N,11709.3693,W,1,9,1.7,25,M,,M,,*53
06/13/2021,17:05:14.134,$GPGGA,170514,3241.8240,N,11709.3693,W,1,9,1.7,25,M,,M,,*55
06/13/2021,17:05:15.024,$GPGGA,170515,3241.8241,N,11709.3694,W,1,9,1.7,25,M,,M,,*52
06/13/2021,17:05:16.134,$GPGGA,170516,3241.8239,N,11709.3694,W,1,9,1.7,25,M,,M,,*5E
06/13/2021,17:05:17.024,$GPGGA,170517,3241.8235,N,11709.3694,W,1,9,1.6,25,M,,M,,*52
06/13/2021,17:05:18.134,$GPGGA,170518,3241.8234,N,11709.3694,W,1,10,1.6,25,M,,M,,*64
06/13/2021,17:05:19.034,$GPGGA,170519,3241.8233,N,11709.3694,W,1,10,1.6,25,M,,M,,*62
06/13/2021,17:05:20.135,$GPGGA,170520,3241.8232,N,11709.3694,W,1,10,1.6,25,M,,M,,*69
06/13/2021,17:05:21.035,$GPGGA,170521,3241.8232,N,11709.3694,W,1,10,1.6,25,M,,M,,*68
06/13/2021,17:05:22.135,$GPGGA,170522,3241.8230,N,11709.3694,W,1,10,1.6,25,M,,M,,*69
06/13/2021,17:05:23.035,$GPGGA,170523,3241.8229,N,11709.3694,W,1,10,1.7,25,M,,M,,*61
06/13/2021,17:05:24.125,$GPGGA,170524,3241.8230,N,11709.3696,W,1,9,1.7,25,M,,M,,*54
06/13/2021,17:05:25.025,$GPGGA,170525,3241.8228,N,11709.3695,W,1,9,1.7,24,M,,M,,*5E
06/13/2021,17:05:26.134,$GPGGA,170526,3241.8228,N,11709.3696,W,1,9,1.7,24,M,,M,,*5E
06/13/2021,17:05:27.025,$GPGGA,170527,3241.8228,N,11709.3696,W,1,9,1.7,24,M,,M,,*5F
06/13/2021,17:05:28.125,$GPGGA,170528,3241.8228,N,11709.3696,W,1,9,1.7,24,M,,M,,*50
06/13/2021,17:05:29.025,$GPGGA,170529,3241.8226,N,11709.3697,W,1,9,1.7,23,M,,M,,*59
06/13/2021,17:05:30.135,$GPGGA,170530,3241.8227,N,11709.3697,W,1,9,1.7,23,M,,M,,*50
06/13/2021,17:05:31.025,$GPGGA,170531,3241.8225,N,11709.3699,W,1,9,1.6,23,M,,M,,*5C
06/13/2021,17:05:32.135,$GPGGA,170532,3241.8225,N,11709.3697,W,1,10,1.6,23,M,,M,,*69
06/13/2021,17:05:33.035,$GPGGA,170533,3241.8225,N,11709.3697,W,1,10,1.6,23,M,,M,,*68
06/13/2021,17:05:34.135,$GPGGA,170534,3241.8225,N,11709.3697,W,1,10,1.6,23,M,,M,,*6F
06/13/2021,17:05:35.035,$GPGGA,170535,3241.8225,N,11709.3696,W,1,10,1.6,22,M,,M,,*6E
06/13/2021,17:05:36.135,$GPGGA,170536,3241.8225,N,11709.3696,W,1,10,1.6,22,M,,M,,*6D
06/13/2021,17:05:37.036,$GPGGA,170537,3241.8225,N,11709.3696,W,1,10,1.6,22,M,,M,,*6C
06/13/2021,17:05:38.135,$GPGGA,170538,3241.8225,N,11709.3696,W,1,10,1.6,22,M,,M,,*63
06/13/2021,17:05:39.035,$GPGGA,170539,3241.8225,N,11709.3696,W,1,10,1.6,21,M,,M,,*61
06/13/2021,17:05:40.135,$GPGGA,170540,3241.8225,N,11709.3696,W,1,10,1.6,21,M,,M,,*6F
06/13/2021,17:05:41.036,$GPGGA,170541,3241.8225,N,11709.3696,W,1,10,1.6,21,M,,M,,*6E
06/13/2021,17:05:42.135,$GPGGA,170542,3241.8225,N,11709.3696,W,1,10,1.6,21,M,,M,,*6D
06/13/2021,17:05:43.036,$GPGGA,170543,3241.8225,N,11709.3695,W,1,10,1.6,21,M,,M,,*6F
06/13/2021,17:05:44.136,$GPGGA,170544,3241.8225,N,11709.3696,W,1,10,1.6,21,M,,M,,*6B
06/13/2021,17:05:45.036,$GPGGA,170545,3241.8227,N,11709.3695,W,1,10,1.6,21,M,,M,,*6B
06/13/2021,17:05:46.136,$GPGGA,170546,3241.8226,N,11709.3694,W,1,10,1.6,21,M,,M,,*68
06/13/2021,17:05:47.036,$GPGGA,170547,3241.8228,N,11709.3694,W,1,10,1.6,20,M,,M,,*66
06/13/2021,17:05:48.136,$GPGGA,170548,3241.8228,N,11709.3694,W,1,10,1.6,20,M,,M,,*69
06/13/2021,17:05:49.035,$GPGGA,170549,3241.8228,N,11709.3694,W,1,10,1.6,20,M,,M,,*68
06/13/2021,17:05:50.136,$GPGGA,170550,3241.8228,N,11709.3694,W,1,10,1.6,20,M,,M,,*60
06/13/2021,17:05:51.036,$GPGGA,170551,3241.8228,N,11709.3694,W,1,10,1.6,20,M,,M,,*61
06/13/2021,17:05:52.136,$GPGGA,170552,3241.8228,N,11709.3694,W,1,10,1.6,20,M,,M,,*62
06/13/2021,17:05:53.036,$GPGGA,170553,3241.8228,N,11709.3693,W,1,10,1.6,20,M,,M,,*64
06/13/2021,17:05:54.136,$GPGGA,170554,3241.8228,N,11709.3693,W,1,10,1.6,20,M,,M,,*63
06/13/2021,17:05:55.036,$GPGGA,170555,3241.8228,N,11709.3693,W,1,10,1.6,20,M,,M,,*62
06/13/2021,17:05:56.136,$GPGGA,170556,3241.8228,N,11709.3693,W,1,10,1.6,20,M,,M,,*61
06/13/2021,17:05:57.036,$GPGGA,170557,3241.8228,N,11709.3693,W,1,10,1.6,20,M,,M,,*60
06/13/2021,17:05:58.136,$GPGGA,170558,3241.8228,N,11709.3693,W,1,10,1.6,20,M,,M,,*6F
06/13/2021,17:05:59.036,$GPGGA,170559,3241.8228,N,11709.3693,W,1,10,1.6,20,M,,M,,*6E
06/13/2021,17:06:00.136,$GPGGA,170600,3241.8228,N,11709.3693,W,1,10,1.6,20,M,,M,,*61
06/13/2021,17:06:01.036,$GPGGA,170601,3241.8228,N,11709.3693,W,1,10,1.6,20,M,,M,,*60
06/13/2021,17:06:02.137,$GPGGA,170602,3241.8228,N,11709.3693,W,1,10,1.6,20,M,,M,,*63
06/13/2021,17:06:03.037,$GPGGA,170603,3241.8228,N,11709.3693,W,1,10,1.6,20,M,,M,,*62
06/13/2021,17:06:04.137,$GPGGA,170604,3241.8228,N,11709.3693,W,1,10,1.6,20,M,,M,,*65
06/13/2021,17:06:05.037,$GPGGA,170605,3241.8228,N,11709.3693,W,1,10,1.6,20,M,,M,,*64
06/13/2021,17:06:06.137,$GPGGA,170606,3241.8228,N,11709.3693,W,1,10,1.6,20,M,,M,,*67
06/13/2021,17:06:07.037,$GPGGA,170607,3241.8228,N,11709.3693,W,1,10,1.6,20,M,,M,,*66
06/13/2021,17:06:08.137,$GPGGA,170608,3241.8228,N,11709.3693,W,1,10,1.6,20,M,,M,,*69
06/13/2021,17:06:09.037,$GPGGA,170609,3241.8228,N,11709.3693,W,1,10,1.6,20,M,,M,,*68
06/13/2021,17:06:10.137,$GPGGA,170610,3241.8228,N,11709.3693,W,1,10,1.6,20,M,,M,,*60
06/13/2021,17:06:11.037,$GPGGA,170611,3241.8226,N,11709.3692,W,1,10,1.6,20,M,,M,,*6E
06/13/2021,17:06:12.137,$GPGGA,170612,3241.8227,N,11709.3692,W,1,10,1.6,20,M,,M,,*6C
06/13/2021,17:06:13.037,$GPGGA,170613,3241.8226,N,11709.3692,W,1,10,1.6,20,M,,M,,*6C
06/13/2021,17:06:14.137,$GPGGA,170614,3241.8227,N,11709.3691,W,1,10,1.6,20,M,,M,,*69
06/13/2021,17:06:15.027,$GPGGA,170615,3241.8225,N,11709.3692,W,1,10,1.6,20,M,,M,,*69
06/13/2021,17:06:16.137,$GPGGA,170616,3241.8225,N,11709.3691,W,1,10,1.6,20,M,,M,,*69
06/13/2021,17:06:17.037,$GPGGA,170617,3241.8224,N,11709.3692,W,1,10,1.6,20,M,,M,,*6A
06/13/2021,17:06:18.137,$GPGGA,170618,3241.8224,N,11709.3690,W,1,10,1.6,20,M,,M,,*67
06/13/2021,17:06:19.037,$GPGGA,170619,3241.8223,N,11709.3690,W,1,10,1.6,20,M,,M,,*61
06/13/2021,17:06:20.137,$GPGGA,170620,3241.8224,N,11709.3690,W,1,10,1.6,20,M,,M,,*6C
06/13/2021,17:06:21.037,$GPGGA,170621,3241.8223,N,11709.3690,W,1,10,1.6,19,M,,M,,*60
06/13/2021,17:06:22.137,$GPGGA,170622,3241.8224,N,11709.3690,W,1,10,1.6,19,M,,M,,*64
06/13/2021,17:06:23.037,$GPGGA,170623,3241.8222,N,11709.3690,W,1,10,1.6,19,M,,M,,*63
06/13/2021,17:06:24.137,$GPGGA,170624,3241.8223,N,11709.3689,W,1,10,1.6,19,M,,M,,*6D
06/13/2021,17:06:25.037,$GPGGA,170625,3241.8222,N,11709.3689,W,1,10,1.6,19,M,,M,,*6D
06/13/2021,17:06:26.137,$GPGGA,170626,3241.8223,N,11709.3689,W,1,10,1.6,19,M,,M,,*6F
06/13/2021,17:06:27.037,$GPGGA,170627,3241.8222,N,11709.3689,W,1,10,1.6,19,M,,M,,*6F
06/13/2021,17:06:28.138,$GPGGA,170628,3241.8223,N,11709.3689,W,1,10,1.6,19,M,,M,,*61
06/13/2021,17:06:29.038,$GPGGA,170629,3241.8222,N,11709.3689,W,1,10,1.6,19,M,,M,,*61
06/13/2021,17:06:30.138,$GPGGA,170630,3241.8221,N,11709.3689,W,1,10,1.6,19,M,,M,,*6A
06/13/2021,17:06:31.038,$GPGGA,170631,3241.8221,N,11709.3689,W,1,10,1.6,19,M,,M,,*6B
06/13/2021,17:06:32.138,$GPGGA,170632,3241.8221,N,11709.3689,W,1,10,1.6,19,M,,M,,*68
06/13/2021,17:06:33.029,$GPGGA,170633,3241.8221,N,11709.3689,W,1,10,1.6,19,M,,M,,*69
06/13/2021,17:06:34.138,$GPGGA,170634,3241.8221,N,11709.3689,W,1,10,1.6,19,M,,M,,*6E
06/13/2021,17:06:35.038,$GPGGA,170635,3241.8221,N,11709.3689,W,1,10,1.6,19,M,,M,,*6F
06/13/2021,17:06:36.138,$GPGGA,170636,3241.8221,N,11709.3689,W,1,10,1.6,19,M,,M,,*6C
06/13/2021,17:06:37.038,$GPGGA,170637,3241.8221,N,11709.3689,W,1,10,1.6,19,M,,M,,*6D
06/13/2021,17:06:38.138,$GPGGA,170638,3241.8221,N,11709.3688,W,1,10,1.6,19,M,,M,,*63
06/13/2021,17:06:39.028,$GPGGA,170639,3241.8221,N,11709.3689,W,1,10,1.6,19,M,,M,,*63
06/13/2021,17:06:40.138,$GPGGA,170640,3241.8221,N,11709.3688,W,1,10,1.6,19,M,,M,,*6C
06/13/2021,17:06:41.032,$GPGGA,170641,3241.8221,N,11709.3689,W,1,10,1.6,19,M,,M,,*6C
06/13/2021,17:06:42.125,$GPGGA,170642,3241.8221,N,11709.3688,W,1,10,1.6,19,M,,M,,*6E
06/13/2021,17:06:43.015,$GPGGA,170643,3241.8221,N,11709.3689,W,1,10,1.6,19,M,,M,,*6E
06/13/2021,17:06:44.115,$GPGGA,170644,3241.8221,N,11709.3688,W,1,10,1.6,19,M,,M,,*68
06/13/2021,17:06:45.015,$GPGGA,170645,3241.8221,N,11709.3689,W,1,10,1.6,19,M,,M,,*68
06/13/2021,17:06:46.125,$GPGGA,170646,3241.8221,N,11709.3689,W,1,10,1.6,19,M,,M,,*6B
06/13/2021,17:06:47.015,$GPGGA,170647,3241.8221,N,11709.3689,W,1,10,1.6,19,M,,M,,*6A
06/13/2021,17:06:48.125,$GPGGA,170648,3241.8221,N,11709.3689,W,1,10,1.6,19,M,,M,,*65
06/13/2021,17:06:49.015,$GPGGA,170649,3241.8221,N,11709.3689,W,1,10,1.6,19,M,,M,,*64
06/13/2021,17:06:50.115,$GPGGA,170650,3241.8221,N,11709.3689,W,1,10,1.6,19,M,,M,,*6C
06/13/2021,17:06:51.015,$GPGGA,170651,3241.8221,N,11709.3689,W,1,10,1.6,19,M,,M,,*6D
06/13/2021,17:06:52.115,$GPGGA,170652,3241.8221,N,11709.3690,W,1,9,1.6,19,M,,M,,*5E
06/13/2021,17:06:53.015,$GPGGA,170653,3241.8221,N,11709.3690,W,1,9,1.6,19,M,,M,,*5F
06/13/2021,17:06:54.115,$GPGGA,170654,3241.8221,N,11709.3689,W,1,10,1.6,19,M,,M,,*68
06/13/2021,17:06:55.015,$GPGGA,170655,3241.8221,N,11709.3689,W,1,10,1.6,19,M,,M,,*69
06/13/2021,17:06:56.115,$GPGGA,170656,3241.8221,N,11709.3689,W,1,10,1.6,19,M,,M,,*6A
06/13/2021,17:06:57.015,$GPGGA,170657,3241.8223,N,11709.3689,W,1,10,1.6,19,M,,M,,*69
06/13/2021,17:06:58.125,$GPGGA,170658,3241.8222,N,11709.3688,W,1,10,1.6,19,M,,M,,*66
06/13/2021,17:06:59.015,$GPGGA,170659,3241.8223,N,11709.3689,W,1,10,1.6,19,M,,M,,*67
06/13/2021,17:07:00.115,$GPGGA,170700,3241.8222,N,11709.3688,W,1,10,1.6,19,M,,M,,*6A
06/13/2021,17:07:01.021,$GPGGA,170701,3241.8223,N,11709.3689,W,1,10,1.6,19,M,,M,,*6B
06/13/2021,17:07:02.115,$GPGGA,170702,3241.8222,N,11709.3688,W,1,10,1.6,19,M,,M,,*68
06/13/2021,17:07:03.016,$GPGGA,170703,3241.8223,N,11709.3689,W,1,10,1.6,19,M,,M,,*69
06/13/2021,17:07:04.115,$GPGGA,170704,3241.8224,N,11709.3687,W,1,10,1.6,19,M,,M,,*67
06/13/2021,17:07:05.015,$GPGGA,170705,3241.8223,N,11709.3688,W,1,10,1.6,20,M,,M,,*64
06/13/2021,17:07:06.125,$GPGGA,170706,3241.8224,N,11709.3687,W,1,10,1.6,20,M,,M,,*6F
06/13/2021,17:07:07.015,$GPGGA,170707,3241.8223,N,11709.3688,W,1,10,1.6,20,M,,M,,*66
06/13/2021,17:07:08.116,$GPGGA,170708,3241.8224,N,11709.3686,W,1,10,1.6,20,M,,M,,*60
06/13/2021,17:07:09.016,$GPGGA,170709,3241.8224,N,11709.3686,W,1,10,1.6,20,M,,M,,*61
06/13/2021,17:07:10.116,$GPGGA,170710,3241.8224,N,11709.3686,W,1,10,1.6,20,M,,M,,*69
06/13/2021,17:07:11.016,$GPGGA,170711,3241.8224,N,11709.3685,W,1,10,1.6,20,M,,M,,*6B
06/13/2021,17:07:12.117,$GPGGA,170712,3241.8224,N,11709.3685,W,1,10,1.6,20,M,,M,,*68
06/13/2021,17:07:13.016,$GPGGA,170713,3241.8224,N,11709.3685,W,1,10,1.6,21,M,,M,,*68
06/13/2021,17:07:14.117,$GPGGA,170714,3241.8224,N,11709.3685,W,1,10,1.6,21,M,,M,,*6F
06/13/2021,17:07:15.016,$GPGGA,170715,3241.8224,N,11709.3685,W,1,10,1.6,21,M,,M,,*6E
06/13/2021,17:07:16.116,$GPGGA,170716,3241.8224,N,11709.3684,W,1,10,1.6,21,M,,M,,*6C
06/13/2021,17:07:17.016,$GPGGA,170717,3241.8224,N,11709.3685,W,1,10,1.6,21,M,,M,,*6C
06/13/2021,17:07:18.116,$GPGGA,170718,3241.8224,N,11709.3684,W,1,10,1.6,21,M,,M,,*62
06/13/2021,17:07:19.016,$GPGGA,170719,3241.8224,N,11709.3685,W,1,10,1.6,22,M,,M,,*61
06/13/2021,17:07:20.116,$GPGGA,170720,3241.8224,N,11709.3684,W,1,10,1.6,22,M,,M,,*6A
06/13/2021,17:07:21.016,$GPGGA,170721,3241.8223,N,11709.3683,W,1,10,1.6,22,M,,M,,*6B
06/13/2021,17:07:22.116,$GPGGA,170722,3241.8224,N,11709.3683,W,1,10,1.6,22,M,,M,,*6F
06/13/2021,17:07:23.016,$GPGGA,170723,3241.8223,N,11709.3683,W,1,10,1.6,22,M,,M,,*69
06/13/2021,17:07:24.116,$GPGGA,170724,3241.8224,N,11709.3683,W,1,10,1.6,22,M,,M,,*69
06/13/2021,17:07:25.016,$GPGGA,170725,3241.8223,N,11709.3683,W,1,10,1.6,22,M,,M,,*6F
06/13/2021,17:07:26.117,$GPGGA,170726,3241.8224,N,11709.3682,W,1,10,1.6,22,M,,M,,*6A
06/13/2021,17:07:27.017,$GPGGA,170727,3241.8223,N,11709.3682,W,1,10,1.6,23,M,,M,,*6D
06/13/2021,17:07:28.117,$GPGGA,170728,3241.8222,N,11709.3682,W,1,10,1.6,23,M,,M,,*63
06/13/2021,17:07:29.017,$GPGGA,170729,3241.8223,N,11709.3682,W,1,10,1.6,23,M,,M,,*63
06/13/2021,17:07:30.117,$GPGGA,170730,3241.8222,N,11709.3682,W,1,10,1.6,23,M,,M,,*6A
06/13/2021,17:07:31.017,$GPGGA,170731,3241.8223,N,11709.3682,W,1,10,1.6,23,M,,M,,*6A
06/13/2021,17:07:32.117,$GPGGA,170732,3241.8222,N,11709.3682,W,1,10,1.6,23,M,,M,,*68
06/13/2021,17:07:33.017,$GPGGA,170733,3241.8223,N,11709.3682,W,1,10,1.6,23,M,,M,,*68
06/13/2021,17:07:34.117,$GPGGA,170734,3241.8221,N,11709.3682,W,1,10,1.6,23,M,,M,,*6D
06/13/2021,17:07:35.017,$GPGGA,170735,3241.8221,N,11709.3682,W,1,10,1.6,23,M,,M,,*6C
06/13/2021,17:07:36.117,$GPGGA,170736,3241.8221,N,11709.3682,W,1,10,1.6,23,M,,M,,*6F
06/13/2021,17:07:37.017,$GPGGA,170737,3241.8221,N,11709.3682,W,1,10,1.6,23,M,,M,,*6E
06/13/2021,17:07:38.117,$GPGGA,170738,3241.8221,N,11709.3682,W,1,10,1.6,23,M,,M,,*61
06/13/2021,17:07:39.017,$GPGGA,170739,3241.8221,N,11709.3682,W,1,10,1.6,23,M,,M,,*60
06/13/2021,17:07:40.117,$GPGGA,170740,3241.8221,N,11709.3682,W,1,10,1.6,23,M,,M,,*6E
06/13/2021,17:07:41.017,$GPGGA,170741,3241.8221,N,11709.3681,W,1,10,1.6,23,M,,M,,*6C
06/13/2021,17:07:42.118,$GPGGA,170742,3241.8221,N,11709.3681,W,1,10,1.6,23,M,,M,,*6F
06/13/2021,17:07:43.018,$GPGGA,170743,3241.8221,N,11709.3681,W,1,10,1.6,23,M,,M,,*6E
06/13/2021,17:07:44.118,$GPGGA,170744,3241.8221,N,11709.3681,W,1,10,1.6,23,M,,M,,*69
06/13/2021,17:07:45.018,$GPGGA,170745,3241.8221,N,11709.3681,W,1,10,1.6,23,M,,M,,*68
06/13/2021,17:07:46.118,$GPGGA,170746,3241.8221,N,11709.3680,W,1,10,1.6,23,M,,M,,*6A
06/13/2021,17:07:47.018,$GPGGA,170747,3241.8221,N,11709.3681,W,1,10,1.6,23,M,,M,,*6A
06/13/2021,17:07:48.118,$GPGGA,170748,3241.8221,N,11709.3681,W,1,10,1.6,23,M,,M,,*65
06/13/2021,17:07:49.018,$GPGGA,170749,3241.8221,N,11709.3680,W,1,10,1.6,23,M,,M,,*65
06/13/2021,17:07:50.118,$GPGGA,170750,3241.8221,N,11709.3681,W,1,10,1.6,23,M,,M,,*6C
06/13/2021,17:07:51.018,$GPGGA,170751,3241.8221,N,11709.3680,W,1,10,1.6,23,M,,M,,*6C
06/13/2021,17:07:52.118,$GPGGA,170752,3241.8221,N,11709.3681,W,1,10,1.6,23,M,,M,,*6E
06/13/2021,17:07:53.018,$GPGGA,170753,3241.8221,N,11709.3680,W,1,10,1.6,23,M,,M,,*6E
06/13/2021,17:07:54.118,$GPGGA,170754,3241.8221,N,11709.3681,W,1,10,1.6,23,M,,M,,*68
06/13/2021,17:07:55.018,$GPGGA,170755,3241.8221,N,11709.3680,W,1,10,1.6,23,M,,M,,*68
06/13/2021,17:07:56.118,$GPGGA,170756,3241.8221,N,11709.3681,W,1,10,1.6,23,M,,M,,*6A
06/13/2021,17:07:57.019,$GPGGA,170757,3241.8221,N,11709.3680,W,1,10,1.6,23,M,,M,,*6A
06/13/2021,17:07:58.118,$GPGGA,170758,3241.8221,N,11709.3681,W,1,10,1.6,23,M,,M,,*64
06/13/2021,17:07:59.018,$GPGGA,170759,3241.8221,N,11709.3680,W,1,10,1.6,23,M,,M,,*64
06/13/2021,17:08:00.118,$GPGGA,170800,3241.8221,N,11709.3681,W,1,10,1.6,23,M,,M,,*66
06/13/2021,17:08:01.019,$GPGGA,170801,3241.8221,N,11709.3680,W,1,10,1.6,23,M,,M,,*66
06/13/2021,17:08:02.119,$GPGGA,170802,3241.8221,N,11709.3681,W,1,10,1.6,23,M,,M,,*64
06/13/2021,17:08:03.019,$GPGGA,170803,3241.8221,N,11709.3680,W,1,10,1.6,23,M,,M,,*64
06/13/2021,17:08:04.119,$GPGGA,170804,3241.8221,N,11709.3681,W,1,10,1.6,23,M,,M,,*62
06/13/2021,17:08:05.018,$GPGGA,170805,3241.8221,N,11709.3680,W,1,10,1.6,23,M,,M,,*62
06/13/2021,17:08:06.119,$GPGGA,170806,3241.8221,N,11709.3681,W,1,10,1.6,23,M,,M,,*60
06/13/2021,17:08:07.019,$GPGGA,170807,3241.8221,N,11709.3680,W,1,10,1.6,23,M,,M,,*60
06/13/2021,17:08:08.119,$GPGGA,170808,3241.8221,N,11709.3681,W,1,10,1.6,23,M,,M,,*6E
06/13/2021,17:08:09.019,$GPGGA,170809,3241.8221,N,11709.3680,W,1,10,1.6,22,M,,M,,*6F
06/13/2021,17:08:10.119,$GPGGA,170810,3241.8221,N,11709.3681,W,1,10,1.6,22,M,,M,,*66
06/13/2021,17:08:11.019,$GPGGA,170811,3241.8221,N,11709.3680,W,1,10,1.6,22,M,,M,,*66
06/13/2021,17:08:12.119,$GPGGA,170812,3241.8219,N,11709.3681,W,1,9,1.6,22,M,,M,,*57
06/13/2021,17:08:13.019,$GPGGA,170813,3241.8220,N,11709.3680,W,1,9,1.6,22,M,,M,,*5D
06/13/2021,17:08:14.119,$GPGGA,170814,3241.8219,N,11709.3681,W,1,9,1.6,22,M,,M,,*51
06/13/2021,17:08:15.019,$GPGGA,170815,3241.8218,N,11709.3681,W,1,9,2.3,22,M,,M,,*57
06/13/2021,17:08:16.119,$GPGGA,170816,3241.8219,N,11709.3681,W,1,9,2.3,22,M,,M,,*55
06/13/2021,17:08:17.020,$GPGGA,170817,3241.8217,N,11709.3681,W,1,9,2.3,22,M,,M,,*5A
06/13/2021,17:08:18.119,$GPGGA,170818,3241.8219,N,11709.3681,W,1,9,2.3,22,M,,M,,*5B
06/13/2021,17:08:19.020,$GPGGA,170819,3241.8217,N,11709.3681,W,1,9,2.3,22,M,,M,,*54
06/13/2021,17:08:20.119,$GPGGA,170820,3241.8217,N,11709.3681,W,1,8,2.3,22,M,,M,,*5F
06/13/2021,17:08:21.020,$GPGGA,170821,3241.8217,N,11709.3682,W,1,8,2.3,21,M,,M,,*5E
06/13/2021,17:08:22.119,$GPGGA,170822,3241.8217,N,11709.3680,W,1,9,2.3,21,M,,M,,*5E
06/13/2021,17:08:23.019,$GPGGA,170823,3241.8220,N,11709.3679,W,1,9,1.7,21,M,,M,,*5A
06/13/2021,17:08:24.120,$GPGGA,170824,3241.8221,N,11709.3677,W,1,9,1.7,21,M,,M,,*52
06/13/2021,17:08:25.020,$GPGGA,170825,3241.8223,N,11709.3676,W,1,9,1.7,21,M,,M,,*50
06/13/2021,17:08:26.120,$GPGGA,170826,3241.8221,N,11709.3676,W,1,10,1.7,21,M,,M,,*69
06/13/2021,17:08:27.020,$GPGGA,170827,3241.8223,N,11709.3675,W,1,10,1.6,22,M,,M,,*6B
06/13/2021,17:08:28.120,$GPGGA,170828,3241.8222,N,11709.3674,W,1,10,1.6,22,M,,M,,*64
06/13/2021,17:08:29.020,$GPGGA,170829,3241.8223,N,11709.3673,W,1,10,1.6,22,M,,M,,*63
06/13/2021,17:08:30.120,$GPGGA,170830,3241.8224,N,11709.3672,W,1,10,1.6,22,M,,M,,*6D
06/13/2021,17:08:31.020,$GPGGA,170831,3241.8223,N,11709.3671,W,1,10,1.6,22,M,,M,,*68
06/13/2021,17:08:32.120,$GPGGA,170832,3241.8224,N,11709.3671,W,1,10,1.6,22,M,,M,,*6C
06/13/2021,17:08:33.020,$GPGGA,170833,3241.8224,N,11709.3669,W,1,10,1.6,23,M,,M,,*65
06/13/2021,17:08:34.120,$GPGGA,170834,3241.8224,N,11709.3670,W,1,10,1.6,23,M,,M,,*6A
06/13/2021,17:08:35.020,$GPGGA,170835,3241.8224,N,11709.3669,W,1,10,1.6,23,M,,M,,*63
06/13/2021,17:08:36.120,$GPGGA,170836,3241.8224,N,11709.3668,W,1,10,1.6,23,M,,M,,*61
06/13/2021,17:08:37.020,$GPGGA,170837,3241.8225,N,11709.3668,W,1,10,1.6,23,M,,M,,*61
06/13/2021,17:08:38.120,$GPGGA,170838,3241.8225,N,11709.3668,W,1,10,1.6,23,M,,M,,*6E
06/13/2021,17:08:39.021,$GPGGA,170839,3241.8225,N,11709.3667,W,1,10,1.6,24,M,,M,,*67
06/13/2021,17:08:40.120,$GPGGA,170840,3241.8225,N,11709.3667,W,1,10,1.6,24,M,,M,,*69
06/13/2021,17:08:41.021,$GPGGA,170841,3241.8225,N,11709.3667,W,1,10,1.6,24,M,,M,,*68
06/13/2021,17:08:42.121,$GPGGA,170842,3241.8225,N,11709.3667,W,1,10,1.6,24,M,,M,,*6B
06/13/2021,17:08:43.020,$GPGGA,170843,3241.8225,N,11709.3667,W,1,10,1.6,24,M,,M,,*6A
06/13/2021,17:08:44.121,$GPGGA,170844,3241.8225,N,11709.3667,W,1,10,1.6,24,M,,M,,*6D
06/13/2021,17:08:45.021,$GPGGA,170845,3241.8227,N,11709.3667,W,1,10,1.6,25,M,,M,,*6F
06/13/2021,17:08:46.121,$GPGGA,170846,3241.8226,N,11709.3667,W,1,10,1.6,25,M,,M,,*6D
06/13/2021,17:08:47.021,$GPGGA,170847,3241.8227,N,11709.3667,W,1,10,1.6,25,M,,M,,*6D
06/13/2021,17:08:48.121,$GPGGA,170848,3241.8226,N,11709.3667,W,1,10,1.6,25,M,,M,,*63
06/13/2021,17:08:49.021,$GPGGA,170849,3241.8227,N,11709.3667,W,1,10,1.6,25,M,,M,,*63
06/13/2021,17:08:50.121,$GPGGA,170850,3241.8226,N,11709.3667,W,1,10,1.6,25,M,,M,,*6A
06/13/2021,17:08:51.021,$GPGGA,170851,3241.8227,N,11709.3667,W,1,10,1.6,26,M,,M,,*69
06/13/2021,17:08:52.121,$GPGGA,170852,3241.8226,N,11709.3668,W,1,10,1.6,26,M,,M,,*64
06/13/2021,17:08:53.021,$GPGGA,170853,3241.8227,N,11709.3668,W,1,10,1.6,26,M,,M,,*64
06/13/2021,17:08:54.121,$GPGGA,170854,3241.8226,N,11709.3668,W,1,10,1.6,26,M,,M,,*62
06/13/2021,17:08:55.021,$GPGGA,170855,3241.8227,N,11709.3668,W,1,10,1.6,26,M,,M,,*62
06/13/2021,17:08:56.121,$GPGGA,170856,3241.8226,N,11709.3668,W,1,10,1.6,26,M,,M,,*60
06/13/2021,17:08:57.022,$GPGGA,170857,3241.8227,N,11709.3670,W,1,10,1.6,26,M,,M,,*69
06/13/2021,17:08:58.122,$GPGGA,170858,3241.8226,N,11709.3669,W,1,10,1.6,26,M,,M,,*6F
06/13/2021,17:08:59.021,$GPGGA,170859,3241.8227,N,11709.3670,W,1,10,1.6,26,M,,M,,*67
06/13/2021,17:09:00.122,$GPGGA,170900,3241.8226,N,11709.3671,W,1,10,1.6,26,M,,M,,*6A
06/13/2021,17:09:01.021,$GPGGA,170901,3241.8227,N,11709.3670,W,1,10,1.6,26,M,,M,,*6B
06/13/2021,17:09:02.121,$GPGGA,170902,3241.8226,N,11709.3671,W,1,10,1.6,26,M,,M,,*68
06/13/2021,17:09:03.021,$GPGGA,170903,3241.8227,N,11709.3671,W,1,10,1.6,26,M,,M,,*68
06/13/2021,17:09:04.122,$GPGGA,170904,3241.8226,N,11709.3671,W,1,10,1.6,26,M,,M,,*6E
06/13/2021,17:09:05.022,$GPGGA,170905,3241.8227,N,11709.3671,W,1,10,1.6,26,M,,M,,*6E
06/13/2021,17:09:06.122,$GPGGA,170906,3241.8226,N,11709.3672,W,1,10,1.6,26,M,,M,,*6F
06/13/2021,17:09:07.022,$GPGGA,170907,3241.8227,N,11709.3672,W,1,10,1.6,26,M,,M,,*6F
06/13/2021,17:09:08.122,$GPGGA,170908,3241.8228,N,11709.3672,W,1,10,1.6,26,M,,M,,*6F
06/13/2021,17:09:09.022,$GPGGA,170909,3241.8228,N,11709.3674,W,1,10,1.6,26,M,,M,,*68
06/13/2021,17:09:10.123,$GPGGA,170910,3241.8226,N,11709.3673,W,1,10,1.6,26,M,,M,,*69
06/13/2021,17:09:11.022,$GPGGA,170911,3241.8228,N,11709.3674,W,1,10,1.6,26,M,,M,,*61
06/13/2021,17:09:12.122,$GPGGA,170912,3241.8228,N,11709.3674,W,1,10,1.6,26,M,,M,,*62
06/13/2021,17:09:13.022,$GPGGA,170913,3241.8228,N,11709.3674,W,1,10,1.6,26,M,,M,,*63
06/13/2021,17:09:14.122,$GPGGA,170914,3241.8228,N,11709.3675,W,1,9,1.6,26,M,,M,,*5D
06/13/2021,17:09:15.022,$GPGGA,170915,3241.8228,N,11709.3675,W,1,9,1.7,26,M,,M,,*5D
06/13/2021,17:09:16.123,$GPGGA,170916,3241.8228,N,11709.3675,W,1,9,1.7,26,M,,M,,*5E
06/13/2021,17:09:17.023,$GPGGA,170917,3241.8228,N,11709.3675,W,1,9,1.7,26,M,,M,,*5F
06/13/2021,17:09:18.123,$GPGGA,170918,3241.8228,N,11709.3676,W,1,9,1.7,26,M,,M,,*53
06/13/2021,17:09:19.022,$GPGGA,170919,3241.8228,N,11709.3676,W,1,9,1.7,26,M,,M,,*52
06/13/2021,17:09:20.123,$GPGGA,170920,3241.8228,N,11709.3676,W,1,9,1.7,26,M,,M,,*58
06/13/2021,17:09:21.023,$GPGGA,170921,3241.8228,N,11709.3676,W,1,9,1.7,26,M,,M,,*59
06/13/2021,17:09:22.123,$GPGGA,170922,3241.8228,N,11709.3676,W,1,9,1.7,26,M,,M,,*5A
06/13/2021,17:09:23.023,$GPGGA,170923,3241.8228,N,11709.3678,W,1,9,1.7,26,M,,M,,*55
06/13/2021,17:09:24.123,$GPGGA,170924,3241.8228,N,11709.3677,W,1,9,1.7,26,M,,M,,*5D
06/13/2021,17:09:25.023,$GPGGA,170925,3241.8228,N,11709.3678,W,1,9,1.7,26,M,,M,,*53
06/13/2021,17:09:26.123,$GPGGA,170926,3241.8228,N,11709.3677,W,1,9,1.7,26,M,,M,,*5F
06/13/2021,17:09:27.023,$GPGGA,170927,3241.8228,N,11709.3678,W,1,9,1.7,26,M,,M,,*51
06/13/2021,17:09:28.123,$GPGGA,170928,3241.8228,N,11709.3677,W,1,9,1.7,26,M,,M,,*51
06/13/2021,17:09:29.023,$GPGGA,170929,3241.8228,N,11709.3678,W,1,9,1.7,26,M,,M,,*5F
06/13/2021,17:09:30.124,$GPGGA,170930,3241.8228,N,11709.3678,W,1,9,1.7,26,M,,M,,*57
06/13/2021,17:09:31.024,$GPGGA,170931,3241.8225,N,11709.3678,W,1,9,1.6,25,M,,M,,*59
06/13/2021,17:09:32.123,$GPGGA,170932,3241.8225,N,11709.3678,W,1,10,1.6,25,M,,M,,*62
06/13/2021,17:09:33.023,$GPGGA,170933,3241.8224,N,11709.3679,W,1,10,1.6,25,M,,M,,*63
06/13/2021,17:09:34.123,$GPGGA,170934,3241.8224,N,11709.3679,W,1,10,1.6,25,M,,M,,*64
06/13/2021,17:09:35.023,$GPGGA,170935,3241.8224,N,11709.3679,W,1,10,1.6,25,M,,M,,*65
06/13/2021,17:09:36.123,$GPGGA,170936,3241.8223,N,11709.3679,W,1,10,1.6,25,M,,M,,*61
06/13/2021,17:09:37.023,$GPGGA,170937,3241.8224,N,11709.3681,W,1,10,1.6,25,M,,M,,*60
06/13/2021,17:09:38.124,$GPGGA,170938,3241.8223,N,11709.3680,W,1,10,1.6,25,M,,M,,*69
06/13/2021,17:09:39.024,$GPGGA,170939,3241.8224,N,11709.3681,W,1,10,1.6,24,M,,M,,*6F
06/13/2021,17:09:40.124,$GPGGA,170940,3241.8222,N,11709.3681,W,1,10,1.6,24,M,,M,,*67
06/13/2021,17:09:41.023,$GPGGA,170941,3241.8223,N,11709.3681,W,1,10,1.6,24,M,,M,,*67
06/13/2021,17:09:42.123,$GPGGA,170942,3241.8222,N,11709.3682,W,1,10,1.6,24,M,,M,,*66
06/13/2021,17:09:43.024,$GPGGA,170943,3241.8223,N,11709.3682,W,1,10,1.6,24,M,,M,,*66
06/13/2021,17:09:44.124,$GPGGA,170944,3241.8221,N,11709.3682,W,1,10,1.6,24,M,,M,,*63
06/13/2021,17:09:45.024,$GPGGA,170945,3241.8221,N,11709.3682,W,1,10,1.6,23,M,,M,,*65
06/13/2021,17:09:46.124,$GPGGA,170946,3241.8221,N,11709.3682,W,1,10,1.6,23,M,,M,,*66
06/13/2021,17:09:47.024,$GPGGA,170947,3241.8221,N,11709.3683,W,1,10,1.7,23,M,,M,,*67
06/13/2021,17:09:48.124,$GPGGA,170948,3241.8221,N,11709.3683,W,1,9,1.7,23,M,,M,,*50
06/13/2021,17:09:49.024,$GPGGA,170949,3241.8221,N,11709.3683,W,1,9,1.7,23,M,,M,,*51
06/13/2021,17:09:50.124,$GPGGA,170950,3241.8221,N,11709.3683,W,1,9,1.7,23,M,,M,,*59
06/13/2021,17:09:51.024,$GPGGA,170951,3241.8221,N,11709.3683,W,1,9,1.7,22,M,,M,,*59
06/13/2021,17:09:52.125,$GPGGA,170952,3241.8221,N,11709.3683,W,1,9,1.7,22,M,,M,,*5A
06/13/2021,17:09:53.024,$GPGGA,170953,3241.8221,N,11709.3683,W,1,9,1.7,22,M,,M,,*5B
06/13/2021,17:09:54.124,$GPGGA,170954,3241.8221,N,11709.3683,W,1,9,1.7,22,M,,M,,*5C
06/13/2021,17:09:55.024,$GPGGA,170955,3241.8223,N,11709.3683,W,1,9,1.7,22,M,,M,,*5F
06/13/2021,17:09:56.124,$GPGGA,170956,3241.8221,N,11709.3683,W,1,9,1.7,22,M,,M,,*5E
06/13/2021,17:09:57.024,$GPGGA,170957,3241.8223,N,11709.3683,W,1,9,1.7,22,M,,M,,*5D
06/13/2021,17:09:58.125,$GPGGA,170958,3241.8222,N,11709.3682,W,1,10,1.7,22,M,,M,,*6A
06/13/2021,17:09:59.025,$GPGGA,170959,3241.8224,N,11709.3682,W,1,10,1.6,22,M,,M,,*6C
06/13/2021,17:10:00.125,$GPGGA,171000,3241.8223,N,11709.3681,W,1,10,1.6,22,M,,M,,*6C
06/13/2021,17:10:01.025,$GPGGA,171001,3241.8224,N,11709.3681,W,1,10,1.6,22,M,,M,,*6A
06/13/2021,17:10:02.124,$GPGGA,171002,3241.8224,N,11709.3681,W,1,10,1.6,22,M,,M,,*69
06/13/2021,17:10:03.025,$GPGGA,171003,3241.8224,N,11709.3681,W,1,10,1.6,22,M,,M,,*68
06/13/2021,17:10:04.125,$GPGGA,171004,3241.8224,N,11709.3681,W,1,10,1.6,22,M,,M,,*6F
06/13/2021,17:10:05.025,$GPGGA,171005,3241.8224,N,11709.3680,W,1,10,1.6,21,M,,M,,*6C
06/13/2021,17:10:06.125,$GPGGA,171006,3241.8225,N,11709.3681,W,1,10,1.6,21,M,,M,,*6F
06/13/2021,17:10:07.026,$GPGGA,171007,3241.8225,N,11709.3680,W,1,10,1.6,21,M,,M,,*6F
06/13/2021,17:10:08.125,$GPGGA,171008,3241.8227,N,11709.3681,W,1,10,1.6,21,M,,M,,*63
06/13/2021,17:10:09.025,$GPGGA,171009,3241.8226,N,11709.3679,W,1,10,1.6,22,M,,M,,*67
06/13/2021,17:10:10.126,$GPGGA,171010,3241.8227,N,11709.3679,W,1,10,1.6,22,M,,M,,*6E
06/13/2021,17:10:11.025,$GPGGA,171011,3241.8226,N,11709.3679,W,1,10,1.6,22,M,,M,,*6E
06/13/2021,17:10:12.125,$GPGGA,171012,3241.8228,N,11709.3678,W,1,10,1.6,22,M,,M,,*62
06/13/2021,17:10:13.025,$GPGGA,171013,3241.8228,N,11709.3678,W,1,10,1.6,22,M,,M,,*63
06/13/2021,17:10:14.126,$GPGGA,171014,3241.8228,N,11709.3678,W,1,10,1.6,22,M,,M,,*64
06/13/2021,17:10:15.025,$GPGGA,171015,3241.8228,N,11709.3677,W,1,10,1.6,22,M,,M,,*6A
06/13/2021,17:10:16.125,$GPGGA,171016,3241.8228,N,11709.3678,W,1,10,1.6,22,M,,M,,*66
06/13/2021,17:10:17.026,$GPGGA,171017,3241.8228,N,11709.3677,W,1,10,1.6,22,M,,M,,*68
06/13/2021,17:10:18.125,$GPGGA,171018,3241.8228,N,11709.3678,W,1,10,1.6,22,M,,M,,*68
06/13/2021,17:10:19.025,$GPGGA,171019,3241.8228,N,11709.3677,W,1,10,1.6,22,M,,M,,*66
06/13/2021,17:10:20.126,$GPGGA,171020,3241.8228,N,11709.3678,W,1,9,1.6,22,M,,M,,*5B
06/13/2021,17:10:21.026,$GPGGA,171021,3241.8228,N,11709.3677,W,1,9,1.7,22,M,,M,,*54
06/13/2021,17:10:22.125,$GPGGA,171022,3241.8228,N,11709.3678,W,1,9,1.7,22,M,,M,,*58
06/13/2021,17:10:23.026,$GPGGA,171023,3241.8228,N,11709.3677,W,1,9,1.7,22,M,,M,,*56
06/13/2021,17:10:24.126,$GPGGA,171024,3241.8226,N,11709.3678,W,1,8,1.7,22,M,,M,,*51
06/13/2021,17:10:25.026,$GPGGA,171025,3241.8224,N,11709.3678,W,1,8,2.3,22,M,,M,,*55
06/13/2021,17:10:26.126,$GPGGA,171026,3241.8223,N,11709.3679,W,1,8,2.3,22,M,,M,,*50
06/13/2021,17:10:27.026,$GPGGA,171027,3241.8222,N,11709.3679,W,1,8,2.3,22,M,,M,,*50
06/13/2021,17:10:28.126,$GPGGA,171028,3241.8221,N,11709.3681,W,1,8,2.3,22,M,,M,,*5B
06/13/2021,17:10:29.026,$GPGGA,171029,3241.8221,N,11709.3680,W,1,8,2.3,22,M,,M,,*5B
06/13/2021,17:10:30.126,$GPGGA,171030,3241.8219,N,11709.3681,W,1,8,2.3,22,M,,M,,*59
06/13/2021,17:10:31.026,$GPGGA,171031,3241.8220,N,11709.3681,W,1,8,2.3,21,M,,M,,*51
06/13/2021,17:10:32.126,$GPGGA,171032,3241.8218,N,11709.3681,W,1,8,2.3,21,M,,M,,*59
06/13/2021,17:10:33.026,$GPGGA,171033,3241.8217,N,11709.3681,W,1,8,2.3,21,M,,M,,*57
06/13/2021,17:10:34.126,$GPGGA,171034,3241.8217,N,11709.3682,W,1,8,2.3,21,M,,M,,*53
06/13/2021,17:10:35.026,$GPGGA,171035,3241.8217,N,11709.3682,W,1,8,2.3,21,M,,M,,*52
06/13/2021,17:10:36.127,$GPGGA,171036,3241.8217,N,11709.3682,W,1,8,2.3,21,M,,M,,*51
06/13/2021,17:10:37.027,$GPGGA,171037,3241.8217,N,11709.3681,W,1,8,1.7,20,M,,M,,*55
06/13/2021,17:10:38.127,$GPGGA,171038,3241.8217,N,11709.3681,W,1,9,1.7,20,M,,M,,*5B
06/13/2021,17:10:39.027,$GPGGA,171039,3241.8219,N,11709.3681,W,1,9,1.7,20,M,,M,,*54
06/13/2021,17:10:40.127,$GPGGA,171040,3241.8218,N,11709.3681,W,1,9,1.7,20,M,,M,,*5B
06/13/2021,17:10:41.027,$GPGGA,171041,3241.8219,N,11709.3681,W,1,9,1.7,20,M,,M,,*5B
06/13/2021,17:10:42.127,$GPGGA,171042,3241.8218,N,11709.3681,W,1,9,1.7,20,M,,M,,*59
06/13/2021,17:10:43.027,$GPGGA,171043,3241.8219,N,11709.3681,W,1,9,1.7,20,M,,M,,*59
06/13/2021,17:10:44.126,$GPGGA,171044,3241.8218,N,11709.3681,W,1,9,1.7,20,M,,M,,*5F
06/13/2021,17:10:45.027,$GPGGA,171045,3241.8219,N,11709.3681,W,1,9,1.7,20,M,,M,,*5F
06/13/2021,17:10:46.127,$GPGGA,171046,3241.8218,N,11709.3681,W,1,9,1.7,20,M,,M,,*5D
06/13/2021,17:10:47.027,$GPGGA,171047,3241.8220,N,11709.3681,W,1,9,1.7,19,M,,M,,*5D
06/13/2021,17:10:48.128,$GPGGA,171048,3241.8219,N,11709.3681,W,1,9,1.7,19,M,,M,,*58
06/13/2021,17:10:49.027,$GPGGA,171049,3241.8220,N,11709.3681,W,1,9,1.7,19,M,,M,,*53
06/13/2021,17:10:50.127,$GPGGA,171050,3241.8219,N,11709.3681,W,1,9,1.7,19,M,,M,,*51
06/13/2021,17:10:51.027,$GPGGA,171051,3241.8220,N,11709.3681,W,1,9,1.7,19,M,,M,,*5A
06/13/2021,17:10:52.127,$GPGGA,171052,3241.8219,N,11709.3681,W,1,9,1.7,19,M,,M,,*53
06/13/2021,17:10:53.027,$GPGGA,171053,3241.8221,N,11709.3682,W,1,9,1.7,19,M,,M,,*5A
06/13/2021,17:10:54.127,$GPGGA,171054,3241.8221,N,11709.3681,W,1,9,1.7,19,M,,M,,*5E
06/13/2021,17:10:55.028,$GPGGA,171055,3241.8221,N,11709.3681,W,1,9,1.7,19,M,,M,,*5F
06/13/2021,17:10:56.127,$GPGGA,171056,3241.8221,N,11709.3682,W,1,9,1.7,19,M,,M,,*5F
06/13/2021,17:10:57.028,$GPGGA,171057,3241.8221,N,11709.3682,W,1,9,1.7,19,M,,M,,*5E
06/13/2021,17:10:58.128,$GPGGA,171058,3241.8221,N,11709.3682,W,1,9,1.7,19,M,,M,,*51
06/13/2021,17:10:59.027,$GPGGA,171059,3241.8221,N,11709.3681,W,1,9,1.7,19,M,,M,,*53
06/13/2021,17:11:00.127,$GPGGA,171100,3241.8221,N,11709.3681,W,1,9,1.7,19,M,,M,,*5E
06/13/2021,17:11:01.028,$GPGGA,171101,3241.8221,N,11709.3681,W,1,9,1.7,19,M,,M,,*5F
06/13/2021,17:11:02.127,$GPGGA,171102,3241.8223,N,11709.3681,W,1,9,1.7,19,M,,M,,*5E
06/13/2021,17:11:03.028,$GPGGA,171103,3241.8222,N,11709.3681,W,1,9,1.7,19,M,,M,,*5E
06/13/2021,17:11:04.128,$GPGGA,171104,3241.8223,N,11709.3681,W,1,9,1.7,19,M,,M,,*58
06/13/2021,17:11:05.028,$GPGGA,171105,3241.8222,N,11709.3681,W,1,9,1.7,19,M,,M,,*58
06/13/2021,17:11:06.128,$GPGGA,171106,3241.8223,N,11709.3681,W,1,9,1.7,19,M,,M,,*5A
06/13/2021,17:11:07.028,$GPGGA,171107,3241.8222,N,11709.3681,W,1,9,1.7,19,M,,M,,*5A
06/13/2021,17:11:08.129,$GPGGA,171108,3241.8224,N,11709.3681,W,1,9,1.7,19,M,,M,,*53
06/13/2021,17:11:09.028,$GPGGA,171109,3241.8223,N,11709.3681,W,1,9,1.7,19,M,,M,,*55
06/13/2021,17:11:10.128,$GPGGA,171110,3241.8224,N,11709.3681,W,1,9,1.7,19,M,,M,,*5A
06/13/2021,17:11:11.028,$GPGGA,171111,3241.8223,N,11709.3681,W,1,9,1.7,19,M,,M,,*5C
06/13/2021,17:11:12.128,$GPGGA,171112,3241.8224,N,11709.3681,W,1,9,1.7,19,M,,M,,*58
06/13/2021,17:11:13.028,$GPGGA,171113,3241.8224,N,11709.3681,W,1,9,1.7,19,M,,M,,*59
