06/13/2021,17:45:28.043,$GPGGA,174528,3241.8220,N,11709.3692,W,1,8,2.2,14,M,,M,,*5C
06/13/2021,17:45:28.943,$GPGGA,174529,3241.8219,N,11709.3692,W,1,8,2.2,14,M,,M,,*57
06/13/2021,17:45:30.043,$GPGGA,174530,3241.8220,N,11709.3692,W,1,8,2.2,14,M,,M,,*55
06/13/2021,17:45:30.943,$GPGGA,174531,3241.8219,N,11709.3693,W,1,8,2.2,14,M,,M,,*5F
06/13/2021,17:45:32.043,$GPGGA,174532,3241.8220,N,11709.3693,W,1,8,2.2,14,M,,M,,*56
06/13/2021,17:45:32.943,$GPGGA,174533,3241.8219,N,11709.3693,W,1,8,2.2,14,M,,M,,*5D
06/13/2021,17:45:34.043,$GPGGA,174534,3241.8220,N,11709.3694,W,1,8,2.2,14,M,,M,,*57
06/13/2021,17:45:34.943,$GPGGA,174535,3241.8219,N,11709.3694,W,1,8,2.2,14,M,,M,,*5C
06/13/2021,17:45:36.043,$GPGGA,174536,3241.8220,N,11709.3694,W,1,8,2.2,14,M,,M,,*55
06/13/2021,17:45:36.943,$GPGGA,174537,3241.8219,N,11709.3696,W,1,8,2.2,14,M,,M,,*5C
06/13/2021,17:45:38.043,$GPGGA,174538,3241.8220,N,11709.3695,W,1,8,2.2,14,M,,M,,*5A
06/13/2021,17:45:38.943,$GPGGA,174539,3241.8219,N,11709.3696,W,1,8,2.2,14,M,,M,,*52
06/13/2021,17:45:40.043,$GPGGA,174540,3241.8220,N,11709.3696,W,1,8,2.2,14,M,,M,,*56
06/13/2021,17:45:40.944,$GPGGA,174541,3241.8219,N,11709.3696,W,1,8,2.2,14,M,,M,,*5D
06/13/2021,17:45:42.044,$GPGGA,174542,3241.8220,N,11709.3697,W,1,8,2.2,14,M,,M,,*55
06/13/2021,17:45:42.944,$GPGGA,174543,3241.8219,N,11709.3697,W,1,8,2.2,14,M,,M,,*5E
06/13/2021,17:45:44.043,$GPGGA,174544,3241.8221,N,11709.3697,W,1,8,2.2,14,M,,M,,*52
06/13/2021,17:45:44.943,$GPGGA,174545,3241.8221,N,11709.3697,W,1,8,2.2,14,M,,M,,*53
06/13/2021,17:45:46.043,$GPGGA,174546,3241.8221,N,11709.3699,W,1,8,2.2,14,M,,M,,*5E
06/13/2021,17:45:46.944,$GPGGA,174547,3241.8221,N,11709.3698,W,1,8,2.2,14,M,,M,,*5E
06/13/2021,17:45:48.044,$GPGGA,174548,3241.8221,N,11709.3699,W,1,8,2.2,14,M,,M,,*50
06/13/2021,17:45:48.943,$GPGGA,174549,3241.8221,N,11709.3698,W,1,8,2.2,14,M,,M,,*50
06/13/2021,17:45:50.044,$GPGGA,174550,3241.8221,N,11709.3699,W,1,8,2.2,14,M,,M,,*59
06/13/2021,17:45:50.944,$GPGGA,174551,3241.8221,N,11709.3699,W,1,8,2.2,14,M,,M,,*58
06/13/2021,17:45:52.043,$GPGGA,174552,3241.8221,N,11709.3699,W,1,8,2.2,14,M,,M,,*5B
06/13/2021,17:45:52.944,$GPGGA,174553,3241.8221,N,11709.3699,W,1,8,2.2,14,M,,M,,*5A
06/13/2021,17:45:54.044,$GPGGA,174554,3241.8221,N,11709.3700,W,1,8,2.2,14,M,,M,,*5C
06/13/2021,17:45:54.944,$GPGGA,174555,3241.8221,N,11709.3700,W,1,8,2.2,14,M,,M,,*5D
06/13/2021,17:45:56.044,$GPGGA,174556,3241.8221,N,11709.3700,W,1,8,2.2,14,M,,M,,*5E
06/13/2021,17:45:56.943,$GPGGA,174557,3241.8221,N,11709.3700,W,1,8,2.2,14,M,,M,,*5F
06/13/2021,17:45:58.044,$GPGGA,174558,3241.8221,N,11709.3700,W,1,8,2.2,14,M,,M,,*50
06/13/2021,17:45:58.944,$GPGGA,174559,3241.8221,N,11709.3701,W,1,8,2.2,14,M,,M,,*50
06/13/2021,17:46:00.044,$GPGGA,174600,3241.8219,N,11709.3701,W,1,8,2.2,14,M,,M,,*54
06/13/2021,17:46:00.944,$GPGGA,174601,3241.8220,N,11709.3703,W,1,8,2.2,14,M,,M,,*5D
06/13/2021,17:46:02.044,$GPGGA,174602,3241.8219,N,11709.3702,W,1,8,2.2,14,M,,M,,*55
06/13/2021,17:46:02.944,$GPGGA,174603,3241.8220,N,11709.3703,W,1,8,2.2,14,M,,M,,*5F
06/13/2021,17:46:04.044,$GPGGA,174604,3241.8219,N,11709.3702,W,1,8,2.2,14,M,,M,,*53
06/13/2021,17:46:04.945,$GPGGA,174605,3241.8220,N,11709.3703,W,1,8,2.2,14,M,,M,,*59
06/13/2021,17:46:06.045,$GPGGA,174606,3241.8219,N,11709.3702,W,1,8,2.2,14,M,,M,,*51
06/13/2021,17:46:06.945,$GPGGA,174607,3241.8220,N,11709.3703,W,1,8,2.2,14,M,,M,,*5B
06/13/2021,17:46:08.044,$GPGGA,174608,3241.8219,N,11709.3702,W,1,8,2.2,14,M,,M,,*5F
06/13/2021,17:46:08.945,$GPGGA,174609,3241.8220,N,11709.3703,W,1,8,2.2,14,M,,M,,*55
06/13/2021,17:46:10.044,$GPGGA,174610,3241.8219,N,11709.3702,W,1,8,2.2,14,M,,M,,*56
06/13/2021,17:46:10.939,$GPGGA,174611,3241.8220,N,11709.3703,W,1,8,2.2,13,M,,M,,*5B
06/13/2021,17:46:12.031,$GPGGA,174612,3241.8219,N,11709.3702,W,1,8,2.2,13,M,,M,,*53
06/13/2021,17:46:12.930,$GPGGA,174613,3241.8220,N,11709.3703,W,1,8,2.2,13,M,,M,,*59
06/13/2021,17:46:14.030,$GPGGA,174614,3241.8219,N,11709.3702,W,1,8,2.2,13,M,,M,,*55
06/13/2021,17:46:14.930,$GPGGA,174615,3241.8220,N,11709.3703,W,1,8,2.2,13,M,,M,,*5F
06/13/2021,17:46:16.030,$GPGGA,174616,3241.8219,N,11709.3702,W,1,8,2.2,13,M,,M,,*57
06/13/2021,17:46:16.930,$GPGGA,174617,3241.8220,N,11709.3703,W,1,8,2.2,13,M,,M,,*5D
06/13/2021,17:46:18.030,$GPGGA,174618,3241.8219,N,11709.3702,W,1,8,2.2,13,M,,M,,*59
06/13/2021,17:46:18.930,$GPGGA,174619,3241.8220,N,11709.3703,W,1,8,2.2,13,M,,M,,*53
06/13/2021,17:46:20.030,$GPGGA,174620,3241.8219,N,11709.3702,W,1,8,2.2,13,M,,M,,*52
06/13/2021,17:46:20.930,$GPGGA,174621,3241.8220,N,11709.3703,W,1,8,2.2,13,M,,M,,*58
06/13/2021,17:46:22.030,$GPGGA,174622,3241.8219,N,11709.3702,W,1,8,2.2,13,M,,M,,*50
06/13/2021,17:46:22.930,$GPGGA,174623,3241.8220,N,11709.3703,W,1,8,2.2,13,M,,M,,*5A
06/13/2021,17:46:24.030,$GPGGA,174624,3241.8219,N,11709.3703,W,1,8,2.2,13,M,,M,,*57
06/13/2021,17:46:24.930,$GPGGA,174625,3241.8220,N,11709.3703,W,1,8,2.2,13,M,,M,,*5C
06/13/2021,17:46:26.030,$GPGGA,174626,3241.8219,N,11709.3703,W,1,8,2.2,13,M,,M,,*55
06/13/2021,17:46:26.930,$GPGGA,174627,3241.8220,N,11709.3702,W,1,8,2.2,13,M,,M,,*5F
06/13/2021,17:46:28.031,$GPGGA,174628,3241.8219,N,11709.3703,W,1,8,2.2,13,M,,M,,*5B
06/13/2021,17:46:28.930,$GPGGA,174629,3241.8220,N,11709.3702,W,1,8,2.2,13,M,,M,,*51
06/13/2021,17:46:30.031,$GPGGA,174630,3241.8219,N,11709.3703,W,1,8,2.2,13,M,,M,,*52
06/13/2021,17:46:30.930,$GPGGA,174631,3241.8220,N,11709.3702,W,1,8,2.2,13,M,,M,,*58
06/13/2021,17:46:32.031,$GPGGA,174632,3241.8219,N,11709.3703,W,1,8,2.2,13,M,,M,,*50
06/13/2021,17:46:32.930,$GPGGA,174633,3241.8220,N,11709.3701,W,1,8,2.2,12,M,,M,,*58
06/13/2021,17:46:34.031,$GPGGA,174634,3241.8219,N,11709.3701,W,1,8,2.2,12,M,,M,,*55
06/13/2021,17:46:34.931,$GPGGA,174635,3241.8221,N,11709.3701,W,1,8,2.2,12,M,,M,,*5F
06/13/2021,17:46:36.031,$GPGGA,174636,3241.8221,N,11709.3701,W,1,8,2.2,12,M,,M,,*5C
06/13/2021,17:46:36.931,$GPGGA,174637,3241.8221,N,11709.3701,W,1,8,2.2,12,M,,M,,*5D
06/13/2021,17:46:38.031,$GPGGA,174638,3241.8221,N,11709.3701,W,1,8,2.2,12,M,,M,,*52
06/13/2021,17:46:38.931,$GPGGA,174639,3241.8221,N,11709.3700,W,1,8,2.3,12,M,,M,,*53
06/13/2021,17:46:40.031,$GPGGA,174640,3241.8221,N,11709.3700,W,1,7,2.3,12,M,,M,,*52
06/13/2021,17:46:40.931,$GPGGA,174641,3241.8221,N,11709.3700,W,1,7,2.3,12,M,,M,,*53
06/13/2021,17:46:42.031,$GPGGA,174642,3241.8221,N,11709.3699,W,1,7,2.3,12,M,,M,,*51
06/13/2021,17:46:42.931,$GPGGA,174643,3241.8221,N,11709.3699,W,1,7,2.2,12,M,,M,,*51
06/13/2021,17:46:44.031,$GPGGA,174644,3241.8221,N,11709.3699,W,1,8,2.2,12,M,,M,,*59
06/13/2021,17:46:44.931,$GPGGA,174645,3241.8221,N,11709.3699,W,1,8,2.2,12,M,,M,,*58
06/13/2021,17:46:46.031,$GPGGA,174646,3241.8219,N,11709.3699,W,1,8,2.2,12,M,,M,,*50
06/13/2021,17:46:46.932,$GPGGA,174647,3241.8220,N,11709.3700,W,1,8,2.2,12,M,,M,,*5A
06/13/2021,17:46:48.031,$GPGGA,174648,3241.8218,N,11709.3700,W,1,8,2.2,12,M,,M,,*5E
06/13/2021,17:46:48.932,$GPGGA,174649,3241.8217,N,11709.3700,W,1,8,2.2,12,M,,M,,*50
06/13/2021,17:46:50.032,$GPGGA,174650,3241.8217,N,11709.3700,W,1,8,2.2,12,M,,M,,*58
06/13/2021,17:46:50.931,$GPGGA,174651,3241.8217,N,11709.3700,W,1,8,2.3,12,M,,M,,*58
06/13/2021,17:46:52.032,$GPGGA,174652,3241.8219,N,11709.3699,W,1,7,2.3,12,M,,M,,*5B
06/13/2021,17:46:52.932,$GPGGA,174653,3241.8218,N,11709.3699,W,1,7,2.3,12,M,,M,,*5B
06/13/2021,17:46:54.032,$GPGGA,174654,3241.8220,N,11709.3698,W,1,7,2.3,12,M,,M,,*56
06/13/2021,17:46:54.932,$GPGGA,174655,3241.8219,N,11709.3699,W,1,7,2.3,12,M,,M,,*5C
06/13/2021,17:46:56.032,$GPGGA,174656,3241.8221,N,11709.3697,W,1,7,2.3,12,M,,M,,*5A
06/13/2021,17:46:56.932,$GPGGA,174657,3241.8221,N,11709.3697,W,1,7,2.3,12,M,,M,,*5B
06/13/2021,17:46:58.032,$GPGGA,174658,3241.8221,N,11709.3697,W,1,7,2.3,12,M,,M,,*54
06/13/2021,17:46:58.932,$GPGGA,174659,3241.8221,N,11709.3696,W,1,7,2.3,12,M,,M,,*54
06/13/2021,17:47:00.032,$GPGGA,174700,3241.8221,N,11709.3696,W,1,7,2.3,12,M,,M,,*59
06/13/2021,17:47:00.933,$GPGGA,174701,3241.8223,N,11709.3695,W,1,7,2.3,12,M,,M,,*59
06/13/2021,17:47:02.032,$GPGGA,174702,3241.8222,N,11709.3696,W,1,7,2.3,12,M,,M,,*58
06/13/2021,17:47:02.929,$GPGGA,174703,3241.8223,N,11709.3694,W,1,7,2.3,12,M,,M,,*5A
06/13/2021,17:47:04.032,$GPGGA,174704,3241.8224,N,11709.3694,W,1,7,2.3,12,M,,M,,*5A
06/13/2021,17:47:04.933,$GPGGA,174705,3241.8223,N,11709.3693,W,1,7,2.3,12,M,,M,,*5B
06/13/2021,17:47:06.032,$GPGGA,174706,3241.8224,N,11709.3693,W,1,7,2.3,12,M,,M,,*5F
06/13/2021,17:47:06.932,$GPGGA,174707,3241.8224,N,11709.3693,W,1,7,2.3,12,M,,M,,*5E
06/13/2021,17:47:08.032,$GPGGA,174708,3241.8224,N,11709.3693,W,1,7,2.3,12,M,,M,,*51
06/13/2021,17:47:08.932,$GPGGA,174709,3241.8224,N,11709.3693,W,1,7,2.3,12,M,,M,,*50
06/13/2021,17:47:10.033,$GPGGA,174710,3241.8225,N,11709.3692,W,1,7,2.3,12,M,,M,,*58
06/13/2021,17:47:10.933,$GPGGA,174711,3241.8225,N,11709.3692,W,1,7,2.3,11,M,,M,,*5A
06/13/2021,17:47:12.033,$GPGGA,174712,3241.8225,N,11709.3691,W,1,7,2.3,11,M,,M,,*5A
06/13/2021,17:47:12.933,$GPGGA,174713,3241.8227,N,11709.3690,W,1,7,2.3,11,M,,M,,*58
06/13/2021,17:47:14.033,$GPGGA,174714,3241.8226,N,11709.3690,W,1,7,2.3,11,M,,M,,*5E
06/13/2021,17:47:14.933,$GPGGA,174715,3241.8228,N,11709.3689,W,1,7,2.3,11,M,,M,,*59
06/13/2021,17:47:16.033,$GPGGA,174716,3241.8228,N,11709.3689,W,1,7,2.3,11,M,,M,,*5A
06/13/2021,17:47:16.933,$GPGGA,174717,3241.8228,N,11709.3688,W,1,7,2.3,11,M,,M,,*5A
06/13/2021,17:47:18.033,$GPGGA,174718,3241.8228,N,11709.3687,W,1,7,2.3,11,M,,M,,*5A
06/13/2021,17:47:18.933,$GPGGA,174719,3241.8230,N,11709.3688,W,1,7,2.3,11,M,,M,,*5D
06/13/2021,17:47:20.033,$GPGGA,174720,3241.8229,N,11709.3687,W,1,7,2.3,11,M,,M,,*50
06/13/2021,17:47:20.934,$GPGGA,174721,3241.8230,N,11709.3686,W,1,7,2.3,12,M,,M,,*5B
06/13/2021,17:47:22.033,$GPGGA,174722,3241.8231,N,11709.3685,W,1,7,2.3,12,M,,M,,*5A
06/13/2021,17:47:22.933,$GPGGA,174723,3241.8232,N,11709.3685,W,1,7,2.3,12,M,,M,,*58
06/13/2021,17:47:24.033,$GPGGA,174724,3241.8232,N,11709.3684,W,1,7,2.3,12,M,,M,,*5E
06/13/2021,17:47:24.933,$GPGGA,174725,3241.8232,N,11709.3685,W,1,7,2.3,12,M,,M,,*5E
06/13/2021,17:47:26.033,$GPGGA,174726,3241.8232,N,11709.3683,W,1,7,2.3,12,M,,M,,*5B
06/13/2021,17:47:26.933,$GPGGA,174727,3241.8234,N,11709.3683,W,1,7,2.3,12,M,,M,,*5C
06/13/2021,17:47:28.034,$GPGGA,174728,3241.8233,N,11709.3682,W,1,7,2.3,12,M,,M,,*55
06/13/2021,17:47:28.934,$GPGGA,174729,3241.8235,N,11709.3682,W,1,7,2.3,12,M,,M,,*52
06/13/2021,17:47:30.034,$GPGGA,174730,3241.8234,N,11709.3681,W,1,7,2.3,12,M,,M,,*58
06/13/2021,17:47:30.934,$GPGGA,174731,3241.8235,N,11709.3681,W,1,7,2.3,12,M,,M,,*58
06/13/2021,17:47:32.034,$GPGGA,174732,3241.8235,N,11709.3681,W,1,7,2.3,12,M,,M,,*5B
06/13/2021,17:47:32.934,$GPGGA,174733,3241.8235,N,11709.3681,W,1,7,2.3,12,M,,M,,*5A
06/13/2021,17:47:34.034,$GPGGA,174734,3241.8237,N,11709.3681,W,1,7,2.3,12,M,,M,,*5F
06/13/2021,17:47:34.934,$GPGGA,174735,3241.8236,N,11709.3680,W,1,7,2.3,12,M,,M,,*5E
06/13/2021,17:47:36.034,$GPGGA,174736,3241.8237,N,11709.3681,W,1,7,2.3,12,M,,M,,*5D
06/13/2021,17:47:36.934,$GPGGA,174737,3241.8236,N,11709.3680,W,1,7,2.3,12,M,,M,,*5C
06/13/2021,17:47:38.035,$GPGGA,174738,3241.8237,N,11709.3679,W,1,7,2.3,12,M,,M,,*54
06/13/2021,17:47:38.934,$GPGGA,174739,3241.8238,N,11709.3679,W,1,7,2.3,12,M,,M,,*5A
06/13/2021,17:47:40.035,$GPGGA,174740,3241.8237,N,11709.3679,W,1,7,2.3,12,M,,M,,*5B
06/13/2021,17:47:40.935,$GPGGA,174741,3241.8238,N,11709.3679,W,1,7,2.3,12,M,,M,,*55
06/13/2021,17:47:42.034,$GPGGA,174742,3241.8237,N,11709.3678,W,1,7,2.3,12,M,,M,,*58
06/13/2021,17:47:42.934,$GPGGA,174743,3241.8238,N,11709.3678,W,1,7,2.3,12,M,,M,,*56
06/13/2021,17:47:44.034,$GPGGA,174744,3241.8237,N,11709.3678,W,1,7,2.3,12,M,,M,,*5E
06/13/2021,17:47:44.935,$GPGGA,174745,3241.8238,N,11709.3678,W,1,7,2.3,12,M,,M,,*50
06/13/2021,17:47:46.034,$GPGGA,174746,3241.8237,N,11709.3678,W,1,7,2.3,12,M,,M,,*5C
06/13/2021,17:47:46.934,$GPGGA,174747,3241.8238,N,11709.3678,W,1,7,2.3,12,M,,M,,*52
06/13/2021,17:47:48.035,$GPGGA,174748,3241.8237,N,11709.3678,W,1,7,2.3,12,M,,M,,*52
06/13/2021,17:47:48.934,$GPGGA,174749,3241.8238,N,11709.3677,W,1,7,2.3,12,M,,M,,*53
06/13/2021,17:47:50.035,$GPGGA,174750,3241.8239,N,11709.3678,W,1,7,2.3,12,M,,M,,*55
06/13/2021,17:47:50.935,$GPGGA,174751,3241.8239,N,11709.3677,W,1,7,2.3,12,M,,M,,*5B
06/13/2021,17:47:52.035,$GPGGA,174752,3241.8239,N,11709.3678,W,1,7,2.3,12,M,,M,,*57
06/13/2021,17:47:52.934,$GPGGA,174753,3241.8237,N,11709.3677,W,1,7,2.3,12,M,,M,,*57
06/13/2021,17:47:54.035,$GPGGA,174754,3241.8238,N,11709.3678,W,1,7,2.3,12,M,,M,,*50
06/13/2021,17:47:54.935,$GPGGA,174755,3241.8239,N,11709.3677,W,1,7,2.3,12,M,,M,,*5F
06/13/2021,17:47:56.035,$GPGGA,174756,3241.8237,N,11709.3678,W,1,7,2.3,12,M,,M,,*5D
06/13/2021,17:47:56.935,$GPGGA,174757,3241.8238,N,11709.3677,W,1,7,2.3,12,M,,M,,*5C
06/13/2021,17:47:58.035,$GPGGA,174758,3241.8237,N,11709.3678,W,1,7,2.3,12,M,,M,,*53
06/13/2021,17:47:58.935,$GPGGA,174759,3241.8238,N,11709.3677,W,1,7,2.3,12,M,,M,,*52
06/13/2021,17:48:00.035,$GPGGA,174800,3241.8237,N,11709.3676,W,1,7,2.3,12,M,,M,,*5F
06/13/2021,17:48:00.935,$GPGGA,174801,3241.8238,N,11709.3676,W,1,7,2.3,12,M,,M,,*51
06/13/2021,17:48:02.036,$GPGGA,174802,3241.8237,N,11709.3676,W,1,7,2.3,12,M,,M,,*5D
06/13/2021,17:48:02.936,$GPGGA,174803,3241.8238,N,11709.3676,W,1,7,2.3,12,M,,M,,*53
06/13/2021,17:48:04.035,$GPGGA,174804,3241.8237,N,11709.3676,W,1,7,2.3,12,M,,M,,*5B
06/13/2021,17:48:04.936,$GPGGA,174805,3241.8236,N,11709.3676,W,1,7,2.3,12,M,,M,,*5B
06/13/2021,17:48:06.036,$GPGGA,174806,3241.8237,N,11709.3676,W,1,7,2.3,12,M,,M,,*59
06/13/2021,17:48:06.936,$GPGGA,174807,3241.8236,N,11709.3676,W,1,7,2.3,12,M,,M,,*59
06/13/2021,17:48:08.036,$GPGGA,174808,3241.8237,N,11709.3675,W,1,7,2.3,12,M,,M,,*54
06/13/2021,17:48:08.935,$GPGGA,174809,3241.8236,N,11709.3675,W,1,7,2.3,12,M,,M,,*54
06/13/2021,17:48:10.036,$GPGGA,174810,3241.8237,N,11709.3675,W,1,7,2.3,12,M,,M,,*5D
06/13/2021,17:48:10.936,$GPGGA,174811,3241.8236,N,11709.3675,W,1,7,2.3,12,M,,M,,*5D
06/13/2021,17:48:12.036,$GPGGA,174812,3241.8238,N,11709.3675,W,1,7,2.3,12,M,,M,,*50
06/13/2021,17:48:12.936,$GPGGA,174813,3241.8237,N,11709.3675,W,1,7,2.3,12,M,,M,,*5E
06/13/2021,17:48:14.036,$GPGGA,174814,3241.8238,N,11709.3675,W,1,7,2.3,12,M,,M,,*56
06/13/2021,17:48:14.936,$GPGGA,174815,3241.8237,N,11709.3675,W,1,7,2.3,12,M,,M,,*58
06/13/2021,17:48:16.036,$GPGGA,174816,3241.8238,N,11709.3675,W,1,7,2.3,12,M,,M,,*54
06/13/2021,17:48:16.936,$GPGGA,174817,3241.8237,N,11709.3675,W,1,7,2.3,12,M,,M,,*5A
06/13/2021,17:48:18.036,$GPGGA,174818,3241.8238,N,11709.3675,W,1,7,2.3,12,M,,M,,*5A
06/13/2021,17:48:18.936,$GPGGA,174819,3241.8237,N,11709.3676,W,1,7,2.3,12,M,,M,,*57
06/13/2021,17:48:20.036,$GPGGA,174820,3241.8239,N,11709.3675,W,1,7,2.3,12,M,,M,,*50
06/13/2021,17:48:20.936,$GPGGA,174821,3241.8239,N,11709.3675,W,1,7,2.3,12,M,,M,,*51
06/13/2021,17:48:22.036,$GPGGA,174822,3241.8239,N,11709.3675,W,1,7,2.3,12,M,,M,,*52
06/13/2021,17:48:22.936,$GPGGA,174823,3241.8239,N,11709.3675,W,1,7,2.3,12,M,,M,,*53
06/13/2021,17:48:24.036,$GPGGA,174824,3241.8239,N,11709.3675,W,1,7,2.3,12,M,,M,,*54
06/13/2021,17:48:24.936,$GPGGA,174825,3241.8239,N,11709.3675,W,1,7,2.3,12,M,,M,,*55
06/13/2021,17:48:26.036,$GPGGA,174826,3241.8239,N,11709.3674,W,1,7,2.3,12,M,,M,,*57
06/13/2021,17:48:26.937,$GPGGA,174827,3241.8239,N,11709.3675,W,1,7,2.3,12,M,,M,,*57
06/13/2021,17:48:28.036,$GPGGA,174828,3241.8239,N,11709.3674,W,1,7,2.3,12,M,,M,,*59
06/13/2021,17:48:28.937,$GPGGA,174829,3241.8239,N,11709.3675,W,1,7,2.3,12,M,,M,,*59
06/13/2021,17:48:30.037,$GPGGA,174830,3241.8239,N,11709.3675,W,1,7,2.3,12,M,,M,,*51
06/13/2021,17:48:30.937,$GPGGA,174831,3241.8239,N,11709.3675,W,1,7,2.3,12,M,,M,,*50
06/13/2021,17:48:32.037,$GPGGA,174832,3241.8239,N,11709.3675,W,1,7,2.3,12,M,,M,,*53
06/13/2021,17:48:32.936,$GPGGA,174833,3241.8241,N,11709.3675,W,1,7,2.3,12,M,,M,,*5D
06/13/2021,17:48:34.037,$GPGGA,174834,3241.8240,N,11709.3675,W,1,7,2.3,12,M,,M,,*5B
06/13/2021,17:48:34.937,$GPGGA,174835,3241.8241,N,11709.3675,W,1,7,2.3,12,M,,M,,*5B
06/13/2021,17:48:36.037,$GPGGA,174836,3241.8240,N,11709.3675,W,1,7,2.3,12,M,,M,,*59
06/13/2021,17:48:36.937,$GPGGA,174837,3241.8241,N,11709.3675,W,1,7,2.3,12,M,,M,,*59
06/13/2021,17:48:38.038,$GPGGA,174838,3241.8240,N,11709.3675,W,1,7,2.3,12,M,,M,,*57
06/13/2021,17:48:38.938,$GPGGA,174839,3241.8239,N,11709.3675,W,1,7,2.3,12,M,,M,,*58
06/13/2021,17:48:40.038,$GPGGA,174840,3241.8239,N,11709.3675,W,1,7,2.3,12,M,,M,,*56
06/13/2021,17:48:40.937,$GPGGA,174841,3241.8239,N,11709.3675,W,1,7,2.3,12,M,,M,,*57
06/13/2021,17:48:42.038,$GPGGA,174842,3241.8239,N,11709.3675,W,1,7,2.3,12,M,,M,,*54
06/13/2021,17:48:42.937,$GPGGA,174843,3241.8239,N,11709.3675,W,1,7,2.3,13,M,,M,,*54
06/13/2021,17:48:44.038,$GPGGA,174844,3241.8241,N,11709.3675,W,1,7,2.3,13,M,,M,,*5C
06/13/2021,17:48:44.937,$GPGGA,174845,3241.8240,N,11709.3675,W,1,7,2.3,13,M,,M,,*5C
06/13/2021,17:48:46.038,$GPGGA,174846,3241.8241,N,11709.3674,W,1,7,2.3,13,M,,M,,*5F
06/13/2021,17:48:46.938,$GPGGA,174847,3241.8240,N,11709.3674,W,1,7,2.3,13,M,,M,,*5F
06/13/2021,17:48:48.037,$GPGGA,174848,3241.8241,N,11709.3674,W,1,7,2.3,13,M,,M,,*51
06/13/2021,17:48:48.938,$GPGGA,174849,3241.8240,N,11709.3674,W,1,7,2.3,13,M,,M,,*51
06/13/2021,17:48:50.038,$GPGGA,174850,3241.8241,N,11709.3674,W,1,7,2.3,13,M,,M,,*58
06/13/2021,17:48:50.937,$GPGGA,174851,3241.8240,N,11709.3674,W,1,7,2.3,13,M,,M,,*58
06/13/2021,17:48:52.038,$GPGGA,174852,3241.8241,N,11709.3674,W,1,7,2.3,13,M,,M,,*5A
06/13/2021,17:48:52.938,$GPGGA,174853,3241.8240,N,11709.3674,W,1,7,2.3,13,M,,M,,*5A
06/13/2021,17:48:54.038,$GPGGA,174854,3241.8241,N,11709.3674,W,1,7,2.3,13,M,,M,,*5C
06/13/2021,17:48:54.938,$GPGGA,174855,3241.8240,N,11709.3674,W,1,7,2.3,13,M,,M,,*5C
06/13/2021,17:48:56.038,$GPGGA,174856,3241.8241,N,11709.3674,W,1,7,2.3,13,M,,M,,*5E
06/13/2021,17:48:56.938,$GPGGA,174857,3241.8239,N,11709.3674,W,1,7,2.3,14,M,,M,,*57
06/13/2021,17:48:58.038,$GPGGA,174858,3241.8239,N,11709.3674,W,1,7,2.3,14,M,,M,,*58
06/13/2021,17:48:58.938,$GPGGA,174859,3241.8239,N,11709.3674,W,1,7,2.3,14,M,,M,,*59
06/13/2021,17:49:00.038,$GPGGA,174900,3241.8236,N,11709.3675,W,1,8,2.3,14,M,,M,,*55
06/13/2021,17:49:00.938,$GPGGA,174901,3241.8235,N,11709.3676,W,1,8,2.2,14,M,,M,,*55
06/13/2021,17:49:02.038,$GPGGA,174902,3241.8233,N,11709.3676,W,1,8,2.2,14,M,,M,,*50
06/13/2021,17:49:02.938,$GPGGA,174903,3241.8232,N,11709.3678,W,1,8,2.2,14,M,,M,,*5E
06/13/2021,17:49:04.038,$GPGGA,174904,3241.8232,N,11709.3677,W,1,8,2.2,14,M,,M,,*56
06/13/2021,17:49:04.938,$GPGGA,174905,3241.8232,N,11709.3678,W,1,8,2.2,14,M,,M,,*58
06/13/2021,17:49:06.038,$GPGGA,174906,3241.8230,N,11709.3677,W,1,8,2.2,14,M,,M,,*56
06/13/2021,17:49:06.939,$GPGGA,174907,3241.8229,N,11709.3678,W,1,8,2.2,15,M,,M,,*51
06/13/2021,17:49:08.039,$GPGGA,174908,3241.8228,N,11709.3677,W,1,8,2.2,15,M,,M,,*50
06/13/2021,17:49:08.938,$GPGGA,174909,3241.8228,N,11709.3678,W,1,8,2.2,15,M,,M,,*5E
06/13/2021,17:49:10.039,$GPGGA,174910,3241.8228,N,11709.3678,W,1,8,2.2,15,M,,M,,*56
06/13/2021,17:49:10.939,$GPGGA,174911,3241.8226,N,11709.3678,W,1,8,2.2,15,M,,M,,*59
06/13/2021,17:49:12.038,$GPGGA,174912,3241.8227,N,11709.3678,W,1,8,2.2,15,M,,M,,*5B
06/13/2021,17:49:12.939,$GPGGA,174913,3241.8226,N,11709.3678,W,1,8,2.2,16,M,,M,,*58
06/13/2021,17:49:14.039,$GPGGA,174914,3241.8225,N,11709.3678,W,1,8,2.2,16,M,,M,,*5C
06/13/2021,17:49:14.940,$GPGGA,174915,3241.8225,N,11709.3678,W,1,8,2.2,16,M,,M,,*5D
06/13/2021,17:49:16.039,$GPGGA,174916,3241.8225,N,11709.3678,W,1,8,2.2,16,M,,M,,*5E
06/13/2021,17:49:16.939,$GPGGA,174917,3241.8225,N,11709.3678,W,1,8,2.2,16,M,,M,,*5F
06/13/2021,17:49:18.039,$GPGGA,174918,3241.8225,N,11709.3678,W,1,8,2.2,16,M,,M,,*50
06/13/2021,17:49:18.940,$GPGGA,174919,3241.8225,N,11709.3678,W,1,8,2.2,17,M,,M,,*50
06/13/2021,17:49:20.039,$GPGGA,174920,3241.8225,N,11709.3678,W,1,8,2.2,17,M,,M,,*5A
06/13/2021,17:49:20.939,$GPGGA,174921,3241.8225,N,11709.3678,W,1,8,2.2,17,M,,M,,*5B
06/13/2021,17:49:22.040,$GPGGA,174922,3241.8225,N,11709.3678,W,1,8,2.2,17,M,,M,,*58
06/13/2021,17:49:22.939,$GPGGA,174923,3241.8227,N,11709.3677,W,1,8,2.2,17,M,,M,,*54
06/13/2021,17:49:24.040,$GPGGA,174924,3241.8226,N,11709.3678,W,1,8,2.2,17,M,,M,,*5D
06/13/2021,17:49:24.939,$GPGGA,174925,3241.8228,N,11709.3677,W,1,8,2.2,17,M,,M,,*5D
06/13/2021,17:49:26.040,$GPGGA,174926,3241.8228,N,11709.3676,W,1,8,2.2,17,M,,M,,*5F
06/13/2021,17:49:26.939,$GPGGA,174927,3241.8228,N,11709.3676,W,1,8,2.2,17,M,,M,,*5E
06/13/2021,17:49:28.040,$GPGGA,174928,3241.8228,N,11709.3676,W,1,8,2.2,17,M,,M,,*51
06/13/2021,17:49:28.940,$GPGGA,174929,3241.8228,N,11709.3675,W,1,8,2.2,18,M,,M,,*5C
06/13/2021,17:49:30.040,$GPGGA,174930,3241.8230,N,11709.3675,W,1,8,2.2,18,M,,M,,*5D
06/13/2021,17:49:30.940,$GPGGA,174931,3241.8229,N,11709.3675,W,1,8,2.2,18,M,,M,,*54
06/13/2021,17:49:32.040,$GPGGA,174932,3241.8231,N,11709.3674,W,1,8,2.2,18,M,,M,,*5F
06/13/2021,17:49:32.940,$GPGGA,174933,3241.8230,N,11709.3674,W,1,8,2.2,18,M,,M,,*5F
06/13/2021,17:49:34.040,$GPGGA,174934,3241.8232,N,11709.3674,W,1,8,2.2,18,M,,M,,*5A
06/13/2021,17:49:34.940,$GPGGA,174935,3241.8232,N,11709.3674,W,1,8,2.2,18,M,,M,,*5B
06/13/2021,17:49:36.040,$GPGGA,174936,3241.8232,N,11709.3674,W,1,8,2.2,18,M,,M,,*58
06/13/2021,17:49:36.940,$GPGGA,174937,3241.8232,N,11709.3674,W,1,8,2.2,18,M,,M,,*59
06/13/2021,17:49:38.040,$GPGGA,174938,3241.8232,N,11709.3674,W,1,8,2.2,18,M,,M,,*56
06/13/2021,17:49:38.940,$GPGGA,174939,3241.8232,N,11709.3674,W,1,8,2.2,18,M,,M,,*57
06/13/2021,17:49:40.041,$GPGGA,174940,3241.8234,N,11709.3674,W,1,8,2.2,18,M,,M,,*5F
06/13/2021,17:49:40.941,$GPGGA,174941,3241.8233,N,11709.3674,W,1,8,2.2,18,M,,M,,*59
06/13/2021,17:49:42.040,$GPGGA,174942,3241.8234,N,11709.3674,W,1,8,2.2,18,M,,M,,*5D
06/13/2021,17:49:42.941,$GPGGA,174943,3241.8233,N,11709.3674,W,1,8,2.2,18,M,,M,,*5B
06/13/2021,17:49:44.040,$GPGGA,174944,3241.8235,N,11709.3674,W,1,8,2.2,18,M,,M,,*5A
06/13/2021,17:49:44.941,$GPGGA,174945,3241.8234,N,11709.3674,W,1,8,2.2,19,M,,M,,*5B
06/13/2021,17:49:46.040,$GPGGA,174946,3241.8235,N,11709.3673,W,1,8,2.2,19,M,,M,,*5E
06/13/2021,17:49:46.931,$GPGGA,174947,3241.8234,N,11709.3674,W,1,8,2.2,19,M,,M,,*59
06/13/2021,17:49:48.041,$GPGGA,174948,3241.8235,N,11709.3673,W,1,8,2.2,19,M,,M,,*50
06/13/2021,17:49:48.941,$GPGGA,174949,3241.8234,N,11709.3674,W,1,8,2.2,19,M,,M,,*57
06/13/2021,17:49:50.041,$GPGGA,174950,3241.8235,N,11709.3674,W,1,8,2.2,19,M,,M,,*5E
06/13/2021,17:49:50.941,$GPGGA,174951,3241.8235,N,11709.3674,W,1,8,2.2,19,M,,M,,*5F
06/13/2021,17:49:52.041,$GPGGA,174952,3241.8235,N,11709.3674,W,1,8,2.2,19,M,,M,,*5C
06/13/2021,17:49:52.932,$GPGGA,174953,3241.8235,N,11709.3674,W,1,8,2.2,19,M,,M,,*5D
06/13/2021,17:49:54.041,$GPGGA,174954,3241.8235,N,11709.3674,W,1,8,2.2,19,M,,M,,*5A
06/13/2021,17:49:54.931,$GPGGA,174955,3241.8235,N,11709.3675,W,1,8,2.2,19,M,,M,,*5A
06/13/2021,17:49:56.041,$GPGGA,174956,3241.8237,N,11709.3675,W,1,8,2.2,19,M,,M,,*5B
06/13/2021,17:49:56.941,$GPGGA,174957,3241.8236,N,11709.3675,W,1,8,2.2,19,M,,M,,*5B
06/13/2021,17:49:58.041,$GPGGA,174958,3241.8237,N,11709.3675,W,1,8,2.2,19,M,,M,,*55
06/13/2021,17:49:58.932,$GPGGA,174959,3241.8236,N,11709.3675,W,1,8,2.2,19,M,,M,,*55
06/13/2021,17:50:00.041,$GPGGA,175000,3241.8237,N,11709.3675,W,1,8,2.2,19,M,,M,,*50
06/13/2021,17:50:00.932,$GPGGA,175001,3241.8236,N,11709.3675,W,1,8,2.2,19,M,,M,,*50
06/13/2021,17:50:02.041,$GPGGA,175002,3241.8237,N,11709.3675,W,1,8,2.2,19,M,,M,,*52
06/13/2021,17:50:02.932,$GPGGA,175003,3241.8236,N,11709.3675,W,1,8,2.2,19,M,,M,,*52
06/13/2021,17:50:04.042,$GPGGA,175004,3241.8237,N,11709.3676,W,1,8,2.2,19,M,,M,,*57
06/13/2021,17:50:04.932,$GPGGA,175005,3241.8236,N,11709.3676,W,1,8,2.2,19,M,,M,,*57
06/13/2021,17:50:06.041,$GPGGA,175006,3241.8238,N,11709.3676,W,1,8,2.2,19,M,,M,,*5A
06/13/2021,17:50:06.932,$GPGGA,175007,3241.8236,N,11709.3676,W,1,8,2.2,19,M,,M,,*55
06/13/2021,17:50:08.032,$GPGGA,175008,3241.8237,N,11709.3676,W,1,8,2.2,19,M,,M,,*5B
06/13/2021,17:50:08.932,$GPGGA,175009,3241.8236,N,11709.3676,W,1,8,2.2,19,M,,M,,*5B
06/13/2021,17:50:10.041,$GPGGA,175010,3241.8237,N,11709.3676,W,1,8,2.2,19,M,,M,,*52
06/13/2021,17:50:10.932,$GPGGA,175011,3241.8236,N,11709.3676,W,1,8,2.2,19,M,,M,,*52
06/13/2021,17:50:12.042,$GPGGA,175012,3241.8237,N,11709.3676,W,1,8,2.2,19,M,,M,,*50
06/13/2021,17:50:12.932,$GPGGA,175013,3241.8236,N,11709.3676,W,1,8,2.2,19,M,,M,,*50
06/13/2021,17:50:14.042,$GPGGA,175014,3241.8237,N,11709.3676,W,1,8,2.2,19,M,,M,,*56
06/13/2021,17:50:14.932,$GPGGA,175015,3241.8236,N,11709.3678,W,1,8,2.2,19,M,,M,,*58
06/13/2021,17:50:16.032,$GPGGA,175016,3241.8235,N,11709.3677,W,1,8,2.2,19,M,,M,,*57
06/13/2021,17:50:16.932,$GPGGA,175017,3241.8235,N,11709.3678,W,1,8,2.2,19,M,,M,,*59
06/13/2021,17:50:18.042,$GPGGA,175018,3241.8235,N,11709.3677,W,1,8,2.2,19,M,,M,,*59
06/13/2021,17:50:18.932,$GPGGA,175019,3241.8235,N,11709.3678,W,1,8,2.2,19,M,,M,,*57
06/13/2021,17:50:20.033,$GPGGA,175020,3241.8235,N,11709.3677,W,1,8,2.2,19,M,,M,,*52
06/13/2021,17:50:20.932,$GPGGA,175021,3241.8235,N,11709.3678,W,1,8,2.2,19,M,,M,,*5C
06/13/2021,17:50:22.033,$GPGGA,175022,3241.8235,N,11709.3678,W,1,8,2.2,19,M,,M,,*5F
06/13/2021,17:50:22.933,$GPGGA,175023,3241.8235,N,11709.3678,W,1,8,2.2,19,M,,M,,*5E
06/13/2021,17:50:24.033,$GPGGA,175024,3241.8235,N,11709.3678,W,1,8,2.2,19,M,,M,,*59
06/13/2021,17:50:24.933,$GPGGA,175025,3241.8235,N,11709.3678,W,1,8,2.2,19,M,,M,,*58
06/13/2021,17:50:26.033,$GPGGA,175026,3241.8235,N,11709.3678,W,1,8,2.2,19,M,,M,,*5B
06/13/2021,17:50:26.933,$GPGGA,175027,3241.8235,N,11709.3679,W,1,8,2.2,19,M,,M,,*5B
06/13/2021,17:50:28.033,$GPGGA,175028,3241.8235,N,11709.3679,W,1,8,2.2,19,M,,M,,*54
06/13/2021,17:50:28.933,$GPGGA,175029,3241.8235,N,11709.3679,W,1,8,2.2,19,M,,M,,*55
06/13/2021,17:50:30.033,$GPGGA,175030,3241.8235,N,11709.3681,W,1,8,2.2,19,M,,M,,*5A
06/13/2021,17:50:30.933,$GPGGA,175031,3241.8235,N,11709.3680,W,1,8,2.2,19,M,,M,,*5A
06/13/2021,17:50:32.033,$GPGGA,175032,3241.8235,N,11709.3681,W,1,8,2.2,19,M,,M,,*58
06/13/2021,17:50:32.933,$GPGGA,175033,3241.8237,N,11709.3680,W,1,8,2.2,19,M,,M,,*5A
06/13/2021,17:50:34.043,$GPGGA,175034,3241.8236,N,11709.3681,W,1,8,2.2,19,M,,M,,*5D
06/13/2021,17:50:34.933,$GPGGA,175035,3241.8237,N,11709.3681,W,1,8,2.2,19,M,,M,,*5D
06/13/2021,17:50:36.033,$GPGGA,175036,3241.8236,N,11709.3681,W,1,8,2.2,19,M,,M,,*5F
06/13/2021,17:50:36.933,$GPGGA,175037,3241.8237,N,11709.3681,W,1,8,2.2,19,M,,M,,*5F
06/13/2021,17:50:38.033,$GPGGA,175038,3241.8236,N,11709.3682,W,1,8,2.2,19,M,,M,,*52
06/13/2021,17:50:38.933,$GPGGA,175039,3241.8237,N,11709.3682,W,1,8,2.2,19,M,,M,,*52
06/13/2021,17:50:40.034,$GPGGA,175040,3241.8236,N,11709.3682,W,1,8,2.2,19,M,,M,,*5D
06/13/2021,17:50:40.933,$GPGGA,175041,3241.8235,N,11709.3682,W,1,8,2.2,18,M,,M,,*5E
06/13/2021,17:50:42.034,$GPGGA,175042,3241.8235,N,11709.3683,W,1,8,2.2,18,M,,M,,*5C
06/13/2021,17:50:42.933,$GPGGA,175043,3241.8235,N,11709.3683,W,1,8,2.2,18,M,,M,,*5D
06/13/2021,17:50:44.034,$GPGGA,175044,3241.8235,N,11709.3683,W,1,8,2.2,18,M,,M,,*5A
06/13/2021,17:50:44.933,$GPGGA,175045,3241.8235,N,11709.3685,W,1,8,2.2,18,M,,M,,*5D
06/13/2021,17:50:46.033,$GPGGA,175046,3241.8235,N,11709.3684,W,1,8,2.2,18,M,,M,,*5F
06/13/2021,17:50:46.934,$GPGGA,175047,3241.8235,N,11709.3685,W,1,8,2.2,18,M,,M,,*5F
06/13/2021,17:50:48.034,$GPGGA,175048,3241.8234,N,11709.3685,W,1,8,2.2,18,M,,M,,*51
06/13/2021,17:50:48.934,$GPGGA,175049,3241.8235,N,11709.3685,W,1,8,2.2,17,M,,M,,*5E
06/13/2021,17:50:50.034,$GPGGA,175050,3241.8234,N,11709.3686,W,1,8,2.2,17,M,,M,,*54
06/13/2021,17:50:50.934,$GPGGA,175051,3241.8235,N,11709.3686,W,1,8,2.2,17,M,,M,,*54
06/13/2021,17:50:52.034,$GPGGA,175052,3241.8234,N,11709.3688,W,1,8,2.2,17,M,,M,,*58
06/13/2021,17:50:52.934,$GPGGA,175053,3241.8235,N,11709.3687,W,1,8,2.2,17,M,,M,,*57
06/13/2021,17:50:54.034,$GPGGA,175054,3241.8234,N,11709.3688,W,1,8,2.2,17,M,,M,,*5E
06/13/2021,17:50:54.934,$GPGGA,175055,3241.8233,N,11709.3689,W,1,8,2.2,17,M,,M,,*59
06/13/2021,17:50:56.034,$GPGGA,175056,3241.8234,N,11709.3688,W,1,8,2.2,17,M,,M,,*5C
06/13/2021,17:50:56.934,$GPGGA,175057,3241.8233,N,11709.3689,W,1,8,2.2,16,M,,M,,*5A
06/13/2021,17:50:58.034,$GPGGA,175058,3241.8234,N,11709.3689,W,1,8,2.2,16,M,,M,,*52
06/13/2021,17:50:58.934,$GPGGA,175059,3241.8232,N,11709.3689,W,1,8,2.2,16,M,,M,,*55
06/13/2021,17:51:00.035,$GPGGA,175100,3241.8232,N,11709.3690,W,1,8,2.2,16,M,,M,,*50
06/13/2021,17:51:00.935,$GPGGA,175101,3241.8232,N,11709.3690,W,1,8,2.2,16,M,,M,,*51
06/13/2021,17:51:02.035,$GPGGA,175102,3241.8232,N,11709.3690,W,1,8,2.2,16,M,,M,,*52
06/13/2021,17:51:02.935,$GPGGA,175103,3241.8232,N,11709.3692,W,1,8,2.2,15,M,,M,,*52
06/13/2021,17:51:04.034,$GPGGA,175104,3241.8232,N,11709.3691,W,1,8,2.2,15,M,,M,,*56
06/13/2021,17:51:04.934,$GPGGA,175105,3241.8232,N,11709.3692,W,1,8,2.2,15,M,,M,,*54
06/13/2021,17:51:06.034,$GPGGA,175106,3241.8232,N,11709.3692,W,1,8,2.2,15,M,,M,,*57
06/13/2021,17:51:06.935,$GPGGA,175107,3241.8232,N,11709.3692,W,1,8,2.2,15,M,,M,,*56
06/13/2021,17:51:08.035,$GPGGA,175108,3241.8232,N,11709.3692,W,1,8,2.2,15,M,,M,,*59
06/13/2021,17:51:08.935,$GPGGA,175109,3241.8232,N,11709.3693,W,1,8,2.2,14,M,,M,,*58
06/13/2021,17:51:10.035,$GPGGA,175110,3241.8232,N,11709.3693,W,1,8,2.2,14,M,,M,,*50
06/13/2021,17:51:10.935,$GPGGA,175111,3241.8232,N,11709.3693,W,1,8,2.2,14,M,,M,,*51
06/13/2021,17:51:12.035,$GPGGA,175112,3241.8232,N,11709.3694,W,1,8,2.2,14,M,,M,,*55
06/13/2021,17:51:12.935,$GPGGA,175113,3241.8232,N,11709.3694,W,1,8,2.2,14,M,,M,,*54
06/13/2021,17:51:14.035,$GPGGA,175114,3241.8232,N,11709.3694,W,1,8,2.2,14,M,,M,,*53
06/13/2021,17:51:14.935,$GPGGA,175115,3241.8232,N,11709.3694,W,1,8,2.2,13,M,,M,,*55
06/13/2021,17:51:16.085,$GPGGA,175116,3241.8232,N,11709.3694,W,1,8,2.2,13,M,,M,,*56
06/13/2021,17:51:16.985,$GPGGA,175117,3241.8232,N,11709.3696,W,1,8,2.2,13,M,,M,,*55
06/13/2021,17:51:18.085,$GPGGA,175118,3241.8232,N,11709.3695,W,1,8,2.2,13,M,,M,,*59
06/13/2021,17:51:18.986,$GPGGA,175119,3241.8232,N,11709.3696,W,1,8,2.2,13,M,,M,,*5B
06/13/2021,17:51:20.086,$GPGGA,175120,3241.8232,N,11709.3695,W,1,8,2.2,13,M,,M,,*52
06/13/2021,17:51:20.986,$GPGGA,175121,3241.8232,N,11709.3696,W,1,8,2.2,13,M,,M,,*50
06/13/2021,17:51:22.085,$GPGGA,175122,3241.8232,N,11709.3695,W,1,8,2.2,13,M,,M,,*50
06/13/2021,17:51:22.986,$GPGGA,175123,3241.8232,N,11709.3696,W,1,8,2.2,13,M,,M,,*52
06/13/2021,17:51:24.085,$GPGGA,175124,3241.8232,N,11709.3696,W,1,8,2.2,13,M,,M,,*55
06/13/2021,17:51:24.985,$GPGGA,175125,3241.8232,N,11709.3696,W,1,8,2.2,13,M,,M,,*54
06/13/2021,17:51:26.086,$GPGGA,175126,3241.8232,N,11709.3696,W,1,8,2.2,13,M,,M,,*57
06/13/2021,17:51:26.985,$GPGGA,175127,3241.8234,N,11709.3697,W,1,8,2.2,12,M,,M,,*50
06/13/2021,17:51:28.086,$GPGGA,175128,3241.8233,N,11709.3697,W,1,8,2.2,12,M,,M,,*58
06/13/2021,17:51:28.986,$GPGGA,175129,3241.8234,N,11709.3697,W,1,8,2.2,12,M,,M,,*5E
06/13/2021,17:51:30.086,$GPGGA,175130,3241.8233,N,11709.3697,W,1,8,2.2,12,M,,M,,*51
06/13/2021,17:51:30.986,$GPGGA,175131,3241.8234,N,11709.3697,W,1,8,2.2,12,M,,M,,*57
06/13/2021,17:51:32.086,$GPGGA,175132,3241.8235,N,11709.3697,W,1,8,2.2,12,M,,M,,*55
06/13/2021,17:51:32.986,$GPGGA,175133,3241.8234,N,11709.3697,W,1,8,2.2,12,M,,M,,*55
06/13/2021,17:51:34.086,$GPGGA,175134,3241.8235,N,11709.3699,W,1,8,2.2,12,M,,M,,*5D
06/13/2021,17:51:34.986,$GPGGA,175135,3241.8234,N,11709.3698,W,1,8,2.2,12,M,,M,,*5C
06/13/2021,17:51:36.086,$GPGGA,175136,3241.8235,N,11709.3699,W,1,8,2.2,12,M,,M,,*5F
06/13/2021,17:51:36.986,$GPGGA,175137,3241.8235,N,11709.3698,W,1,8,2.2,12,M,,M,,*5F
06/13/2021,17:51:38.086,$GPGGA,175138,3241.8235,N,11709.3699,W,1,8,2.2,12,M,,M,,*51
06/13/2021,17:51:38.986,$GPGGA,175139,3241.8235,N,11709.3698,W,1,8,2.2,12,M,,M,,*51
06/13/2021,17:51:40.087,$GPGGA,175140,3241.8237,N,11709.3699,W,1,8,2.2,12,M,,M,,*5C
06/13/2021,17:51:40.987,$GPGGA,175141,3241.8236,N,11709.3699,W,1,8,2.2,12,M,,M,,*5C
06/13/2021,17:51:42.087,$GPGGA,175142,3241.8237,N,11709.3699,W,1,8,2.2,12,M,,M,,*5E
06/13/2021,17:51:42.986,$GPGGA,175143,3241.8238,N,11709.3700,W,1,8,2.2,12,M,,M,,*51
06/13/2021,17:51:44.087,$GPGGA,175144,3241.8237,N,11709.3700,W,1,8,2.2,12,M,,M,,*59
06/13/2021,17:51:44.986,$GPGGA,175145,3241.8238,N,11709.3700,W,1,8,2.2,12,M,,M,,*57
06/13/2021,17:51:46.087,$GPGGA,175146,3241.8237,N,11709.3700,W,1,8,2.2,12,M,,M,,*5B
06/13/2021,17:51:46.987,$GPGGA,175147,3241.8239,N,11709.3700,W,1,8,2.2,12,M,,M,,*54
06/13/2021,17:51:48.087,$GPGGA,175148,3241.8239,N,11709.3700,W,1,8,2.2,12,M,,M,,*5B
06/13/2021,17:51:48.987,$GPGGA,175149,3241.8239,N,11709.3701,W,1,8,2.2,12,M,,M,,*5B
06/13/2021,17:51:50.087,$GPGGA,175150,3241.8239,N,11709.3701,W,1,8,2.2,12,M,,M,,*53
06/13/2021,17:51:50.987,$GPGGA,175151,3241.8239,N,11709.3701,W,1,8,2.2,12,M,,M,,*52
06/13/2021,17:51:52.088,$GPGGA,175152,3241.8239,N,11709.3701,W,1,8,2.2,12,M,,M,,*51
06/13/2021,17:51:52.987,$GPGGA,175153,3241.8239,N,11709.3703,W,1,8,2.2,12,M,,M,,*52
06/13/2021,17:51:54.087,$GPGGA,175154,3241.8239,N,11709.3702,W,1,8,2.2,12,M,,M,,*54
06/13/2021,17:51:54.988,$GPGGA,175155,3241.8239,N,11709.3703,W,1,8,2.2,12,M,,M,,*54
06/13/2021,17:51:56.087,$GPGGA,175156,3241.8239,N,11709.3702,W,1,8,2.2,12,M,,M,,*56
06/13/2021,17:51:56.987,$GPGGA,175157,3241.8239,N,11709.3703,W,1,8,2.2,12,M,,M,,*56
06/13/2021,17:51:58.087,$GPGGA,175158,3241.8239,N,11709.3702,W,1,8,2.2,12,M,,M,,*58
06/13/2021,17:51:58.987,$GPGGA,175159,3241.8239,N,11709.3703,W,1,8,2.2,12,M,,M,,*58
06/13/2021,17:52:00.088,$GPGGA,175200,3241.8239,N,11709.3703,W,1,8,2.2,12,M,,M,,*57
06/13/2021,17:52:00.988,$GPGGA,175201,3241.8239,N,11709.3703,W,1,8,2.2,12,M,,M,,*56
06/13/2021,17:52:02.088,$GPGGA,175202,3241.8239,N,11709.3702,W,1,8,2.2,12,M,,M,,*54
06/13/2021,17:52:02.988,$GPGGA,175203,3241.8239,N,11709.3703,W,1,8,2.2,12,M,,M,,*54
06/13/2021,17:52:04.088,$GPGGA,175204,3241.8239,N,11709.3703,W,1,8,2.2,12,M,,M,,*53
06/13/2021,17:52:04.987,$GPGGA,175205,3241.8239,N,11709.3699,W,1,8,1.6,12,M,,M,,*57
06/13/2021,17:52:06.088,$GPGGA,175206,3241.8239,N,11709.3698,W,1,9,1.6,12,M,,M,,*54
06/13/2021,17:52:06.988,$GPGGA,175207,3241.8239,N,11709.3696,W,1,9,1.6,12,M,,M,,*5B
06/13/2021,17:52:08.088,$GPGGA,175208,3241.8239,N,11709.3694,W,1,9,1.6,12,M,,M,,*56
06/13/2021,17:52:08.988,$GPGGA,175209,3241.8239,N,11709.3693,W,1,9,1.6,13,M,,M,,*51
06/13/2021,17:52:10.088,$GPGGA,175210,3241.8239,N,11709.3692,W,1,9,1.6,13,M,,M,,*58
06/13/2021,17:52:10.988,$GPGGA,175211,3241.8237,N,11709.3691,W,1,9,1.6,13,M,,M,,*54
06/13/2021,17:52:12.088,$GPGGA,175212,3241.8238,N,11709.3690,W,1,9,1.6,13,M,,M,,*59
06/13/2021,17:52:12.988,$GPGGA,175213,3241.8237,N,11709.3689,W,1,9,1.6,14,M,,M,,*58
06/13/2021,17:52:14.088,$GPGGA,175214,3241.8238,N,11709.3689,W,1,9,1.6,14,M,,M,,*50
06/13/2021,17:52:14.988,$GPGGA,175215,3241.8237,N,11709.3688,W,1,9,1.6,14,M,,M,,*5F
06/13/2021,17:52:16.088,$GPGGA,175216,3241.8238,N,11709.3689,W,1,9,1.6,14,M,,M,,*52
06/13/2021,17:52:16.988,$GPGGA,175217,3241.8237,N,11709.3687,W,1,9,1.6,15,M,,M,,*53
06/13/2021,17:52:18.088,$GPGGA,175218,3241.8238,N,11709.3688,W,1,9,1.6,15,M,,M,,*5C
06/13/2021,17:52:18.988,$GPGGA,175219,3241.8237,N,11709.3686,W,1,9,1.6,15,M,,M,,*5C
06/13/2021,17:52:20.088,$GPGGA,175220,3241.8238,N,11709.3685,W,1,9,1.6,15,M,,M,,*5A
06/13/2021,17:52:20.989,$GPGGA,175221,3241.8237,N,11709.3685,W,1,9,1.6,16,M,,M,,*57
06/13/2021,17:52:22.089,$GPGGA,175222,3241.8238,N,11709.3685,W,1,9,1.6,16,M,,M,,*5B
06/13/2021,17:52:22.989,$GPGGA,175223,3241.8237,N,11709.3684,W,1,9,1.6,16,M,,M,,*54
06/13/2021,17:52:24.089,$GPGGA,175224,3241.8238,N,11709.3685,W,1,9,1.6,16,M,,M,,*5D
06/13/2021,17:52:24.989,$GPGGA,175225,3241.8237,N,11709.3684,W,1,9,1.6,16,M,,M,,*52
06/13/2021,17:52:26.089,$GPGGA,175226,3241.8238,N,11709.3685,W,1,9,1.6,16,M,,M,,*5F
06/13/2021,17:52:26.989,$GPGGA,175227,3241.8237,N,11709.3683,W,1,9,1.6,17,M,,M,,*56
06/13/2021,17:52:28.089,$GPGGA,175228,3241.8238,N,11709.3683,W,1,9,1.6,17,M,,M,,*56
06/13/2021,17:52:28.989,$GPGGA,175229,3241.8237,N,11709.3683,W,1,9,1.6,17,M,,M,,*58
06/13/2021,17:52:30.089,$GPGGA,175230,3241.8238,N,11709.3683,W,1,9,1.6,17,M,,M,,*5F
06/13/2021,17:52:30.989,$GPGGA,175231,3241.8239,N,11709.3683,W,1,9,1.6,18,M,,M,,*50
06/13/2021,17:52:32.089,$GPGGA,175232,3241.8239,N,11709.3682,W,1,9,1.6,18,M,,M,,*52
06/13/2021,17:52:32.990,$GPGGA,175233,3241.8239,N,11709.3682,W,1,9,1.6,18,M,,M,,*53
06/13/2021,17:52:34.089,$GPGGA,175234,3241.8239,N,11709.3682,W,1,9,1.6,18,M,,M,,*54
06/13/2021,17:52:34.989,$GPGGA,175235,3241.8239,N,11709.3682,W,1,9,1.6,19,M,,M,,*54
06/13/2021,17:52:36.089,$GPGGA,175236,3241.8239,N,11709.3682,W,1,9,1.6,19,M,,M,,*57
06/13/2021,17:52:36.990,$GPGGA,175237,3241.8239,N,11709.3682,W,1,9,1.6,19,M,,M,,*56
06/13/2021,17:52:38.090,$GPGGA,175238,3241.8239,N,11709.3682,W,1,9,1.6,19,M,,M,,*59
06/13/2021,17:52:38.990,$GPGGA,175239,3241.8239,N,11709.3682,W,1,9,1.6,20,M,,M,,*52
06/13/2021,17:52:40.090,$GPGGA,175240,3241.8239,N,11709.3681,W,1,9,1.6,20,M,,M,,*5F
06/13/2021,17:52:40.989,$GPGGA,175241,3241.8239,N,11709.3681,W,1,9,1.6,20,M,,M,,*5E
06/13/2021,17:52:42.090,$GPGGA,175242,3241.8239,N,11709.3681,W,1,9,1.6,20,M,,M,,*5D
06/13/2021,17:52:42.990,$GPGGA,175243,3241.8239,N,11709.3681,W,1,9,1.6,20,M,,M,,*5C
06/13/2021,17:52:44.090,$GPGGA,175244,3241.8239,N,11709.3681,W,1,9,1.6,20,M,,M,,*5B
06/13/2021,17:52:44.989,$GPGGA,175245,3241.8239,N,11709.3682,W,1,9,1.6,21,M,,M,,*58
06/13/2021,17:52:46.090,$GPGGA,175246,3241.8239,N,11709.3682,W,1,9,1.6,21,M,,M,,*5B
06/13/2021,17:52:46.990,$GPGGA,175247,3241.8239,N,11709.3682,W,1,9,1.6,21,M,,M,,*5A
06/13/2021,17:52:48.089,$GPGGA,175248,3241.8239,N,11709.3682,W,1,9,1.6,21,M,,M,,*55
06/13/2021,17:52:48.990,$GPGGA,175249,3241.8239,N,11709.3682,W,1,9,1.6,21,M,,M,,*54
06/13/2021,17:52:50.090,$GPGGA,175250,3241.8239,N,11709.3682,W,1,9,1.6,21,M,,M,,*5C
06/13/2021,17:52:50.991,$GPGGA,175251,3241.8239,N,11709.3683,W,1,9,1.6,22,M,,M,,*5F
06/13/2021,17:52:52.090,$GPGGA,175252,3241.8239,N,11709.3683,W,1,9,1.6,22,M,,M,,*5C
06/13/2021,17:52:52.990,$GPGGA,175253,3241.8239,N,11709.3683,W,1,9,1.6,22,M,,M,,*5D
06/13/2021,17:52:54.090,$GPGGA,175254,3241.8239,N,11709.3685,W,1,9,1.6,22,M,,M,,*5C
06/13/2021,17:52:54.990,$GPGGA,175255,3241.8239,N,11709.3684,W,1,9,1.6,22,M,,M,,*5C
06/13/2021,17:52:56.090,$GPGGA,175256,3241.8237,N,11709.3685,W,1,9,1.6,22,M,,M,,*50
06/13/2021,17:52:56.990,$GPGGA,175257,3241.8238,N,11709.3685,W,1,9,1.6,22,M,,M,,*5E
06/13/2021,17:52:58.090,$GPGGA,175258,3241.8237,N,11709.3685,W,1,9,1.6,22,M,,M,,*5E
06/13/2021,17:52:58.990,$GPGGA,175259,3241.8238,N,11709.3685,W,1,9,1.6,22,M,,M,,*50
06/13/2021,17:53:00.090,$GPGGA,175300,3241.8237,N,11709.3685,W,1,9,1.6,22,M,,M,,*52
06/13/2021,17:53:00.990,$GPGGA,175301,3241.8238,N,11709.3686,W,1,9,1.6,23,M,,M,,*5E
06/13/2021,17:53:02.090,$GPGGA,175302,3241.8237,N,11709.3686,W,1,9,1.6,23,M,,M,,*52
06/13/2021,17:53:02.990,$GPGGA,175303,3241.8238,N,11709.3686,W,1,9,1.6,23,M,,M,,*5C
06/13/2021,17:53:04.090,$GPGGA,175304,3241.8237,N,11709.3686,W,1,9,1.6,23,M,,M,,*54
06/13/2021,17:53:04.991,$GPGGA,175305,3241.8238,N,11709.3686,W,1,9,1.6,23,M,,M,,*5A
06/13/2021,17:53:06.091,$GPGGA,175306,3241.8237,N,11709.3686,W,1,9,1.6,23,M,,M,,*56
06/13/2021,17:53:06.991,$GPGGA,175307,3241.8236,N,11709.3688,W,1,9,1.6,23,M,,M,,*58
06/13/2021,17:53:08.091,$GPGGA,175308,3241.8237,N,11709.3687,W,1,9,1.6,23,M,,M,,*59
06/13/2021,17:53:08.991,$GPGGA,175309,3241.8236,N,11709.3688,W,1,9,1.6,23,M,,M,,*56
06/13/2021,17:53:10.091,$GPGGA,175310,3241.8237,N,11709.3687,W,1,9,1.6,23,M,,M,,*50
06/13/2021,17:53:10.991,$GPGGA,175311,3241.8236,N,11709.3688,W,1,9,1.6,23,M,,M,,*5F
06/13/2021,17:53:12.091,$GPGGA,175312,3241.8235,N,11709.3687,W,1,9,1.6,23,M,,M,,*50
06/13/2021,17:53:12.992,$GPGGA,175313,3241.8235,N,11709.3689,W,1,9,1.6,23,M,,M,,*5F
06/13/2021,17:53:14.092,$GPGGA,175314,3241.8235,N,11709.3688,W,1,9,1.6,23,M,,M,,*59
06/13/2021,17:53:14.992,$GPGGA,175315,3241.8235,N,11709.3689,W,1,9,1.6,23,M,,M,,*59
06/13/2021,17:53:16.091,$GPGGA,175316,3241.8235,N,11709.3688,W,1,9,1.6,23,M,,M,,*5B
06/13/2021,17:53:16.991,$GPGGA,175317,3241.8235,N,11709.3689,W,1,9,1.6,23,M,,M,,*5B
06/13/2021,17:53:18.091,$GPGGA,175318,3241.8235,N,11709.3689,W,1,9,1.6,23,M,,M,,*54
06/13/2021,17:53:18.992,$GPGGA,175319,3241.8235,N,11709.3689,W,1,9,1.6,23,M,,M,,*55
06/13/2021,17:53:20.092,$GPGGA,175320,3241.8234,N,11709.3689,W,1,9,1.6,23,M,,M,,*5E
06/13/2021,17:53:20.992,$GPGGA,175321,3241.8235,N,11709.3690,W,1,9,1.6,23,M,,M,,*56
06/13/2021,17:53:22.092,$GPGGA,175322,3241.8234,N,11709.3690,W,1,9,1.6,23,M,,M,,*54
06/13/2021,17:53:22.991,$GPGGA,175323,3241.8235,N,11709.3692,W,1,9,1.6,23,M,,M,,*56
06/13/2021,17:53:24.092,$GPGGA,175324,3241.8234,N,11709.3691,W,1,9,1.6,23,M,,M,,*53
06/13/2021,17:53:24.992,$GPGGA,175325,3241.8235,N,11709.3692,W,1,9,1.6,23,M,,M,,*50
06/13/2021,17:53:26.092,$GPGGA,175326,3241.8233,N,11709.3692,W,1,9,1.6,23,M,,M,,*55
06/13/2021,17:53:26.992,$GPGGA,175327,3241.8234,N,11709.3692,W,1,9,1.6,23,M,,M,,*53
06/13/2021,17:53:28.092,$GPGGA,175328,3241.8233,N,11709.3692,W,1,9,1.6,23,M,,M,,*5B
06/13/2021,17:53:28.992,$GPGGA,175329,3241.8234,N,11709.3692,W,1,9,1.6,22,M,,M,,*5C
06/13/2021,17:53:30.092,$GPGGA,175330,3241.8233,N,11709.3692,W,1,9,1.6,22,M,,M,,*53
06/13/2021,17:53:30.992,$GPGGA,175331,3241.8232,N,11709.3692,W,1,9,1.6,22,M,,M,,*53
06/13/2021,17:53:32.092,$GPGGA,175332,3241.8232,N,11709.3692,W,1,9,1.6,22,M,,M,,*50
06/13/2021,17:53:32.992,$GPGGA,175333,3241.8232,N,11709.3692,W,1,9,1.6,22,M,,M,,*51
06/13/2021,17:53:34.092,$GPGGA,175334,3241.8232,N,11709.3693,W,1,9,1.6,22,M,,M,,*57
06/13/2021,17:53:34.992,$GPGGA,175335,3241.8232,N,11709.3692,W,1,9,1.6,22,M,,M,,*57
06/13/2021,17:53:36.092,$GPGGA,175336,3241.8232,N,11709.3692,W,1,9,1.6,22,M,,M,,*54
06/13/2021,17:53:36.992,$GPGGA,175337,3241.8232,N,11709.3692,W,1,9,1.6,22,M,,M,,*55
06/13/2021,17:53:38.092,$GPGGA,175338,3241.8232,N,11709.3692,W,1,9,1.6,22,M,,M,,*5A
06/13/2021,17:53:38.993,$GPGGA,175339,3241.8232,N,11709.3692,W,1,9,1.6,22,M,,M,,*5B
06/13/2021,17:53:40.093,$GPGGA,175340,3241.8232,N,11709.3692,W,1,9,1.6,22,M,,M,,*55
06/13/2021,17:53:40.992,$GPGGA,175341,3241.8232,N,11709.3692,W,1,9,1.6,22,M,,M,,*54
06/13/2021,17:53:42.093,$GPGGA,175342,3241.8232,N,11709.3691,W,1,9,1.6,22,M,,M,,*54
06/13/2021,17:53:42.993,$GPGGA,175343,3241.8232,N,11709.3692,W,1,9,1.6,22,M,,M,,*56
06/13/2021,17:53:44.093,$GPGGA,175344,3241.8232,N,11709.3691,W,1,9,1.6,22,M,,M,,*52
06/13/2021,17:53:44.993,$GPGGA,175345,3241.8232,N,11709.3692,W,1,9,1.6,22,M,,M,,*50
06/13/2021,17:53:46.093,$GPGGA,175346,3241.8232,N,11709.3691,W,1,9,1.6,22,M,,M,,*50
06/13/2021,17:53:46.993,$GPGGA,175347,3241.8232,N,11709.3692,W,1,9,1.6,22,M,,M,,*52
06/13/2021,17:53:48.093,$GPGGA,175348,3241.8232,N,11709.3691,W,1,9,1.6,22,M,,M,,*5E
06/13/2021,17:53:48.993,$GPGGA,175349,3241.8232,N,11709.3690,W,1,9,1.6,22,M,,M,,*5E
06/13/2021,17:53:50.093,$GPGGA,175350,3241.8232,N,11709.3690,W,1,9,1.6,22,M,,M,,*56
06/13/2021,17:53:50.993,$GPGGA,175351,3241.8232,N,11709.3690,W,1,9,1.6,22,M,,M,,*57
06/13/2021,17:53:52.093,$GPGGA,175352,3241.8232,N,11709.3690,W,1,9,1.6,22,M,,M,,*54
06/13/2021,17:53:52.993,$GPGGA,175353,3241.8232,N,11709.3690,W,1,9,1.6,22,M,,M,,*55
06/13/2021,17:53:54.093,$GPGGA,175354,3241.8232,N,11709.3690,W,1,9,1.6,22,M,,M,,*52
06/13/2021,17:53:54.993,$GPGGA,175355,3241.8232,N,11709.3690,W,1,9,1.6,22,M,,M,,*53
06/13/2021,17:53:56.093,$GPGGA,175356,3241.8232,N,11709.3689,W,1,9,1.6,22,M,,M,,*58
06/13/2021,17:53:56.994,$GPGGA,175357,3241.8232,N,11709.3689,W,1,9,1.6,22,M,,M,,*59
06/13/2021,17:53:58.094,$GPGGA,175358,3241.8232,N,11709.3689,W,1,9,1.6,22,M,,M,,*56
06/13/2021,17:53:58.994,$GPGGA,175359,3241.8232,N,11709.3689,W,1,9,1.6,22,M,,M,,*57
06/13/2021,17:54:00.094,$GPGGA,175400,3241.8232,N,11709.3689,W,1,9,1.6,22,M,,M,,*5C
06/13/2021,17:54:00.994,$GPGGA,175401,3241.8232,N,11709.3689,W,1,9,1.6,22,M,,M,,*5D
06/13/2021,17:54:02.094,$GPGGA,175402,3241.8232,N,11709.3689,W,1,9,1.6,22,M,,M,,*5E
06/13/2021,17:54:02.994,$GPGGA,175403,3241.8232,N,11709.3689,W,1,9,1.6,22,M,,M,,*5F
06/13/2021,17:54:04.094,$GPGGA,175404,3241.8232,N,11709.3689,W,1,9,1.6,22,M,,M,,*58
06/13/2021,17:54:04.994,$GPGGA,175405,3241.8232,N,11709.3689,W,1,9,1.6,22,M,,M,,*59
06/13/2021,17:54:06.094,$GPGGA,175406,3241.8232,N,11709.3689,W,1,9,1.6,22,M,,M,,*5A
06/13/2021,17:54:06.994,$GPGGA,175407,3241.8232,N,11709.3689,W,1,9,1.6,22,M,,M,,*5B
06/13/2021,17:54:08.094,$GPGGA,175408,3241.8232,N,11709.3689,W,1,9,1.6,22,M,,M,,*54
06/13/2021,17:54:08.994,$GPGGA,175409,3241.8232,N,11709.3690,W,1,9,1.6,22,M,,M,,*5D
06/13/2021,17:54:10.094,$GPGGA,175410,3241.8232,N,11709.3690,W,1,9,1.6,22,M,,M,,*55
06/13/2021,17:54:10.994,$GPGGA,175411,3241.8232,N,11709.3690,W,1,9,1.6,22,M,,M,,*54
06/13/2021,17:54:12.094,$GPGGA,175412,3241.8232,N,11709.3692,W,1,9,1.6,22,M,,M,,*55
06/13/2021,17:54:12.995,$GPGGA,175413,3241.8230,N,11709.3690,W,1,9,1.6,21,M,,M,,*57
06/13/2021,17:54:14.095,$GPGGA,175414,3241.8231,N,11709.3692,W,1,9,1.6,21,M,,M,,*53
06/13/2021,17:54:14.994,$GPGGA,175415,3241.8230,N,11709.3691,W,1,9,1.6,21,M,,M,,*50
06/13/2021,17:54:16.094,$GPGGA,175416,3241.8231,N,11709.3692,W,1,9,1.6,21,M,,M,,*51
06/13/2021,17:54:16.995,$GPGGA,175417,3241.8229,N,11709.3691,W,1,9,1.6,21,M,,M,,*5A
06/13/2021,17:54:18.095,$GPGGA,175418,3241.8230,N,11709.3692,W,1,9,1.6,21,M,,M,,*5E
06/13/2021,17:54:18.994,$GPGGA,175419,3241.8229,N,11709.3692,W,1,9,1.6,21,M,,M,,*57
06/13/2021,17:54:20.094,$GPGGA,175420,3241.8228,N,11709.3692,W,1,9,1.6,21,M,,M,,*5C
06/13/2021,17:54:20.995,$GPGGA,175421,3241.8228,N,11709.3693,W,1,9,1.6,21,M,,M,,*5C
06/13/2021,17:54:22.095,$GPGGA,175422,3241.8228,N,11709.3693,W,1,9,1.6,21,M,,M,,*5F
06/13/2021,17:54:22.995,$GPGGA,175423,3241.8228,N,11709.3693,W,1,9,1.6,21,M,,M,,*5E
06/13/2021,17:54:24.095,$GPGGA,175424,3241.8228,N,11709.3694,W,1,9,1.6,21,M,,M,,*5E
06/13/2021,17:54:24.995,$GPGGA,175425,3241.8226,N,11709.3694,W,1,9,1.6,21,M,,M,,*51
06/13/2021,17:54:26.095,$GPGGA,175426,3241.8227,N,11709.3694,W,1,9,1.6,21,M,,M,,*53
06/13/2021,17:54:26.995,$GPGGA,175427,3241.8225,N,11709.3694,W,1,9,1.6,21,M,,M,,*50
06/13/2021,17:54:28.095,$GPGGA,175428,3241.8225,N,11709.3696,W,1,9,1.6,21,M,,M,,*5D
06/13/2021,17:54:28.995,$GPGGA,175429,3241.8225,N,11709.3695,W,1,9,1.6,21,M,,M,,*5F
06/13/2021,17:54:30.096,$GPGGA,175430,3241.8225,N,11709.3696,W,1,9,1.6,21,M,,M,,*54
06/13/2021,17:54:30.995,$GPGGA,175431,3241.8224,N,11709.3695,W,1,9,1.6,20,M,,M,,*56
06/13/2021,17:54:32.095,$GPGGA,175432,3241.8224,N,11709.3696,W,1,9,1.6,20,M,,M,,*56
06/13/2021,17:54:32.995,$GPGGA,175433,3241.8224,N,11709.3695,W,1,9,1.6,20,M,,M,,*54
06/13/2021,17:54:34.095,$GPGGA,175434,3241.8223,N,11709.3696,W,1,9,1.6,20,M,,M,,*57
06/13/2021,17:54:34.995,$GPGGA,175435,3241.8224,N,11709.3696,W,1,9,1.6,20,M,,M,,*51
06/13/2021,17:54:36.096,$GPGGA,175436,3241.8223,N,11709.3696,W,1,9,1.6,20,M,,M,,*55
06/13/2021,17:54:36.995,$GPGGA,175437,3241.8222,N,11709.3697,W,1,9,1.6,20,M,,M,,*54
06/13/2021,17:54:38.096,$GPGGA,175438,3241.8223,N,11709.3696,W,1,9,1.6,20,M,,M,,*5B
06/13/2021,17:54:38.995,$GPGGA,175439,3241.8222,N,11709.3696,W,1,9,1.6,20,M,,M,,*5B
06/13/2021,17:54:40.096,$GPGGA,175440,3241.8223,N,11709.3696,W,1,9,1.6,20,M,,M,,*54
06/13/2021,17:54:40.996,$GPGGA,175441,3241.8221,N,11709.3696,W,1,9,1.6,20,M,,M,,*57
06/13/2021,17:54:42.096,$GPGGA,175442,3241.8221,N,11709.3696,W,1,9,1.6,20,M,,M,,*54
06/13/2021,17:54:42.996,$GPGGA,175443,3241.8221,N,11709.3696,W,1,9,1.6,20,M,,M,,*55
06/13/2021,17:54:44.096,$GPGGA,175444,3241.8221,N,11709.3696,W,1,9,1.6,20,M,,M,,*52
06/13/2021,17:54:44.996,$GPGGA,175445,3241.8221,N,11709.3696,W,1,9,1.6,20,M,,M,,*53
06/13/2021,17:54:46.096,$GPGGA,175446,3241.8221,N,11709.3696,W,1,9,1.6,20,M,,M,,*50
06/13/2021,17:54:46.996,$GPGGA,175447,3241.8221,N,11709.3697,W,1,9,1.6,19,M,,M,,*5A
06/13/2021,17:54:48.096,$GPGGA,175448,3241.8221,N,11709.3697,W,1,9,1.6,19,M,,M,,*55
06/13/2021,17:54:48.997,$GPGGA,175449,3241.8221,N,11709.3697,W,1,9,1.6,19,M,,M,,*54
06/13/2021,17:54:50.096,$GPGGA,175450,3241.8221,N,11709.3697,W,1,9,1.6,19,M,,M,,*5C
06/13/2021,17:54:50.996,$GPGGA,175451,3241.8221,N,11709.3697,W,1,9,1.6,19,M,,M,,*5D
06/13/2021,17:54:52.096,$GPGGA,175452,3241.8221,N,11709.3697,W,1,9,1.6,19,M,,M,,*5E
06/13/2021,17:54:52.997,$GPGGA,175453,3241.8221,N,11709.3697,W,1,9,1.6,19,M,,M,,*5F
06/13/2021,17:54:54.096,$GPGGA,175454,3241.8221,N,11709.3697,W,1,9,1.6,19,M,,M,,*58
06/13/2021,17:54:54.996,$GPGGA,175455,3241.8221,N,11709.3699,W,1,9,1.6,19,M,,M,,*57
06/13/2021,17:54:56.096,$GPGGA,175456,3241.8221,N,11709.3698,W,1,9,1.6,19,M,,M,,*55
06/13/2021,17:54:56.996,$GPGGA,175457,3241.8221,N,11709.3699,W,1,9,1.6,19,M,,M,,*55
06/13/2021,17:54:58.096,$GPGGA,175458,3241.8221,N,11709.3698,W,1,9,1.6,19,M,,M,,*5B
06/13/2021,17:54:58.997,$GPGGA,175459,3241.8221,N,11709.3699,W,1,9,1.6,19,M,,M,,*5B
06/13/2021,17:55:00.096,$GPGGA,175500,3241.8223,N,11709.3698,W,1,9,1.6,19,M,,M,,*55
06/13/2021,17:55:00.997,$GPGGA,175501,3241.8222,N,11709.3699,W,1,9,1.6,19,M,,M,,*54
06/13/2021,17:55:02.097,$GPGGA,175502,3241.8223,N,11709.3698,W,1,9,1.6,19,M,,M,,*57
06/13/2021,17:55:02.997,$GPGGA,175503,3241.8222,N,11709.3697,W,1,9,1.6,19,M,,M,,*58
06/13/2021,17:55:04.097,$GPGGA,175504,3241.8224,N,11709.3697,W,1,9,1.6,19,M,,M,,*59
06/13/2021,17:55:04.997,$GPGGA,175505,3241.8223,N,11709.3697,W,1,9,1.6,19,M,,M,,*5F
06/13/2021,17:55:06.097,$GPGGA,175506,3241.8224,N,11709.3697,W,1,9,1.6,19,M,,M,,*5B
06/13/2021,17:55:06.997,$GPGGA,175507,3241.8224,N,11709.3697,W,1,9,1.6,19,M,,M,,*5A
06/13/2021,17:55:08.097,$GPGGA,175508,3241.8224,N,11709.3697,W,1,9,1.6,19,M,,M,,*55
06/13/2021,17:55:08.997,$GPGGA,175509,3241.8225,N,11709.3697,W,1,9,1.6,19,M,,M,,*55
06/13/2021,17:55:10.097,$GPGGA,175510,3241.8225,N,11709.3697,W,1,9,1.6,19,M,,M,,*5D
06/13/2021,17:55:10.997,$GPGGA,175511,3241.8225,N,11709.3697,W,1,9,1.6,19,M,,M,,*5C
06/13/2021,17:55:12.097,$GPGGA,175512,3241.8225,N,11709.3696,W,1,9,1.6,19,M,,M,,*5E
06/13/2021,17:55:12.997,$GPGGA,175513,3241.8225,N,11709.3696,W,1,9,1.6,19,M,,M,,*5F
06/13/2021,17:55:14.097,$GPGGA,175514,3241.8227,N,11709.3696,W,1,9,1.6,19,M,,M,,*5A
06/13/2021,17:55:14.997,$GPGGA,175515,3241.8226,N,11709.3696,W,1,9,1.6,19,M,,M,,*5A
06/13/2021,17:55:16.098,$GPGGA,175516,3241.8227,N,11709.3696,W,1,9,1.6,19,M,,M,,*58
06/13/2021,17:55:16.998,$GPGGA,175517,3241.8226,N,11709.3696,W,1,9,1.6,19,M,,M,,*58
06/13/2021,17:55:18.097,$GPGGA,175518,3241.8227,N,11709.3695,W,1,9,1.6,19,M,,M,,*55
06/13/2021,17:55:18.998,$GPGGA,175519,3241.8226,N,11709.3696,W,1,9,1.6,19,M,,M,,*56
06/13/2021,17:55:20.098,$GPGGA,175520,3241.8228,N,11709.3695,W,1,9,1.6,19,M,,M,,*51
06/13/2021,17:55:20.997,$GPGGA,175521,3241.8228,N,11709.3696,W,1,9,1.6,19,M,,M,,*53
06/13/2021,17:55:22.097,$GPGGA,175522,3241.8228,N,11709.3696,W,1,9,1.6,19,M,,M,,*50
06/13/2021,17:55:22.998,$GPGGA,175523,3241.8228,N,11709.3696,W,1,9,1.6,19,M,,M,,*51
06/13/2021,17:55:24.098,$GPGGA,175524,3241.8228,N,11709.3695,W,1,9,1.6,19,M,,M,,*55
06/13/2021,17:55:24.998,$GPGGA,175525,3241.8228,N,11709.3696,W,1,9,1.6,19,M,,M,,*57
06/13/2021,17:55:26.098,$GPGGA,175526,3241.8228,N,11709.3695,W,1,9,1.6,19,M,,M,,*57
06/13/2021,17:55:26.998,$GPGGA,175527,3241.8228,N,11709.3696,W,1,9,1.6,19,M,,M,,*55
06/13/2021,17:55:28.098,$GPGGA,175528,3241.8230,N,11709.3695,W,1,9,1.6,19,M,,M,,*50
06/13/2021,17:55:28.998,$GPGGA,175529,3241.8229,N,11709.3696,W,1,9,1.6,19,M,,M,,*5A
06/13/2021,17:55:30.098,$GPGGA,175530,3241.8231,N,11709.3695,W,1,9,1.6,19,M,,M,,*58
06/13/2021,17:55:30.998,$GPGGA,175531,3241.8230,N,11709.3696,W,1,9,1.6,19,M,,M,,*5B
06/13/2021,17:55:32.098,$GPGGA,175532,3241.8231,N,11709.3695,W,1,9,1.6,19,M,,M,,*5A
06/13/2021,17:55:32.998,$GPGGA,175533,3241.8232,N,11709.3696,W,1,9,1.6,19,M,,M,,*5B
06/13/2021,17:55:34.099,$GPGGA,175534,3241.8232,N,11709.3694,W,1,9,1.6,19,M,,M,,*5E
06/13/2021,17:55:34.999,$GPGGA,175535,3241.8232,N,11709.3694,W,1,9,1.6,19,M,,M,,*5F
06/13/2021,17:55:36.099,$GPGGA,175536,3241.8232,N,11709.3694,W,1,9,1.6,19,M,,M,,*5C
06/13/2021,17:55:37.000,$GPGGA,175537,3241.8232,N,11709.3694,W,1,9,1.6,19,M,,M,,*5D
06/13/2021,17:55:38.098,$GPGGA,175538,3241.8232,N,11709.3694,W,1,9,1.6,19,M,,M,,*52
06/13/2021,17:55:38.999,$GPGGA,175539,3241.8232,N,11709.3694,W,1,9,1.6,20,M,,M,,*59
06/13/2021,17:55:40.099,$GPGGA,175540,3241.8232,N,11709.3693,W,1,9,1.6,20,M,,M,,*50
06/13/2021,17:55:40.999,$GPGGA,175541,3241.8232,N,11709.3693,W,1,9,1.6,20,M,,M,,*51
06/13/2021,17:55:42.099,$GPGGA,175542,3241.8234,N,11709.3693,W,1,9,1.6,20,M,,M,,*54
06/13/2021,17:55:42.999,$GPGGA,175543,3241.8233,N,11709.3693,W,1,9,1.6,20,M,,M,,*52
06/13/2021,17:55:44.099,$GPGGA,175544,3241.8234,N,11709.3693,W,1,9,1.6,20,M,,M,,*52
06/13/2021,17:55:44.999,$GPGGA,175545,3241.8233,N,11709.3692,W,1,9,1.6,20,M,,M,,*55
06/13/2021,17:55:46.099,$GPGGA,175546,3241.8234,N,11709.3692,W,1,9,1.6,20,M,,M,,*51
06/13/2021,17:55:46.999,$GPGGA,175547,3241.8235,N,11709.3692,W,1,9,1.6,20,M,,M,,*51
06/13/2021,17:55:48.099,$GPGGA,175548,3241.8234,N,11709.3692,W,1,9,1.6,20,M,,M,,*5F
06/13/2021,17:55:48.999,$GPGGA,175549,3241.8235,N,11709.3692,W,1,9,1.6,20,M,,M,,*5F
06/13/2021,17:55:50.099,$GPGGA,175550,3241.8235,N,11709.3692,W,1,9,1.6,20,M,,M,,*57
06/13/2021,17:55:50.999,$GPGGA,175551,3241.8237,N,11709.3692,W,1,9,1.6,20,M,,M,,*54
06/13/2021,17:55:52.099,$GPGGA,175552,3241.8236,N,11709.3691,W,1,9,1.6,20,M,,M,,*55
06/13/2021,17:55:53.000,$GPGGA,175553,3241.8237,N,11709.3692,W,1,9,1.6,20,M,,M,,*56
06/13/2021,17:55:54.099,$GPGGA,175554,3241.8238,N,11709.3691,W,1,9,1.6,20,M,,M,,*5D
06/13/2021,17:55:55.000,$GPGGA,175555,3241.8237,N,11709.3692,W,1,9,1.6,20,M,,M,,*50
06/13/2021,17:55:56.100,$GPGGA,175556,3241.8238,N,11709.3691,W,1,9,1.6,20,M,,M,,*5F
06/13/2021,17:55:56.999,$GPGGA,175557,3241.8237,N,11709.3690,W,1,9,1.6,20,M,,M,,*50
06/13/2021,17:55:58.100,$GPGGA,175558,3241.8238,N,11709.3690,W,1,9,1.6,20,M,,M,,*50
06/13/2021,17:55:59.000,$GPGGA,175559,3241.8237,N,11709.3690,W,1,9,1.6,20,M,,M,,*5E
06/13/2021,17:56:00.100,$GPGGA,175600,3241.8239,N,11709.3689,W,1,9,1.6,20,M,,M,,*57
06/13/2021,17:56:01.000,$GPGGA,175601,3241.8239,N,11709.3689,W,1,9,1.6,21,M,,M,,*57
06/13/2021,17:56:02.100,$GPGGA,175602,3241.8239,N,11709.3689,W,1,9,1.6,21,M,,M,,*54
06/13/2021,17:56:02.997,$GPGGA,175603,3241.8239,N,11709.3689,W,1,9,1.6,21,M,,M,,*55
06/13/2021,17:56:04.089,$GPGGA,175604,3241.8239,N,11709.3689,W,1,9,1.6,21,M,,M,,*52
06/13/2021,17:56:04.985,$GPGGA,175605,3241.8239,N,11709.3688,W,1,9,1.6,21,M,,M,,*52
06/13/2021,17:56:06.085,$GPGGA,175606,3241.8239,N,11709.3689,W,1,9,1.6,21,M,,M,,*50
06/13/2021,17:56:06.985,$GPGGA,175607,3241.8239,N,11709.3688,W,1,9,1.6,21,M,,M,,*50
06/13/2021,17:56:08.086,$GPGGA,175608,3241.8239,N,11709.3689,W,1,9,1.6,21,M,,M,,*5E
06/13/2021,17:56:08.985,$GPGGA,175609,3241.8239,N,11709.3688,W,1,9,1.6,21,M,,M,,*5E
06/13/2021,17:56:10.085,$GPGGA,175610,3241.8239,N,11709.3689,W,1,9,1.6,21,M,,M,,*57
06/13/2021,17:56:10.985,$GPGGA,175611,3241.8239,N,11709.3687,W,1,9,1.6,21,M,,M,,*58
06/13/2021,17:56:12.086,$GPGGA,175612,3241.8239,N,11709.3688,W,1,9,1.6,21,M,,M,,*54
06/13/2021,17:56:12.985,$GPGGA,175613,3241.8239,N,11709.3687,W,1,9,1.6,21,M,,M,,*5A
06/13/2021,17:56:14.086,$GPGGA,175614,3241.8239,N,11709.3688,W,1,9,1.6,21,M,,M,,*52
06/13/2021,17:56:14.986,$GPGGA,175615,3241.8239,N,11709.3687,W,1,9,1.6,21,M,,M,,*5C
06/13/2021,17:56:16.086,$GPGGA,175616,3241.8239,N,11709.3688,W,1,9,1.6,21,M,,M,,*50
06/13/2021,17:56:16.986,$GPGGA,175617,3241.8239,N,11709.3687,W,1,9,1.6,21,M,,M,,*5E
06/13/2021,17:56:18.085,$GPGGA,175618,3241.8239,N,11709.3688,W,1,9,1.6,21,M,,M,,*5E
06/13/2021,17:56:18.986,$GPGGA,175619,3241.8239,N,11709.3687,W,1,9,1.6,21,M,,M,,*50
06/13/2021,17:56:20.086,$GPGGA,175620,3241.8241,N,11709.3688,W,1,9,1.6,21,M,,M,,*5A
06/13/2021,17:56:20.986,$GPGGA,175621,3241.8240,N,11709.3686,W,1,9,1.6,21,M,,M,,*54
06/13/2021,17:56:22.086,$GPGGA,175622,3241.8241,N,11709.3686,W,1,9,1.6,21,M,,M,,*56
06/13/2021,17:56:22.987,$GPGGA,175623,3241.8239,N,11709.3686,W,1,9,1.6,21,M,,M,,*58
06/13/2021,17:56:24.086,$GPGGA,175624,3241.8239,N,11709.3686,W,1,9,1.6,21,M,,M,,*5F
06/13/2021,17:56:24.986,$GPGGA,175625,3241.8239,N,11709.3685,W,1,9,1.6,21,M,,M,,*5D
06/13/2021,17:56:26.086,$GPGGA,175626,3241.8239,N,11709.3685,W,1,9,1.6,21,M,,M,,*5E
06/13/2021,17:56:26.986,$GPGGA,175627,3241.8239,N,11709.3685,W,1,9,1.6,21,M,,M,,*5F
06/13/2021,17:56:28.087,$GPGGA,175628,3241.8239,N,11709.3684,W,1,9,1.6,21,M,,M,,*51
06/13/2021,17:56:28.987,$GPGGA,175629,3241.8239,N,11709.3685,W,1,9,1.6,21,M,,M,,*51
06/13/2021,17:56:30.088,$GPGGA,175630,3241.8239,N,11709.3683,W,1,9,1.6,21,M,,M,,*5F
06/13/2021,17:56:30.986,$GPGGA,175631,3241.8239,N,11709.3683,W,1,9,1.6,21,M,,M,,*5E
06/13/2021,17:56:32.086,$GPGGA,175632,3241.8239,N,11709.3683,W,1,9,1.6,21,M,,M,,*5D
06/13/2021,17:56:32.986,$GPGGA,175633,3241.8239,N,11709.3682,W,1,9,1.6,21,M,,M,,*5D
06/13/2021,17:56:34.087,$GPGGA,175634,3241.8239,N,11709.3682,W,1,9,1.6,21,M,,M,,*5A
06/13/2021,17:56:34.987,$GPGGA,175635,3241.8239,N,11709.3682,W,1,9,1.6,21,M,,M,,*5B
06/13/2021,17:56:36.086,$GPGGA,175636,3241.8239,N,11709.3682,W,1,9,1.6,21,M,,M,,*58
06/13/2021,17:56:36.987,$GPGGA,175637,3241.8239,N,11709.3681,W,1,9,1.6,21,M,,M,,*5A
06/13/2021,17:56:38.087,$GPGGA,175638,3241.8239,N,11709.3681,W,1,9,1.6,21,M,,M,,*55
06/13/2021,17:56:38.987,$GPGGA,175639,3241.8239,N,11709.3681,W,1,9,1.6,21,M,,M,,*54
06/13/2021,17:56:40.087,$GPGGA,175640,3241.8239,N,11709.3680,W,1,9,1.6,21,M,,M,,*5B
06/13/2021,17:56:40.987,$GPGGA,175641,3241.8237,N,11709.3681,W,1,9,1.6,21,M,,M,,*55
06/13/2021,17:56:42.087,$GPGGA,175642,3241.8238,N,11709.3680,W,1,9,1.6,21,M,,M,,*58
06/13/2021,17:56:42.987,$GPGGA,175643,3241.8236,N,11709.3681,W,1,9,1.6,21,M,,M,,*56
06/13/2021,17:56:44.087,$GPGGA,175644,3241.8237,N,11709.3680,W,1,9,1.6,21,M,,M,,*51
06/13/2021,17:56:44.987,$GPGGA,175645,3241.8236,N,11709.3681,W,1,9,1.6,21,M,,M,,*50
06/13/2021,17:56:46.087,$GPGGA,175646,3241.8237,N,11709.3680,W,1,9,1.6,21,M,,M,,*53
06/13/2021,17:56:46.988,$GPGGA,175647,3241.8235,N,11709.3681,W,1,9,1.6,21,M,,M,,*51
06/13/2021,17:56:48.087,$GPGGA,175648,3241.8235,N,11709.3681,W,1,9,1.6,21,M,,M,,*5E
06/13/2021,17:56:48.987,$GPGGA,175649,3241.8234,N,11709.3681,W,1,9,1.6,21,M,,M,,*5E
06/13/2021,17:56:50.087,$GPGGA,175650,3241.8235,N,11709.3681,W,1,9,1.6,21,M,,M,,*57
06/13/2021,17:56:50.988,$GPGGA,175651,3241.8234,N,11709.3681,W,1,9,1.6,21,M,,M,,*57
06/13/2021,17:56:52.087,$GPGGA,175652,3241.8235,N,11709.3681,W,1,9,1.6,21,M,,M,,*55
06/13/2021,17:56:52.987,$GPGGA,175653,3241.8234,N,11709.3681,W,1,9,1.6,21,M,,M,,*55
06/13/2021,17:56:54.087,$GPGGA,175654,3241.8235,N,11709.3681,W,1,9,1.6,21,M,,M,,*53
06/13/2021,17:56:54.987,$GPGGA,175655,3241.8233,N,11709.3681,W,1,9,1.6,21,M,,M,,*54
06/13/2021,17:56:56.087,$GPGGA,175656,3241.8234,N,11709.3681,W,1,9,1.6,21,M,,M,,*50
06/13/2021,17:56:56.987,$GPGGA,175657,3241.8233,N,11709.3681,W,1,9,1.6,21,M,,M,,*56
06/13/2021,17:56:58.088,$GPGGA,175658,3241.8234,N,11709.3681,W,1,9,1.6,21,M,,M,,*5E
06/13/2021,17:56:58.988,$GPGGA,175659,3241.8233,N,11709.3682,W,1,9,1.6,21,M,,M,,*5B
06/13/2021,17:57:00.088,$GPGGA,175700,3241.8234,N,11709.3681,W,1,9,1.6,21,M,,M,,*52
06/13/2021,17:57:00.988,$GPGGA,175701,3241.8233,N,11709.3681,W,1,9,1.6,21,M,,M,,*54
06/13/2021,17:57:02.088,$GPGGA,175702,3241.8234,N,11709.3681,W,1,9,1.6,21,M,,M,,*50
06/13/2021,17:57:02.988,$GPGGA,175703,3241.8233,N,11709.3681,W,1,9,1.6,21,M,,M,,*56
06/13/2021,17:57:04.088,$GPGGA,175704,3241.8234,N,11709.3681,W,1,9,1.6,21,M,,M,,*56
06/13/2021,17:57:04.988,$GPGGA,175705,3241.8233,N,11709.3681,W,1,9,1.6,21,M,,M,,*50
06/13/2021,17:57:06.088,$GPGGA,175706,3241.8234,N,11709.3681,W,1,9,1.6,21,M,,M,,*54
06/13/2021,17:57:06.989,$GPGGA,175707,3241.8233,N,11709.3681,W,1,9,1.6,21,M,,M,,*52
06/13/2021,17:57:08.088,$GPGGA,175708,3241.8234,N,11709.3681,W,1,9,1.6,21,M,,M,,*5A
06/13/2021,17:57:08.989,$GPGGA,175709,3241.8233,N,11709.3682,W,1,9,1.6,21,M,,M,,*5F
06/13/2021,17:57:10.089,$GPGGA,175710,3241.8234,N,11709.3682,W,1,9,1.6,21,M,,M,,*50
06/13/2021,17:57:10.989,$GPGGA,175711,3241.8233,N,11709.3682,W,1,9,1.6,21,M,,M,,*56
06/13/2021,17:57:12.089,$GPGGA,175712,3241.8235,N,11709.3682,W,1,9,1.6,21,M,,M,,*53
06/13/2021,17:57:12.989,$GPGGA,175713,3241.8233,N,11709.3682,W,1,9,1.6,21,M,,M,,*54
06/13/2021,17:57:14.089,$GPGGA,175714,3241.8234,N,11709.3682,W,1,9,1.6,21,M,,M,,*54
06/13/2021,17:57:14.989,$GPGGA,175715,3241.8233,N,11709.3682,W,1,9,1.6,21,M,,M,,*52
06/13/2021,17:57:16.089,$GPGGA,175716,3241.8234,N,11709.3683,W,1,9,1.6,21,M,,M,,*57
06/13/2021,17:57:16.989,$GPGGA,175717,3241.8233,N,11709.3683,W,1,9,1.6,21,M,,M,,*51
06/13/2021,17:57:18.089,$GPGGA,175718,3241.8234,N,11709.3683,W,1,9,1.6,21,M,,M,,*59
06/13/2021,17:57:18.989,$GPGGA,175719,3241.8233,N,11709.3683,W,1,9,1.6,21,M,,M,,*5F
06/13/2021,17:57:20.089,$GPGGA,175720,3241.8234,N,11709.3683,W,1,9,1.6,21,M,,M,,*52
06/13/2021,17:57:20.989,$GPGGA,175721,3241.8233,N,11709.3683,W,1,9,1.6,21,M,,M,,*54
