06/13/2021,18:03:40.994,$GPGGA,180341,3241.8194,N,11709.3690,W,1,8,1.9,8,M,,M,,*65
06/13/2021,18:03:42.093,$GPGGA,180342,3241.8195,N,11709.3690,W,1,8,1.9,8,M,,M,,*67
06/13/2021,18:03:42.993,$GPGGA,180343,3241.8194,N,11709.3690,W,1,8,1.9,8,M,,M,,*67
06/13/2021,18:03:44.093,$GPGGA,180344,3241.8195,N,11709.3690,W,1,8,1.9,8,M,,M,,*61
06/13/2021,18:03:44.993,$GPGGA,180345,3241.8195,N,11709.3690,W,1,8,1.9,8,M,,M,,*60
06/13/2021,18:03:46.094,$GPGGA,180346,3241.8195,N,11709.3690,W,1,8,1.9,8,M,,M,,*63
06/13/2021,18:03:46.993,$GPGGA,180347,3241.8195,N,11709.3690,W,1,8,1.9,8,M,,M,,*62
06/13/2021,18:03:48.093,$GPGGA,180348,3241.8195,N,11709.3690,W,1,8,1.9,8,M,,M,,*6D
06/13/2021,18:03:48.993,$GPGGA,180349,3241.8196,N,11709.3690,W,1,8,1.9,8,M,,M,,*6F
06/13/2021,18:03:50.093,$GPGGA,180350,3241.8196,N,11709.3690,W,1,8,1.9,8,M,,M,,*67
06/13/2021,18:03:50.993,$GPGGA,180351,3241.8196,N,11709.3690,W,1,8,1.9,8,M,,M,,*66
06/13/2021,18:03:52.093,$GPGGA,180352,3241.8196,N,11709.3690,W,1,8,1.9,8,M,,M,,*65
06/13/2021,18:03:52.994,$GPGGA,180353,3241.8198,N,11709.3690,W,1,8,1.9,8,M,,M,,*6A
06/13/2021,18:03:54.093,$GPGGA,180354,3241.8197,N,11709.3690,W,1,8,1.9,8,M,,M,,*62
06/13/2021,18:03:54.994,$GPGGA,180355,3241.8198,N,11709.3690,W,1,8,1.9,8,M,,M,,*6C
06/13/2021,18:03:56.094,$GPGGA,180356,3241.8199,N,11709.3690,W,1,8,1.9,8,M,,M,,*6E
06/13/2021,18:03:56.994,$GPGGA,180357,3241.8199,N,11709.3690,W,1,8,1.9,8,M,,M,,*6F
06/13/2021,18:03:58.093,$GPGGA,180358,3241.8199,N,11709.3690,W,1,8,1.9,8,M,,M,,*60
06/13/2021,18:03:58.994,$GPGGA,180359,3241.8199,N,11709.3689,W,1,8,1.9,8,M,,M,,*69
06/13/2021,18:04:00.094,$GPGGA,180400,3241.8199,N,11709.3689,W,1,8,1.9,8,M,,M,,*62
06/13/2021,18:04:00.994,$GPGGA,180401,3241.8199,N,11709.3689,W,1,8,1.9,8,M,,M,,*63
06/13/2021,18:04:02.094,$GPGGA,180402,3241.8199,N,11709.3689,W,1,8,1.9,8,M,,M,,*60
06/13/2021,18:04:02.994,$GPGGA,180403,3241.8199,N,11709.3689,W,1,8,1.9,8,M,,M,,*61
06/13/2021,18:04:04.094,$GPGGA,180404,3241.8199,N,11709.3688,W,1,8,1.9,8,M,,M,,*67
06/13/2021,18:04:04.994,$GPGGA,180405,3241.8199,N,11709.3689,W,1,8,1.9,8,M,,M,,*67
06/13/2021,18:04:06.095,$GPGGA,180406,3241.8199,N,11709.3688,W,1,8,1.9,8,M,,M,,*65
06/13/2021,18:04:06.994,$GPGGA,180407,3241.8201,N,11709.3689,W,1,8,1.9,8,M,,M,,*67
06/13/2021,18:04:08.094,$GPGGA,180408,3241.8200,N,11709.3688,W,1,8,1.9,8,M,,M,,*68
06/13/2021,18:04:08.994,$GPGGA,180409,3241.8201,N,11709.3689,W,1,8,1.9,8,M,,M,,*69
06/13/2021,18:04:10.095,$GPGGA,180410,3241.8200,N,11709.3688,W,1,8,1.9,8,M,,M,,*61
06/13/2021,18:04:10.995,$GPGGA,180411,3241.8201,N,11709.3689,W,1,8,1.9,9,M,,M,,*61
06/13/2021,18:04:12.094,$GPGGA,180412,3241.8202,N,11709.3688,W,1,8,1.9,9,M,,M,,*60
06/13/2021,18:04:12.994,$GPGGA,180413,3241.8201,N,11709.3689,W,1,8,1.9,9,M,,M,,*63
06/13/2021,18:04:14.095,$GPGGA,180414,3241.8202,N,11709.3687,W,1,8,1.9,9,M,,M,,*69
06/13/2021,18:04:14.994,$GPGGA,180415,3241.8203,N,11709.3688,W,1,8,1.9,9,M,,M,,*66
06/13/2021,18:04:16.094,$GPGGA,180416,3241.8203,N,11709.3687,W,1,8,1.9,9,M,,M,,*6A
06/13/2021,18:04:16.995,$GPGGA,180417,3241.8203,N,11709.3688,W,1,8,1.9,9,M,,M,,*64
06/13/2021,18:04:18.095,$GPGGA,180418,3241.8203,N,11709.3687,W,1,8,1.9,9,M,,M,,*64
06/13/2021,18:04:18.995,$GPGGA,180419,3241.8209,N,11709.3689,W,1,8,1.6,9,M,,M,,*6E
06/13/2021,18:04:20.095,$GPGGA,180420,3241.8210,N,11709.3688,W,1,9,1.6,9,M,,M,,*6C
06/13/2021,18:04:20.994,$GPGGA,180421,3241.8212,N,11709.3689,W,1,9,1.6,10,M,,M,,*56
06/13/2021,18:04:22.095,$GPGGA,180422,3241.8214,N,11709.3688,W,1,9,1.6,10,M,,M,,*52
06/13/2021,18:04:22.995,$GPGGA,180423,3241.8214,N,11709.3689,W,1,9,1.6,10,M,,M,,*52
06/13/2021,18:04:24.095,$GPGGA,180424,3241.8216,N,11709.3688,W,1,9,1.6,10,M,,M,,*56
06/13/2021,18:04:24.995,$GPGGA,180425,3241.8215,N,11709.3689,W,1,9,1.6,11,M,,M,,*54
06/13/2021,18:04:26.095,$GPGGA,180426,3241.8217,N,11709.3688,W,1,9,1.6,11,M,,M,,*54
06/13/2021,18:04:26.995,$GPGGA,180427,3241.8217,N,11709.3689,W,1,9,1.6,11,M,,M,,*54
06/13/2021,18:04:28.095,$GPGGA,180428,3241.8219,N,11709.3689,W,1,9,1.6,11,M,,M,,*55
06/13/2021,18:04:28.996,$GPGGA,180429,3241.8220,N,11709.3689,W,1,9,1.6,11,M,,M,,*5E
06/13/2021,18:04:30.096,$GPGGA,180430,3241.8219,N,11709.3689,W,1,9,1.6,11,M,,M,,*5C
06/13/2021,18:04:30.996,$GPGGA,180431,3241.8221,N,11709.3689,W,1,9,1.6,12,M,,M,,*55
06/13/2021,18:04:32.096,$GPGGA,180432,3241.8221,N,11709.3689,W,1,9,1.6,12,M,,M,,*56
06/13/2021,18:04:32.996,$GPGGA,180433,3241.8221,N,11709.3689,W,1,9,1.6,12,M,,M,,*57
06/13/2021,18:04:34.095,$GPGGA,180434,3241.8221,N,11709.3689,W,1,9,1.6,12,M,,M,,*50
06/13/2021,18:04:34.995,$GPGGA,180435,3241.8221,N,11709.3689,W,1,9,1.6,13,M,,M,,*50
06/13/2021,18:04:36.095,$GPGGA,180436,3241.8223,N,11709.3689,W,1,9,1.6,13,M,,M,,*51
06/13/2021,18:04:36.995,$GPGGA,180437,3241.8222,N,11709.3689,W,1,9,1.6,13,M,,M,,*51
06/13/2021,18:04:38.095,$GPGGA,180438,3241.8221,N,11709.3689,W,1,9,1.6,13,M,,M,,*5D
06/13/2021,18:04:38.996,$GPGGA,180439,3241.8221,N,11709.3690,W,1,9,1.6,14,M,,M,,*53
06/13/2021,18:04:40.096,$GPGGA,180440,3241.8223,N,11709.3690,W,1,9,1.6,14,M,,M,,*5F
06/13/2021,18:04:40.996,$GPGGA,180441,3241.8221,N,11709.3690,W,1,9,1.6,14,M,,M,,*5C
06/13/2021,18:04:42.096,$GPGGA,180442,3241.8221,N,11709.3690,W,1,9,1.6,14,M,,M,,*5F
06/13/2021,18:04:42.996,$GPGGA,180443,3241.8221,N,11709.3690,W,1,9,1.6,14,M,,M,,*5E
06/13/2021,18:04:44.096,$GPGGA,180444,3241.8221,N,11709.3690,W,1,9,1.6,14,M,,M,,*59
06/13/2021,18:04:44.998,$GPGGA,180445,3241.8221,N,11709.3690,W,1,9,1.6,15,M,,M,,*59
06/13/2021,18:04:46.097,$GPGGA,180446,3241.8221,N,11709.3690,W,1,9,1.6,15,M,,M,,*5A
06/13/2021,18:04:46.996,$GPGGA,180447,3241.8221,N,11709.3690,W,1,9,1.6,15,M,,M,,*5B
06/13/2021,18:04:48.096,$GPGGA,180448,3241.8221,N,11709.3690,W,1,9,1.6,15,M,,M,,*54
06/13/2021,18:04:48.996,$GPGGA,180449,3241.8221,N,11709.3690,W,1,9,1.6,15,M,,M,,*55
06/13/2021,18:04:50.096,$GPGGA,180450,3241.8221,N,11709.3690,W,1,9,1.6,15,M,,M,,*5D
06/13/2021,18:04:50.996,$GPGGA,180451,3241.8218,N,11709.3690,W,1,9,1.9,15,M,,M,,*59
06/13/2021,18:04:52.097,$GPGGA,180452,3241.8217,N,11709.3690,W,1,8,1.9,15,M,,M,,*54
06/13/2021,18:04:52.996,$GPGGA,180453,3241.8217,N,11709.3690,W,1,8,1.9,16,M,,M,,*56
06/13/2021,18:04:54.097,$GPGGA,180454,3241.8215,N,11709.3690,W,1,8,1.9,16,M,,M,,*53
06/13/2021,18:04:54.997,$GPGGA,180455,3241.8217,N,11709.3692,W,1,8,1.6,16,M,,M,,*5D
06/13/2021,18:04:56.097,$GPGGA,180456,3241.8217,N,11709.3691,W,1,8,1.6,16,M,,M,,*5D
06/13/2021,18:04:56.997,$GPGGA,180457,3241.8214,N,11709.3690,W,1,8,1.6,16,M,,M,,*5E
06/13/2021,18:04:58.096,$GPGGA,180458,3241.8212,N,11709.3690,W,1,8,1.6,16,M,,M,,*57
06/13/2021,18:04:58.997,$GPGGA,180459,3241.8214,N,11709.3690,W,1,8,1.6,16,M,,M,,*50
06/13/2021,18:05:00.097,$GPGGA,180500,3241.8216,N,11709.3690,W,1,9,1.6,16,M,,M,,*5E
06/13/2021,18:05:00.997,$GPGGA,180501,3241.8217,N,11709.3692,W,1,9,1.6,16,M,,M,,*5C
06/13/2021,18:05:02.097,$GPGGA,180502,3241.8217,N,11709.3691,W,1,9,1.6,16,M,,M,,*5C
06/13/2021,18:05:02.997,$GPGGA,180503,3241.8219,N,11709.3692,W,1,9,1.6,16,M,,M,,*50
06/13/2021,18:05:04.098,$GPGGA,180504,3241.8218,N,11709.3690,W,1,9,1.6,16,M,,M,,*54
06/13/2021,18:05:04.997,$GPGGA,180505,3241.8217,N,11709.3690,W,1,9,1.9,17,M,,M,,*54
06/13/2021,18:05:06.098,$GPGGA,180506,3241.8215,N,11709.3690,W,1,9,1.9,17,M,,M,,*55
06/13/2021,18:05:06.998,$GPGGA,180507,3241.8216,N,11709.3690,W,1,9,1.6,17,M,,M,,*58
06/13/2021,18:05:08.097,$GPGGA,180508,3241.8215,N,11709.3690,W,1,9,1.6,17,M,,M,,*54
06/13/2021,18:05:08.997,$GPGGA,180509,3241.8216,N,11709.3690,W,1,9,1.6,17,M,,M,,*56
06/13/2021,18:05:10.097,$GPGGA,180510,3241.8215,N,11709.3690,W,1,9,1.6,17,M,,M,,*5D
06/13/2021,18:05:10.998,$GPGGA,180511,3241.8216,N,11709.3690,W,1,9,1.6,17,M,,M,,*5F
06/13/2021,18:05:12.098,$GPGGA,180512,3241.8217,N,11709.3690,W,1,9,1.6,17,M,,M,,*5D
06/13/2021,18:05:12.997,$GPGGA,180513,3241.8217,N,11709.3690,W,1,9,1.6,17,M,,M,,*5C
06/13/2021,18:05:14.098,$GPGGA,180514,3241.8217,N,11709.3689,W,1,9,1.6,17,M,,M,,*53
06/13/2021,18:05:14.997,$GPGGA,180515,3241.8217,N,11709.3690,W,1,9,1.6,17,M,,M,,*5A
06/13/2021,18:05:16.097,$GPGGA,180516,3241.8217,N,11709.3690,W,1,9,1.6,17,M,,M,,*59
06/13/2021,18:05:16.998,$GPGGA,180517,3241.8219,N,11709.3690,W,1,9,1.6,18,M,,M,,*59
06/13/2021,18:05:18.098,$GPGGA,180518,3241.8218,N,11709.3689,W,1,9,1.6,18,M,,M,,*5F
06/13/2021,18:05:18.998,$GPGGA,180519,3241.8219,N,11709.3690,W,1,9,1.6,18,M,,M,,*57
06/13/2021,18:05:20.098,$GPGGA,180520,3241.8220,N,11709.3690,W,1,9,1.6,18,M,,M,,*57
06/13/2021,18:05:20.998,$GPGGA,180521,3241.8218,N,11709.3690,W,1,9,1.6,18,M,,M,,*5D
06/13/2021,18:05:22.098,$GPGGA,180522,3241.8219,N,11709.3690,W,1,9,1.6,18,M,,M,,*5F
06/13/2021,18:05:22.998,$GPGGA,180523,3241.8218,N,11709.3690,W,1,9,1.6,18,M,,M,,*5F
06/13/2021,18:05:24.098,$GPGGA,180524,3241.8219,N,11709.3690,W,1,9,1.6,18,M,,M,,*59
06/13/2021,18:05:24.998,$GPGGA,180525,3241.8218,N,11709.3690,W,1,9,1.6,18,M,,M,,*59
06/13/2021,18:05:26.099,$GPGGA,180526,3241.8219,N,11709.3690,W,1,9,1.6,18,M,,M,,*5B
06/13/2021,18:05:26.999,$GPGGA,180527,3241.8218,N,11709.3690,W,1,9,1.6,19,M,,M,,*5A
06/13/2021,18:05:28.099,$GPGGA,180528,3241.8217,N,11709.3690,W,1,9,1.6,19,M,,M,,*5A
06/13/2021,18:05:28.999,$GPGGA,180529,3241.8219,N,11709.3690,W,1,9,1.6,19,M,,M,,*55
06/13/2021,18:05:30.099,$GPGGA,180530,3241.8217,N,11709.3690,W,1,9,1.6,19,M,,M,,*53
06/13/2021,18:05:30.998,$GPGGA,180531,3241.8217,N,11709.3689,W,1,9,1.6,19,M,,M,,*5A
06/13/2021,18:05:32.098,$GPGGA,180532,3241.8217,N,11709.3689,W,1,9,1.6,19,M,,M,,*59
06/13/2021,18:05:32.998,$GPGGA,180533,3241.8217,N,11709.3689,W,1,9,1.6,19,M,,M,,*58
06/13/2021,18:05:34.098,$GPGGA,180534,3241.8217,N,11709.3689,W,1,9,1.6,19,M,,M,,*5F
06/13/2021,18:05:34.998,$GPGGA,180535,3241.8217,N,11709.3689,W,1,9,1.6,19,M,,M,,*5E
06/13/2021,18:05:36.099,$GPGGA,180536,3241.8217,N,11709.3689,W,1,9,1.6,19,M,,M,,*5D
06/13/2021,18:05:36.998,$GPGGA,180537,3241.8217,N,11709.3689,W,1,9,1.6,19,M,,M,,*5C
06/13/2021,18:05:38.099,$GPGGA,180538,3241.8219,N,11709.3689,W,1,9,1.6,19,M,,M,,*5D
06/13/2021,18:05:38.999,$GPGGA,180539,3241.8218,N,11709.3689,W,1,9,1.6,19,M,,M,,*5D
06/13/2021,18:05:40.099,$GPGGA,180540,3241.8219,N,11709.3689,W,1,9,1.6,19,M,,M,,*52
06/13/2021,18:05:40.999,$GPGGA,180541,3241.8218,N,11709.3689,W,1,9,1.6,19,M,,M,,*52
06/13/2021,18:05:42.099,$GPGGA,180542,3241.8219,N,11709.3689,W,1,9,1.6,19,M,,M,,*50
06/13/2021,18:05:42.999,$GPGGA,180543,3241.8220,N,11709.3689,W,1,9,1.6,19,M,,M,,*5B
06/13/2021,18:05:44.099,$GPGGA,180544,3241.8219,N,11709.3689,W,1,9,1.6,19,M,,M,,*56
06/13/2021,18:05:44.999,$GPGGA,180545,3241.8220,N,11709.3689,W,1,9,1.6,19,M,,M,,*5D
06/13/2021,18:05:46.099,$GPGGA,180546,3241.8219,N,11709.3689,W,1,9,1.6,19,M,,M,,*54
06/13/2021,18:05:47.000,$GPGGA,180547,3241.8220,N,11709.3689,W,1,9,1.6,19,M,,M,,*5F
06/13/2021,18:05:48.099,$GPGGA,180548,3241.8219,N,11709.3689,W,1,9,1.6,19,M,,M,,*5A
06/13/2021,18:05:48.999,$GPGGA,180549,3241.8220,N,11709.3689,W,1,9,1.6,19,M,,M,,*51
06/13/2021,18:05:50.099,$GPGGA,180550,3241.8219,N,11709.3688,W,1,9,1.6,19,M,,M,,*52
06/13/2021,18:05:50.999,$GPGGA,180551,3241.8221,N,11709.3689,W,1,9,1.6,19,M,,M,,*59
06/13/2021,18:05:52.099,$GPGGA,180552,3241.8221,N,11709.3688,W,1,9,1.6,19,M,,M,,*5B
06/13/2021,18:05:53.000,$GPGGA,180553,3241.8221,N,11709.3689,W,1,9,1.6,19,M,,M,,*5B
06/13/2021,18:05:54.100,$GPGGA,180554,3241.8221,N,11709.3688,W,1,9,1.6,19,M,,M,,*5D
06/13/2021,18:05:54.999,$GPGGA,180555,3241.8221,N,11709.3689,W,1,9,1.6,20,M,,M,,*57
06/13/2021,18:05:56.092,$GPGGA,180556,3241.8221,N,11709.3688,W,1,9,1.6,20,M,,M,,*55
06/13/2021,18:05:56.986,$GPGGA,180557,3241.8221,N,11709.3689,W,1,9,1.6,20,M,,M,,*55
06/13/2021,18:05:58.086,$GPGGA,180558,3241.8221,N,11709.3688,W,1,9,1.6,20,M,,M,,*5B
06/13/2021,18:05:58.985,$GPGGA,180559,3241.8221,N,11709.3689,W,1,9,1.6,20,M,,M,,*5B
06/13/2021,18:06:00.085,$GPGGA,180600,3241.8221,N,11709.3689,W,1,9,1.6,20,M,,M,,*54
06/13/2021,18:06:00.986,$GPGGA,180601,3241.8221,N,11709.3689,W,1,9,1.6,20,M,,M,,*55
06/13/2021,18:06:02.085,$GPGGA,180602,3241.8223,N,11709.3689,W,1,9,1.6,20,M,,M,,*54
06/13/2021,18:06:02.986,$GPGGA,180603,3241.8222,N,11709.3689,W,1,9,1.6,20,M,,M,,*54
06/13/2021,18:06:04.086,$GPGGA,180604,3241.8223,N,11709.3689,W,1,9,1.6,20,M,,M,,*52
06/13/2021,18:06:04.986,$GPGGA,180605,3241.8221,N,11709.3689,W,1,9,1.9,20,M,,M,,*5E
06/13/2021,18:06:06.086,$GPGGA,180606,3241.8221,N,11709.3689,W,1,8,1.9,20,M,,M,,*5C
06/13/2021,18:06:06.986,$GPGGA,180607,3241.8221,N,11709.3689,W,1,8,1.9,20,M,,M,,*5D
06/13/2021,18:06:08.086,$GPGGA,180608,3241.8219,N,11709.3689,W,1,8,1.9,20,M,,M,,*59
06/13/2021,18:06:08.986,$GPGGA,180609,3241.8220,N,11709.3689,W,1,8,1.9,20,M,,M,,*52
06/13/2021,18:06:10.086,$GPGGA,180610,3241.8218,N,11709.3689,W,1,8,1.9,20,M,,M,,*51
06/13/2021,18:06:10.987,$GPGGA,180611,3241.8219,N,11709.3690,W,1,8,1.9,19,M,,M,,*53
06/13/2021,18:06:12.086,$GPGGA,180612,3241.8218,N,11709.3690,W,1,8,1.9,19,M,,M,,*51
06/13/2021,18:06:12.987,$GPGGA,180613,3241.8217,N,11709.3690,W,1,8,1.9,19,M,,M,,*5F
06/13/2021,18:06:14.086,$GPGGA,180614,3241.8217,N,11709.3690,W,1,8,1.9,19,M,,M,,*58
06/13/2021,18:06:14.986,$GPGGA,180615,3241.8217,N,11709.3690,W,1,8,1.9,19,M,,M,,*59
06/13/2021,18:06:16.087,$GPGGA,180616,3241.8217,N,11709.3692,W,1,8,1.9,19,M,,M,,*58
06/13/2021,18:06:16.987,$GPGGA,180617,3241.8217,N,11709.3691,W,1,8,1.9,19,M,,M,,*5A
06/13/2021,18:06:18.086,$GPGGA,180618,3241.8217,N,11709.3692,W,1,8,1.9,19,M,,M,,*56
06/13/2021,18:06:18.986,$GPGGA,180619,3241.8217,N,11709.3692,W,1,8,1.9,19,M,,M,,*57
06/13/2021,18:06:20.087,$GPGGA,180620,3241.8217,N,11709.3692,W,1,8,1.9,19,M,,M,,*5D
06/13/2021,18:06:20.987,$GPGGA,180621,3241.8217,N,11709.3692,W,1,8,1.9,19,M,,M,,*5C
06/13/2021,18:06:22.087,$GPGGA,180622,3241.8217,N,11709.3692,W,1,8,1.9,19,M,,M,,*5F
06/13/2021,18:06:22.987,$GPGGA,180623,3241.8217,N,11709.3693,W,1,8,1.9,19,M,,M,,*5F
06/13/2021,18:06:24.087,$GPGGA,180624,3241.8217,N,11709.3693,W,1,8,1.9,19,M,,M,,*58
06/13/2021,18:06:24.987,$GPGGA,180625,3241.8217,N,11709.3694,W,1,8,1.9,18,M,,M,,*5F
06/13/2021,18:06:26.087,$GPGGA,180626,3241.8217,N,11709.3694,W,1,8,1.9,18,M,,M,,*5C
06/13/2021,18:06:26.987,$GPGGA,180627,3241.8217,N,11709.3694,W,1,8,1.9,18,M,,M,,*5D
06/13/2021,18:06:28.087,$GPGGA,180628,3241.8217,N,11709.3696,W,1,8,1.9,18,M,,M,,*50
06/13/2021,18:06:28.987,$GPGGA,180629,3241.8219,N,11709.3695,W,1,8,1.9,18,M,,M,,*5C
06/13/2021,18:06:30.087,$GPGGA,180630,3241.8218,N,11709.3696,W,1,8,1.9,18,M,,M,,*56
06/13/2021,18:06:30.987,$GPGGA,180631,3241.8219,N,11709.3696,W,1,8,1.9,18,M,,M,,*56
06/13/2021,18:06:32.087,$GPGGA,180632,3241.8218,N,11709.3696,W,1,8,1.9,18,M,,M,,*54
06/13/2021,18:06:32.987,$GPGGA,180633,3241.8219,N,11709.3697,W,1,8,1.9,18,M,,M,,*55
06/13/2021,18:06:34.087,$GPGGA,180634,3241.8218,N,11709.3697,W,1,8,1.9,18,M,,M,,*53
06/13/2021,18:06:34.987,$GPGGA,180635,3241.8219,N,11709.3699,W,1,8,1.9,18,M,,M,,*5D
06/13/2021,18:06:36.087,$GPGGA,180636,3241.8218,N,11709.3698,W,1,8,1.9,18,M,,M,,*5E
06/13/2021,18:06:36.987,$GPGGA,180637,3241.8219,N,11709.3699,W,1,8,1.9,18,M,,M,,*5F
06/13/2021,18:06:38.087,$GPGGA,180638,3241.8218,N,11709.3699,W,1,8,1.9,18,M,,M,,*51
06/13/2021,18:06:38.987,$GPGGA,180639,3241.8219,N,11709.3699,W,1,8,1.9,18,M,,M,,*51
06/13/2021,18:06:40.088,$GPGGA,180640,3241.8218,N,11709.3700,W,1,8,1.9,18,M,,M,,*5F
06/13/2021,18:06:40.987,$GPGGA,180641,3241.8219,N,11709.3700,W,1,8,1.9,18,M,,M,,*5F
06/13/2021,18:06:42.088,$GPGGA,180642,3241.8218,N,11709.3700,W,1,8,1.9,18,M,,M,,*5D
06/13/2021,18:06:42.988,$GPGGA,180643,3241.8220,N,11709.3701,W,1,8,1.9,18,M,,M,,*56
06/13/2021,18:06:44.087,$GPGGA,180644,3241.8219,N,11709.3701,W,1,8,1.9,18,M,,M,,*5B
06/13/2021,18:06:44.988,$GPGGA,180645,3241.8220,N,11709.3703,W,1,8,1.9,17,M,,M,,*5D
06/13/2021,18:06:46.088,$GPGGA,180646,3241.8219,N,11709.3702,W,1,8,1.9,17,M,,M,,*55
06/13/2021,18:06:46.988,$GPGGA,180647,3241.8220,N,11709.3703,W,1,8,1.9,17,M,,M,,*5F
06/13/2021,18:06:48.088,$GPGGA,180648,3241.8221,N,11709.3703,W,1,8,1.9,17,M,,M,,*51
06/13/2021,18:06:48.988,$GPGGA,180649,3241.8221,N,11709.3704,W,1,8,1.9,17,M,,M,,*57
06/13/2021,18:06:50.088,$GPGGA,180650,3241.8221,N,11709.3704,W,1,8,1.9,17,M,,M,,*5F
06/13/2021,18:06:50.989,$GPGGA,180651,3241.8221,N,11709.3706,W,1,8,1.9,17,M,,M,,*5C
06/13/2021,18:06:52.088,$GPGGA,180652,3241.8221,N,11709.3705,W,1,8,1.9,17,M,,M,,*5C
06/13/2021,18:06:52.988,$GPGGA,180653,3241.8221,N,11709.3707,W,1,8,1.9,17,M,,M,,*5F
06/13/2021,18:06:54.089,$GPGGA,180654,3241.8221,N,11709.3707,W,1,8,1.9,17,M,,M,,*58
06/13/2021,18:06:54.989,$GPGGA,180655,3241.8221,N,11709.3708,W,1,8,1.9,17,M,,M,,*56
06/13/2021,18:06:56.089,$GPGGA,180656,3241.8223,N,11709.3708,W,1,8,1.9,17,M,,M,,*57
06/13/2021,18:06:56.988,$GPGGA,180657,3241.8222,N,11709.3710,W,1,8,1.9,17,M,,M,,*5E
06/13/2021,18:06:58.088,$GPGGA,180658,3241.8223,N,11709.3709,W,1,8,1.9,17,M,,M,,*58
06/13/2021,18:06:58.988,$GPGGA,180659,3241.8224,N,11709.3710,W,1,8,1.9,17,M,,M,,*56
06/13/2021,18:07:00.089,$GPGGA,180700,3241.8223,N,11709.3711,W,1,8,1.9,17,M,,M,,*5D
06/13/2021,18:07:00.989,$GPGGA,180701,3241.8224,N,11709.3711,W,1,8,1.9,17,M,,M,,*5B
06/13/2021,18:07:02.089,$GPGGA,180702,3241.8230,N,11709.3712,W,1,9,1.9,17,M,,M,,*5F
06/13/2021,18:07:02.989,$GPGGA,180703,3241.8232,N,11709.3714,W,1,9,1.6,17,M,,M,,*55
06/13/2021,18:07:04.088,$GPGGA,180704,3241.8234,N,11709.3714,W,1,9,1.6,17,M,,M,,*54
06/13/2021,18:07:04.989,$GPGGA,180705,3241.8235,N,11709.3714,W,1,9,1.6,17,M,,M,,*54
06/13/2021,18:07:06.089,$GPGGA,180706,3241.8237,N,11709.3715,W,1,9,1.6,17,M,,M,,*54
06/13/2021,18:07:06.989,$GPGGA,180707,3241.8238,N,11709.3715,W,1,9,1.6,17,M,,M,,*5A
06/13/2021,18:07:08.089,$GPGGA,180708,3241.8237,N,11709.3717,W,1,9,1.6,17,M,,M,,*58
06/13/2021,18:07:08.989,$GPGGA,180709,3241.8239,N,11709.3716,W,1,9,1.6,17,M,,M,,*56
06/13/2021,18:07:10.089,$GPGGA,180710,3241.8239,N,11709.3717,W,1,9,1.6,17,M,,M,,*5F
06/13/2021,18:07:10.989,$GPGGA,180711,3241.8239,N,11709.3718,W,1,9,1.6,18,M,,M,,*5E
06/13/2021,18:07:12.089,$GPGGA,180712,3241.8239,N,11709.3718,W,1,9,1.6,18,M,,M,,*5D
06/13/2021,18:07:12.989,$GPGGA,180713,3241.8241,N,11709.3719,W,1,9,1.6,18,M,,M,,*52
06/13/2021,18:07:14.089,$GPGGA,180714,3241.8240,N,11709.3719,W,1,9,1.6,18,M,,M,,*54
06/13/2021,18:07:14.990,$GPGGA,180715,3241.8242,N,11709.3721,W,1,9,1.6,18,M,,M,,*5C
06/13/2021,18:07:16.089,$GPGGA,180716,3241.8241,N,11709.3721,W,1,9,1.6,18,M,,M,,*5C
06/13/2021,18:07:16.990,$GPGGA,180717,3241.8242,N,11709.3721,W,1,9,1.6,18,M,,M,,*5E
06/13/2021,18:07:18.089,$GPGGA,180718,3241.8242,N,11709.3721,W,1,9,1.6,18,M,,M,,*51
06/13/2021,18:07:18.990,$GPGGA,180719,3241.8242,N,11709.3722,W,1,9,1.6,18,M,,M,,*53
06/13/2021,18:07:20.090,$GPGGA,180720,3241.8242,N,11709.3723,W,1,9,1.6,18,M,,M,,*58
06/13/2021,18:07:20.990,$GPGGA,180721,3241.8242,N,11709.3723,W,1,9,1.6,18,M,,M,,*59
06/13/2021,18:07:22.089,$GPGGA,180722,3241.8242,N,11709.3725,W,1,9,1.6,18,M,,M,,*5C
06/13/2021,18:07:22.990,$GPGGA,180723,3241.8242,N,11709.3724,W,1,9,1.6,18,M,,M,,*5C
06/13/2021,18:07:24.090,$GPGGA,180724,3241.8241,N,11709.3725,W,1,8,1.6,18,M,,M,,*58
06/13/2021,18:07:24.990,$GPGGA,180725,3241.8240,N,11709.3725,W,1,8,1.8,18,M,,M,,*56
06/13/2021,18:07:26.130,$GPGGA,180726,3241.8239,N,11709.3725,W,1,8,1.8,18,M,,M,,*5B
06/13/2021,18:07:26.990,$GPGGA,180727,3241.8239,N,11709.3726,W,1,8,1.8,18,M,,M,,*59
06/13/2021,18:07:28.090,$GPGGA,180728,3241.8239,N,11709.3726,W,1,8,1.8,18,M,,M,,*56
06/13/2021,18:07:28.990,$GPGGA,180729,3241.8239,N,11709.3726,W,1,8,1.8,18,M,,M,,*57
06/13/2021,18:07:30.091,$GPGGA,180730,3241.8239,N,11709.3728,W,1,8,1.8,18,M,,M,,*51
06/13/2021,18:07:30.991,$GPGGA,180731,3241.8239,N,11709.3727,W,1,8,1.8,18,M,,M,,*5F
06/13/2021,18:07:32.090,$GPGGA,180732,3241.8237,N,11709.3728,W,1,8,1.8,18,M,,M,,*5D
06/13/2021,18:07:32.991,$GPGGA,180733,3241.8238,N,11709.3729,W,1,8,1.8,18,M,,M,,*52
06/13/2021,18:07:34.091,$GPGGA,180734,3241.8237,N,11709.3729,W,1,8,1.8,18,M,,M,,*5A
06/13/2021,18:07:34.990,$GPGGA,180735,3241.8238,N,11709.3729,W,1,8,1.8,18,M,,M,,*54
06/13/2021,18:07:36.090,$GPGGA,180736,3241.8237,N,11709.3730,W,1,8,1.8,18,M,,M,,*50
06/13/2021,18:07:36.990,$GPGGA,180737,3241.8238,N,11709.3730,W,1,8,1.8,18,M,,M,,*5E
06/13/2021,18:07:38.090,$GPGGA,180738,3241.8237,N,11709.3732,W,1,8,1.8,18,M,,M,,*5C
06/13/2021,18:07:38.990,$GPGGA,180739,3241.8239,N,11709.3731,W,1,8,1.6,18,M,,M,,*5E
06/13/2021,18:07:40.091,$GPGGA,180740,3241.8239,N,11709.3732,W,1,9,1.6,18,M,,M,,*52
06/13/2021,18:07:40.991,$GPGGA,180741,3241.8241,N,11709.3733,W,1,9,1.6,18,M,,M,,*5D
06/13/2021,18:07:42.091,$GPGGA,180742,3241.8242,N,11709.3733,W,1,9,1.6,18,M,,M,,*5D
06/13/2021,18:07:42.991,$GPGGA,180743,3241.8241,N,11709.3735,W,1,9,1.6,18,M,,M,,*59
06/13/2021,18:07:44.091,$GPGGA,180744,3241.8242,N,11709.3736,W,1,9,1.6,18,M,,M,,*5E
06/13/2021,18:07:44.991,$GPGGA,180745,3241.8243,N,11709.3735,W,1,9,1.6,18,M,,M,,*5D
06/13/2021,18:07:46.091,$GPGGA,180746,3241.8243,N,11709.3736,W,1,9,1.6,18,M,,M,,*5D
06/13/2021,18:07:46.991,$GPGGA,180747,3241.8245,N,11709.3736,W,1,9,1.6,18,M,,M,,*5A
06/13/2021,18:07:48.091,$GPGGA,180748,3241.8244,N,11709.3737,W,1,9,1.6,18,M,,M,,*55
06/13/2021,18:07:48.991,$GPGGA,180749,3241.8245,N,11709.3737,W,1,9,1.6,18,M,,M,,*55
06/13/2021,18:07:50.092,$GPGGA,180750,3241.8246,N,11709.3737,W,1,9,1.6,18,M,,M,,*5E
06/13/2021,18:07:50.991,$GPGGA,180751,3241.8246,N,11709.3739,W,1,9,1.6,18,M,,M,,*51
06/13/2021,18:07:52.091,$GPGGA,180752,3241.8246,N,11709.3738,W,1,9,1.6,18,M,,M,,*53
06/13/2021,18:07:52.992,$GPGGA,180753,3241.8246,N,11709.3739,W,1,9,1.6,18,M,,M,,*53
06/13/2021,18:07:54.091,$GPGGA,180754,3241.8246,N,11709.3740,W,1,9,1.6,18,M,,M,,*5A
06/13/2021,18:07:54.992,$GPGGA,180755,3241.8248,N,11709.3740,W,1,9,1.6,18,M,,M,,*55
06/13/2021,18:07:56.092,$GPGGA,180756,3241.8247,N,11709.3740,W,1,9,1.6,18,M,,M,,*59
06/13/2021,18:07:56.991,$GPGGA,180757,3241.8249,N,11709.3741,W,1,9,1.6,18,M,,M,,*57
06/13/2021,18:07:58.091,$GPGGA,180758,3241.8250,N,11709.3741,W,1,9,1.6,18,M,,M,,*50
06/13/2021,18:07:58.992,$GPGGA,180759,3241.8250,N,11709.3741,W,1,9,1.6,18,M,,M,,*51
06/13/2021,18:08:00.092,$GPGGA,180800,3241.8250,N,11709.3743,W,1,9,1.6,18,M,,M,,*50
06/13/2021,18:08:00.992,$GPGGA,180801,3241.8250,N,11709.3742,W,1,9,1.6,18,M,,M,,*50
06/13/2021,18:08:02.092,$GPGGA,180802,3241.8250,N,11709.3743,W,1,9,1.6,18,M,,M,,*52
06/13/2021,18:08:02.992,$GPGGA,180803,3241.8252,N,11709.3743,W,1,9,1.6,18,M,,M,,*51
06/13/2021,18:08:04.092,$GPGGA,180804,3241.8251,N,11709.3744,W,1,9,1.6,18,M,,M,,*52
06/13/2021,18:08:04.992,$GPGGA,180805,3241.8253,N,11709.3746,W,1,9,1.6,18,M,,M,,*53
06/13/2021,18:08:06.092,$GPGGA,180806,3241.8252,N,11709.3745,W,1,9,1.6,18,M,,M,,*52
06/13/2021,18:08:06.992,$GPGGA,180807,3241.8253,N,11709.3746,W,1,9,1.6,19,M,,M,,*50
06/13/2021,18:08:08.092,$GPGGA,180808,3241.8253,N,11709.3746,W,1,9,1.6,19,M,,M,,*5F
06/13/2021,18:08:08.992,$GPGGA,180809,3241.8253,N,11709.3747,W,1,9,1.6,19,M,,M,,*5F
06/13/2021,18:08:10.093,$GPGGA,180810,3241.8253,N,11709.3747,W,1,9,1.6,19,M,,M,,*57
06/13/2021,18:08:10.992,$GPGGA,180811,3241.8255,N,11709.3748,W,1,9,1.6,19,M,,M,,*5F
06/13/2021,18:08:12.092,$GPGGA,180812,3241.8254,N,11709.3750,W,1,9,1.6,19,M,,M,,*54
06/13/2021,18:08:12.993,$GPGGA,180813,3241.8255,N,11709.3749,W,1,9,1.6,19,M,,M,,*5C
06/13/2021,18:08:14.092,$GPGGA,180814,3241.8256,N,11709.3750,W,1,9,1.6,19,M,,M,,*50
06/13/2021,18:08:14.993,$GPGGA,180815,3241.8255,N,11709.3750,W,1,9,1.6,19,M,,M,,*52
06/13/2021,18:08:16.092,$GPGGA,180816,3241.8256,N,11709.3751,W,1,9,1.6,19,M,,M,,*53
06/13/2021,18:08:16.993,$GPGGA,180817,3241.8255,N,11709.3753,W,1,9,1.6,19,M,,M,,*53
06/13/2021,18:08:18.092,$GPGGA,180818,3241.8257,N,11709.3752,W,1,9,1.6,19,M,,M,,*5F
06/13/2021,18:08:18.993,$GPGGA,180819,3241.8257,N,11709.3754,W,1,9,1.6,19,M,,M,,*58
06/13/2021,18:08:20.092,$GPGGA,180820,3241.8257,N,11709.3754,W,1,9,1.6,19,M,,M,,*52
06/13/2021,18:08:20.993,$GPGGA,180821,3241.8257,N,11709.3755,W,1,9,1.6,19,M,,M,,*52
06/13/2021,18:08:22.092,$GPGGA,180822,3241.8257,N,11709.3757,W,1,9,1.6,19,M,,M,,*53
06/13/2021,18:08:22.992,$GPGGA,180823,3241.8259,N,11709.3757,W,1,9,1.6,19,M,,M,,*5C
06/13/2021,18:08:24.092,$GPGGA,180824,3241.8258,N,11709.3758,W,1,9,1.6,19,M,,M,,*55
06/13/2021,18:08:24.993,$GPGGA,180825,3241.8259,N,11709.3759,W,1,9,1.8,19,M,,M,,*5A
06/13/2021,18:08:26.093,$GPGGA,180826,3241.8257,N,11709.3761,W,1,8,1.8,19,M,,M,,*5D
06/13/2021,18:08:26.993,$GPGGA,180827,3241.8257,N,11709.3761,W,1,8,1.8,19,M,,M,,*5C
06/13/2021,18:08:28.093,$GPGGA,180828,3241.8257,N,11709.3762,W,1,8,1.8,19,M,,M,,*50
06/13/2021,18:08:28.993,$GPGGA,180829,3241.8257,N,11709.3762,W,1,8,1.8,19,M,,M,,*51
06/13/2021,18:08:30.093,$GPGGA,180830,3241.8257,N,11709.3764,W,1,8,1.8,19,M,,M,,*5F
06/13/2021,18:08:30.993,$GPGGA,180831,3241.8257,N,11709.3764,W,1,8,1.8,19,M,,M,,*5E
06/13/2021,18:08:32.093,$GPGGA,180832,3241.8257,N,11709.3765,W,1,8,1.8,19,M,,M,,*5C
06/13/2021,18:08:32.993,$GPGGA,180833,3241.8257,N,11709.3766,W,1,8,1.8,19,M,,M,,*5E
06/13/2021,18:08:34.093,$GPGGA,180834,3241.8259,N,11709.3768,W,1,9,1.8,19,M,,M,,*58
06/13/2021,18:08:34.993,$GPGGA,180835,3241.8260,N,11709.3767,W,1,9,1.6,19,M,,M,,*52
06/13/2021,18:08:36.093,$GPGGA,180836,3241.8261,N,11709.3768,W,1,9,1.6,19,M,,M,,*5F
06/13/2021,18:08:36.994,$GPGGA,180837,3241.8263,N,11709.3770,W,1,9,1.6,19,M,,M,,*55
06/13/2021,18:08:38.093,$GPGGA,180838,3241.8264,N,11709.3770,W,1,9,1.6,19,M,,M,,*5D
06/13/2021,18:08:38.994,$GPGGA,180839,3241.8264,N,11709.3772,W,1,9,1.6,19,M,,M,,*5E
06/13/2021,18:08:40.093,$GPGGA,180840,3241.8266,N,11709.3772,W,1,9,1.6,19,M,,M,,*52
06/13/2021,18:08:40.994,$GPGGA,180841,3241.8267,N,11709.3773,W,1,9,1.6,19,M,,M,,*53
06/13/2021,18:08:42.094,$GPGGA,180842,3241.8268,N,11709.3775,W,1,9,1.6,19,M,,M,,*59
06/13/2021,18:08:42.994,$GPGGA,180843,3241.8268,N,11709.3774,W,1,9,1.6,19,M,,M,,*59
06/13/2021,18:08:44.094,$GPGGA,180844,3241.8268,N,11709.3775,W,1,9,1.6,19,M,,M,,*5F
06/13/2021,18:08:44.994,$GPGGA,180845,3241.8268,N,11709.3776,W,1,9,1.6,19,M,,M,,*5D
06/13/2021,18:08:46.098,$GPGGA,180846,3241.8270,N,11709.3776,W,1,9,1.6,19,M,,M,,*57
06/13/2021,18:08:46.994,$GPGGA,180847,3241.8269,N,11709.3777,W,1,9,1.6,20,M,,M,,*55
06/13/2021,18:08:48.094,$GPGGA,180848,3241.8270,N,11709.3779,W,1,9,1.6,20,M,,M,,*5C
06/13/2021,18:08:48.995,$GPGGA,180849,3241.8269,N,11709.3778,W,1,9,1.6,20,M,,M,,*54
06/13/2021,18:08:50.094,$GPGGA,180850,3241.8270,N,11709.3779,W,1,9,1.6,20,M,,M,,*55
06/13/2021,18:08:50.995,$GPGGA,180851,3241.8269,N,11709.3779,W,1,9,1.6,20,M,,M,,*5C
06/13/2021,18:08:52.095,$GPGGA,180852,3241.8271,N,11709.3779,W,1,9,1.6,20,M,,M,,*56
06/13/2021,18:08:52.994,$GPGGA,180853,3241.8270,N,11709.3780,W,1,9,1.6,20,M,,M,,*50
06/13/2021,18:08:54.094,$GPGGA,180854,3241.8271,N,11709.3780,W,1,9,1.6,20,M,,M,,*56
06/13/2021,18:08:54.995,$GPGGA,180855,3241.8270,N,11709.3782,W,1,9,1.6,20,M,,M,,*54
06/13/2021,18:08:56.095,$GPGGA,180856,3241.8271,N,11709.3781,W,1,9,1.6,20,M,,M,,*55
06/13/2021,18:08:56.994,$GPGGA,180857,3241.8269,N,11709.3782,W,1,9,1.6,20,M,,M,,*5E
06/13/2021,18:08:58.094,$GPGGA,180858,3241.8268,N,11709.3783,W,1,9,1.6,20,M,,M,,*51
06/13/2021,18:08:58.995,$GPGGA,180859,3241.8268,N,11709.3782,W,1,9,1.6,20,M,,M,,*51
06/13/2021,18:09:00.095,$GPGGA,180900,3241.8268,N,11709.3783,W,1,8,1.6,20,M,,M,,*5C
06/13/2021,18:09:00.995,$GPGGA,180901,3241.8265,N,11709.3783,W,1,8,1.8,20,M,,M,,*5E
06/13/2021,18:09:02.095,$GPGGA,180902,3241.8264,N,11709.3783,W,1,8,1.8,20,M,,M,,*5C
06/13/2021,18:09:02.995,$GPGGA,180903,3241.8264,N,11709.3783,W,1,8,1.8,20,M,,M,,*5D
06/13/2021,18:09:04.095,$GPGGA,180904,3241.8262,N,11709.3784,W,1,8,1.8,20,M,,M,,*5B
06/13/2021,18:09:04.995,$GPGGA,180905,3241.8263,N,11709.3784,W,1,8,1.6,20,M,,M,,*55
06/13/2021,18:09:06.095,$GPGGA,180906,3241.8262,N,11709.3786,W,1,9,1.6,20,M,,M,,*54
06/13/2021,18:09:06.995,$GPGGA,180907,3241.8261,N,11709.3785,W,1,9,1.8,20,M,,M,,*5B
06/13/2021,18:09:08.095,$GPGGA,180908,3241.8264,N,11709.3786,W,1,9,1.8,20,M,,M,,*52
06/13/2021,18:09:08.995,$GPGGA,180909,3241.8264,N,11709.3787,W,1,9,1.6,20,M,,M,,*5C
06/13/2021,18:09:10.095,$GPGGA,180910,3241.8266,N,11709.3787,W,1,9,1.6,20,M,,M,,*56
06/13/2021,18:09:10.996,$GPGGA,180911,3241.8267,N,11709.3788,W,1,9,1.6,20,M,,M,,*59
06/13/2021,18:09:12.096,$GPGGA,180912,3241.8268,N,11709.3788,W,1,9,1.6,20,M,,M,,*55
06/13/2021,18:09:12.996,$GPGGA,180913,3241.8268,N,11709.3790,W,1,9,1.6,20,M,,M,,*5D
06/13/2021,18:09:14.096,$GPGGA,180914,3241.8266,N,11709.3789,W,1,8,1.6,20,M,,M,,*5D
06/13/2021,18:09:14.995,$GPGGA,180915,3241.8265,N,11709.3790,W,1,8,1.8,20,M,,M,,*59
06/13/2021,18:09:16.046,$GPGGA,180916,3241.8264,N,11709.3790,W,1,8,1.8,20,M,,M,,*5B
06/13/2021,18:09:16.946,$GPGGA,180917,3241.8264,N,11709.3790,W,1,8,1.8,20,M,,M,,*5A
06/13/2021,18:09:18.046,$GPGGA,180918,3241.8262,N,11709.3791,W,1,8,1.8,20,M,,M,,*52
06/13/2021,18:09:18.946,$GPGGA,180919,3241.8263,N,11709.3791,W,1,8,1.8,20,M,,M,,*52
06/13/2021,18:09:20.046,$GPGGA,180920,3241.8261,N,11709.3793,W,1,8,1.8,20,M,,M,,*58
06/13/2021,18:09:20.946,$GPGGA,180921,3241.8260,N,11709.3792,W,1,8,1.8,20,M,,M,,*59
06/13/2021,18:09:22.045,$GPGGA,180922,3241.8259,N,11709.3793,W,1,8,1.8,20,M,,M,,*51
06/13/2021,18:09:22.946,$GPGGA,180923,3241.8260,N,11709.3794,W,1,8,1.8,20,M,,M,,*5D
06/13/2021,18:09:24.046,$GPGGA,180924,3241.8259,N,11709.3795,W,1,8,1.8,20,M,,M,,*51
06/13/2021,18:09:24.946,$GPGGA,180925,3241.8258,N,11709.3795,W,1,8,1.8,20,M,,M,,*51
06/13/2021,18:09:26.046,$GPGGA,180926,3241.8259,N,11709.3797,W,1,8,1.8,20,M,,M,,*51
06/13/2021,18:09:26.946,$GPGGA,180927,3241.8258,N,11709.3797,W,1,8,1.8,20,M,,M,,*51
06/13/2021,18:09:28.046,$GPGGA,180928,3241.8259,N,11709.3797,W,1,8,1.8,20,M,,M,,*5F
06/13/2021,18:09:28.947,$GPGGA,180929,3241.8258,N,11709.3798,W,1,8,1.8,19,M,,M,,*5A
06/13/2021,18:09:30.046,$GPGGA,180930,3241.8259,N,11709.3800,W,1,8,1.8,19,M,,M,,*5D
06/13/2021,18:09:30.946,$GPGGA,180931,3241.8258,N,11709.3799,W,1,8,1.8,19,M,,M,,*52
06/13/2021,18:09:32.046,$GPGGA,180932,3241.8259,N,11709.3801,W,1,8,1.8,19,M,,M,,*5E
06/13/2021,18:09:32.946,$GPGGA,180933,3241.8258,N,11709.3801,W,1,8,1.8,19,M,,M,,*5E
06/13/2021,18:09:34.047,$GPGGA,180934,3241.8259,N,11709.3801,W,1,8,1.8,19,M,,M,,*58
06/13/2021,18:09:34.946,$GPGGA,180935,3241.8258,N,11709.3802,W,1,8,1.8,19,M,,M,,*5B
06/13/2021,18:09:36.047,$GPGGA,180936,3241.8260,N,11709.3802,W,1,8,1.8,19,M,,M,,*53
06/13/2021,18:09:36.947,$GPGGA,180937,3241.8259,N,11709.3804,W,1,8,1.8,19,M,,M,,*5E
06/13/2021,18:09:38.046,$GPGGA,180938,3241.8260,N,11709.3804,W,1,8,1.8,19,M,,M,,*5B
06/13/2021,18:09:38.947,$GPGGA,180939,3241.8259,N,11709.3805,W,1,8,1.8,18,M,,M,,*50
06/13/2021,18:09:40.047,$GPGGA,180940,3241.8260,N,11709.3805,W,1,8,1.8,18,M,,M,,*54
06/13/2021,18:09:40.947,$GPGGA,180941,3241.8260,N,11709.3806,W,1,8,1.8,18,M,,M,,*56
06/13/2021,18:09:42.047,$GPGGA,180942,3241.8260,N,11709.3808,W,1,8,1.8,18,M,,M,,*5B
06/13/2021,18:09:42.947,$GPGGA,180943,3241.8260,N,11709.3808,W,1,8,1.8,18,M,,M,,*5A
06/13/2021,18:09:44.047,$GPGGA,180944,3241.8261,N,11709.3809,W,1,8,1.8,18,M,,M,,*5D
06/13/2021,18:09:44.947,$GPGGA,180945,3241.8261,N,11709.3811,W,1,8,1.8,18,M,,M,,*55
06/13/2021,18:09:46.047,$GPGGA,180946,3241.8263,N,11709.3811,W,1,8,1.8,18,M,,M,,*54
06/13/2021,18:09:46.948,$GPGGA,180947,3241.8262,N,11709.3812,W,1,8,1.8,18,M,,M,,*57
06/13/2021,18:09:48.047,$GPGGA,180948,3241.8264,N,11709.3813,W,1,8,1.8,18,M,,M,,*5F
06/13/2021,18:09:48.948,$GPGGA,180949,3241.8264,N,11709.3815,W,1,8,1.8,18,M,,M,,*58
06/13/2021,18:09:50.047,$GPGGA,180950,3241.8264,N,11709.3815,W,1,8,1.8,18,M,,M,,*50
06/13/2021,18:09:50.947,$GPGGA,180951,3241.8266,N,11709.3815,W,1,8,1.8,18,M,,M,,*53
06/13/2021,18:09:52.047,$GPGGA,180952,3241.8265,N,11709.3818,W,1,8,1.8,18,M,,M,,*5E
06/13/2021,18:09:52.947,$GPGGA,180953,3241.8267,N,11709.3819,W,1,8,1.8,18,M,,M,,*5C
06/13/2021,18:09:54.048,$GPGGA,180954,3241.8266,N,11709.3819,W,1,8,1.8,18,M,,M,,*5A
06/13/2021,18:09:54.947,$GPGGA,180955,3241.8268,N,11709.3820,W,1,8,1.8,18,M,,M,,*5F
06/13/2021,18:09:56.048,$GPGGA,180956,3241.8268,N,11709.3822,W,1,8,1.8,18,M,,M,,*5E
06/13/2021,18:09:56.948,$GPGGA,180957,3241.8268,N,11709.3822,W,1,8,1.8,17,M,,M,,*50
06/13/2021,18:09:58.048,$GPGGA,180958,3241.8270,N,11709.3823,W,1,8,1.8,17,M,,M,,*57
06/13/2021,18:09:58.948,$GPGGA,180959,3241.8269,N,11709.3826,W,1,8,1.8,17,M,,M,,*5B
06/13/2021,18:10:00.048,$GPGGA,181000,3241.8271,N,11709.3826,W,1,8,1.8,17,M,,M,,*56
06/13/2021,18:10:00.948,$GPGGA,181001,3241.8271,N,11709.3827,W,1,8,1.8,17,M,,M,,*56
06/13/2021,18:10:02.048,$GPGGA,181002,3241.8271,N,11709.3829,W,1,8,1.8,17,M,,M,,*5B
06/13/2021,18:10:02.948,$GPGGA,181003,3241.8273,N,11709.3830,W,1,8,1.8,17,M,,M,,*50
06/13/2021,18:10:04.048,$GPGGA,181004,3241.8274,N,11709.3831,W,1,8,1.8,17,M,,M,,*51
06/13/2021,18:10:04.938,$GPGGA,181005,3241.8273,N,11709.3833,W,1,8,1.8,17,M,,M,,*55
06/13/2021,18:10:06.048,$GPGGA,181006,3241.8275,N,11709.3834,W,1,8,1.8,17,M,,M,,*57
06/13/2021,18:10:06.948,$GPGGA,181007,3241.8275,N,11709.3835,W,1,8,1.8,17,M,,M,,*57
06/13/2021,18:10:08.048,$GPGGA,181008,3241.8275,N,11709.3837,W,1,8,1.8,17,M,,M,,*5A
06/13/2021,18:10:08.948,$GPGGA,181009,3241.8277,N,11709.3838,W,1,8,1.8,17,M,,M,,*56
06/13/2021,18:10:10.049,$GPGGA,181010,3241.8278,N,11709.3840,W,1,8,1.8,17,M,,M,,*5E
06/13/2021,18:10:10.948,$GPGGA,181011,3241.8279,N,11709.3841,W,1,8,1.8,17,M,,M,,*5F
06/13/2021,18:10:12.048,$GPGGA,181012,3241.8279,N,11709.3844,W,1,8,1.8,17,M,,M,,*59
06/13/2021,18:10:12.939,$GPGGA,181013,3241.8279,N,11709.3844,W,1,8,1.8,17,M,,M,,*58
06/13/2021,18:10:14.049,$GPGGA,181014,3241.8281,N,11709.3847,W,1,8,1.8,17,M,,M,,*5B
